[
  {
    "partId": 1002,
    "stateCode": "S15",
    "stateName": "Meghalaya",
    "districtCode": "S1503",
    "districtName": "EAST KHASI HILLS",
    "acNumber": 16,
    "acName": "EAST SHILLONG",
    "partNumber": 1,
    "partName": "SECRETARIAT HILLS A",
    "lat": 25.565099,
    "lon": 91.8837534
  },
  {
    "partId": 1003,
    "stateCode": "S15",
    "stateName": "Meghalaya",
    "districtCode": "S1503",
    "districtName": "EAST KHASI HILLS",
    "acNumber": 16,
    "acName": "EAST SHILLONG",
    "partNumber": 2,
    "partName": "SECRETARIAT HILLS B",
    "lat": 25.565099,
    "lon": 91.8837534
  },
  {
    "partId": 1004,
    "stateCode": "S15",
    "stateName": "Meghalaya",
    "districtCode": "S1503",
    "districtName": "EAST KHASI HILLS",
    "acNumber": 16,
    "acName": "EAST SHILLONG",
    "partNumber": 3,
    "partName": "KEATING ROAD A",
    "lat": 25.5719874,
    "lon": 91.8831752
  },
  {
    "partId": 1005,
    "stateCode": "S15",
    "stateName": "Meghalaya",
    "districtCode": "S1503",
    "districtName": "EAST KHASI HILLS",
    "acNumber": 16,
    "acName": "EAST SHILLONG",
    "partNumber": 4,
    "partName": "KEATING ROAD B",
    "lat": 25.5719874,
    "lon": 91.8831752
  },
  {
    "partId": 1006,
    "stateCode": "S15",
    "stateName": "Meghalaya",
    "districtCode": "S1503",
    "districtName": "EAST KHASI HILLS",
    "acNumber": 16,
    "acName": "EAST SHILLONG",
    "partNumber": 5,
    "partName": "PINE MOUNT",
    "lat": 25.5654202,
    "lon": 91.8806002
  },
  {
    "partId": 1007,
    "stateCode": "S15",
    "stateName": "Meghalaya",
    "districtCode": "S1503",
    "districtName": "EAST KHASI HILLS",
    "acNumber": 16,
    "acName": "EAST SHILLONG",
    "partNumber": 6,
    "partName": "CLEVE COLONY A",
    "lat": 25.565099,
    "lon": 91.8837534
  },
  {
    "partId": 1008,
    "stateCode": "S15",
    "stateName": "Meghalaya",
    "districtCode": "S1503",
    "districtName": "EAST KHASI HILLS",
    "acNumber": 16,
    "acName": "EAST SHILLONG",
    "partNumber": 7,
    "partName": "CLEVE COLONY B",
    "lat": 25.565099,
    "lon": 91.8837534
  },
  {
    "partId": 1009,
    "stateCode": "S15",
    "stateName": "Meghalaya",
    "districtCode": "S1503",
    "districtName": "EAST KHASI HILLS",
    "acNumber": 16,
    "acName": "EAST SHILLONG",
    "partNumber": 8,
    "partName": "DHANKHETI - LAW COLLEGE",
    "lat": 25.565099,
    "lon": 91.8837534
  },
  {
    "partId": 1010,
    "stateCode": "S15",
    "stateName": "Meghalaya",
    "districtCode": "S1503",
    "districtName": "EAST KHASI HILLS",
    "acNumber": 16,
    "acName": "EAST SHILLONG",
    "partNumber": 9,
    "partName": "MALKI UMSHYRPI - CHINAPATTY",
    "lat": 25.565099,
    "lon": 91.8837534
  },
  {
    "partId": 1011,
    "stateCode": "S15",
    "stateName": "Meghalaya",
    "districtCode": "S1503",
    "districtName": "EAST KHASI HILLS",
    "acNumber": 16,
    "acName": "EAST SHILLONG",
    "partNumber": 10,
    "partName": "MALKI NONGSHILLIANG A",
    "lat": 25.565099,
    "lon": 91.8837534
  },
  {
    "partId": 1012,
    "stateCode": "S15",
    "stateName": "Meghalaya",
    "districtCode": "S1503",
    "districtName": "EAST KHASI HILLS",
    "acNumber": 16,
    "acName": "EAST SHILLONG",
    "partNumber": 11,
    "partName": "MALKI NONGSHILLIANG B",
    "lat": 25.565099,
    "lon": 91.8837534
  },
  {
    "partId": 1013,
    "stateCode": "S15",
    "stateName": "Meghalaya",
    "districtCode": "S1503",
    "districtName": "EAST KHASI HILLS",
    "acNumber": 16,
    "acName": "EAST SHILLONG",
    "partNumber": 12,
    "partName": "MALKI PDENGSHNONG A",
    "lat": 25.565099,
    "lon": 91.8837534
  },
  {
    "partId": 1014,
    "stateCode": "S15",
    "stateName": "Meghalaya",
    "districtCode": "S1503",
    "districtName": "EAST KHASI HILLS",
    "acNumber": 16,
    "acName": "EAST SHILLONG",
    "partNumber": 13,
    "partName": "MALKI PDENGSHNONG B",
    "lat": 25.565099,
    "lon": 91.8837534
  },
  {
    "partId": 1015,
    "stateCode": "S15",
    "stateName": "Meghalaya",
    "districtCode": "S1503",
    "districtName": "EAST KHASI HILLS",
    "acNumber": 16,
    "acName": "EAST SHILLONG",
    "partNumber": 14,
    "partName": "MALKI KHLIEHSHNONG EAST",
    "lat": 25.565099,
    "lon": 91.8837534
  },
  {
    "partId": 1016,
    "stateCode": "S15",
    "stateName": "Meghalaya",
    "districtCode": "S1503",
    "districtName": "EAST KHASI HILLS",
    "acNumber": 16,
    "acName": "EAST SHILLONG",
    "partNumber": 15,
    "partName": "MALKI WAHKDAIT",
    "lat": 25.565099,
    "lon": 91.8837534
  },
  {
    "partId": 1017,
    "stateCode": "S15",
    "stateName": "Meghalaya",
    "districtCode": "S1503",
    "districtName": "EAST KHASI HILLS",
    "acNumber": 16,
    "acName": "EAST SHILLONG",
    "partNumber": 16,
    "partName": "MALKI KHARMALKI EAST A",
    "lat": 25.565099,
    "lon": 91.8837534
  },
  {
    "partId": 1018,
    "stateCode": "S15",
    "stateName": "Meghalaya",
    "districtCode": "S1503",
    "districtName": "EAST KHASI HILLS",
    "acNumber": 16,
    "acName": "EAST SHILLONG",
    "partNumber": 17,
    "partName": "MALKI KHARMALKI EAST B",
    "lat": 25.565099,
    "lon": 91.8837534
  },
  {
    "partId": 1019,
    "stateCode": "S15",
    "stateName": "Meghalaya",
    "districtCode": "S1503",
    "districtName": "EAST KHASI HILLS",
    "acNumber": 16,
    "acName": "EAST SHILLONG",
    "partNumber": 18,
    "partName": "MALKI KHLIEHSHNONG WEST - KHARMALKI WEST",
    "lat": 25.565099,
    "lon": 91.8837534
  },
  {
    "partId": 1020,
    "stateCode": "S15",
    "stateName": "Meghalaya",
    "districtCode": "S1503",
    "districtName": "EAST KHASI HILLS",
    "acNumber": 16,
    "acName": "EAST SHILLONG",
    "partNumber": 19,
    "partName": "LAITUMKHRAH NEW COLONY A",
    "lat": 25.5768208,
    "lon": 91.8975851
  },
  {
    "partId": 1021,
    "stateCode": "S15",
    "stateName": "Meghalaya",
    "districtCode": "S1503",
    "districtName": "EAST KHASI HILLS",
    "acNumber": 16,
    "acName": "EAST SHILLONG",
    "partNumber": 20,
    "partName": "LAITUMKHRAH NEW COLONY B",
    "lat": 25.5682373,
    "lon": 91.89982044847505
  },
  {
    "partId": 1022,
    "stateCode": "S15",
    "stateName": "Meghalaya",
    "districtCode": "S1503",
    "districtName": "EAST KHASI HILLS",
    "acNumber": 16,
    "acName": "EAST SHILLONG",
    "partNumber": 21,
    "partName": "LAITUMKHRAH RED HILL & BHAGYAKUL",
    "lat": 25.565099,
    "lon": 91.8837534
  },
  {
    "partId": 1023,
    "stateCode": "S15",
    "stateName": "Meghalaya",
    "districtCode": "S1503",
    "districtName": "EAST KHASI HILLS",
    "acNumber": 16,
    "acName": "EAST SHILLONG",
    "partNumber": 22,
    "partName": "LAITUMKHRAH NONGKYNRIH",
    "lat": 25.565099,
    "lon": 91.8837534
  },
  {
    "partId": 1024,
    "stateCode": "S15",
    "stateName": "Meghalaya",
    "districtCode": "S1503",
    "districtName": "EAST KHASI HILLS",
    "acNumber": 16,
    "acName": "EAST SHILLONG",
    "partNumber": 23,
    "partName": "LAITUMKHRAH NONGRIM ROAD",
    "lat": 25.5682373,
    "lon": 91.89982044847505
  },
  {
    "partId": 1025,
    "stateCode": "S15",
    "stateName": "Meghalaya",
    "districtCode": "S1503",
    "districtName": "EAST KHASI HILLS",
    "acNumber": 16,
    "acName": "EAST SHILLONG",
    "partNumber": 24,
    "partName": "LAITUMKHRAH DEMSEINIONG A",
    "lat": 25.565099,
    "lon": 91.8837534
  },
  {
    "partId": 1026,
    "stateCode": "S15",
    "stateName": "Meghalaya",
    "districtCode": "S1503",
    "districtName": "EAST KHASI HILLS",
    "acNumber": 16,
    "acName": "EAST SHILLONG",
    "partNumber": 25,
    "partName": "LAITUMKHRAH DEMSEINIONG B",
    "lat": 25.565099,
    "lon": 91.8837534
  },
  {
    "partId": 1027,
    "stateCode": "S15",
    "stateName": "Meghalaya",
    "districtCode": "S1503",
    "districtName": "EAST KHASI HILLS",
    "acNumber": 16,
    "acName": "EAST SHILLONG",
    "partNumber": 26,
    "partName": "LAITUMKHRAH NONGRIMMAW A",
    "lat": 25.565099,
    "lon": 91.8837534
  },
  {
    "partId": 1028,
    "stateCode": "S15",
    "stateName": "Meghalaya",
    "districtCode": "S1503",
    "districtName": "EAST KHASI HILLS",
    "acNumber": 16,
    "acName": "EAST SHILLONG",
    "partNumber": 27,
    "partName": "LAITUMKHRAH NONGRIMMAW B",
    "lat": 25.565099,
    "lon": 91.8837534
  },
  {
    "partId": 1029,
    "stateCode": "S15",
    "stateName": "Meghalaya",
    "districtCode": "S1503",
    "districtName": "EAST KHASI HILLS",
    "acNumber": 16,
    "acName": "EAST SHILLONG",
    "partNumber": 28,
    "partName": "LAITUMKHRAH LUMSOHRA A",
    "lat": 25.565099,
    "lon": 91.8837534
  },
  {
    "partId": 1030,
    "stateCode": "S15",
    "stateName": "Meghalaya",
    "districtCode": "S1503",
    "districtName": "EAST KHASI HILLS",
    "acNumber": 16,
    "acName": "EAST SHILLONG",
    "partNumber": 29,
    "partName": "LAITUMKHRAH LUMSOHRA B",
    "lat": 25.565099,
    "lon": 91.8837534
  },
  {
    "partId": 1031,
    "stateCode": "S15",
    "stateName": "Meghalaya",
    "districtCode": "S1503",
    "districtName": "EAST KHASI HILLS",
    "acNumber": 16,
    "acName": "EAST SHILLONG",
    "partNumber": 30,
    "partName": "LAITUMKHRAH NONGRIMBAH WEST A",
    "lat": 25.565099,
    "lon": 91.8837534
  },
  {
    "partId": 1032,
    "stateCode": "S15",
    "stateName": "Meghalaya",
    "districtCode": "S1503",
    "districtName": "EAST KHASI HILLS",
    "acNumber": 16,
    "acName": "EAST SHILLONG",
    "partNumber": 31,
    "partName": "LAITUMKHRAH NONGRIMBAH WEST B",
    "lat": 25.565099,
    "lon": 91.8837534
  },
  {
    "partId": 1033,
    "stateCode": "S15",
    "stateName": "Meghalaya",
    "districtCode": "S1503",
    "districtName": "EAST KHASI HILLS",
    "acNumber": 16,
    "acName": "EAST SHILLONG",
    "partNumber": 32,
    "partName": "LAITUMKHRAH NONGRIMBAH EAST A",
    "lat": 25.565099,
    "lon": 91.8837534
  },
  {
    "partId": 1034,
    "stateCode": "S15",
    "stateName": "Meghalaya",
    "districtCode": "S1503",
    "districtName": "EAST KHASI HILLS",
    "acNumber": 16,
    "acName": "EAST SHILLONG",
    "partNumber": 33,
    "partName": "LAITUMKHRAH NONGRIMBAH EAST B",
    "lat": 25.565099,
    "lon": 91.8837534
  },
  {
    "partId": 1035,
    "stateCode": "S15",
    "stateName": "Meghalaya",
    "districtCode": "S1503",
    "districtName": "EAST KHASI HILLS",
    "acNumber": 16,
    "acName": "EAST SHILLONG",
    "partNumber": 34,
    "partName": "LAITUMKHRAH LUMMAWRIE A",
    "lat": 25.565099,
    "lon": 91.8837534
  },
  {
    "partId": 1036,
    "stateCode": "S15",
    "stateName": "Meghalaya",
    "districtCode": "S1503",
    "districtName": "EAST KHASI HILLS",
    "acNumber": 16,
    "acName": "EAST SHILLONG",
    "partNumber": 35,
    "partName": "LAITUMKHRAH LUMMAWRIE B",
    "lat": 25.565099,
    "lon": 91.8837534
  },
  {
    "partId": 1037,
    "stateCode": "S15",
    "stateName": "Meghalaya",
    "districtCode": "S1503",
    "districtName": "EAST KHASI HILLS",
    "acNumber": 16,
    "acName": "EAST SHILLONG",
    "partNumber": 36,
    "partName": "LAITUMKHRAH DON BOSCO & LACHUMIERE A",
    "lat": 25.565099,
    "lon": 91.8837534
  },
  {
    "partId": 1038,
    "stateCode": "S15",
    "stateName": "Meghalaya",
    "districtCode": "S1503",
    "districtName": "EAST KHASI HILLS",
    "acNumber": 16,
    "acName": "EAST SHILLONG",
    "partNumber": 37,
    "partName": "LAITUMKHRAH DON BOSCO & LACHUMIERE B",
    "lat": 25.565099,
    "lon": 91.8837534
  },
  {
    "partId": 1039,
    "stateCode": "S15",
    "stateName": "Meghalaya",
    "districtCode": "S1503",
    "districtName": "EAST KHASI HILLS",
    "acNumber": 16,
    "acName": "EAST SHILLONG",
    "partNumber": 38,
    "partName": "LAITUMKHRAH BOYCE UPLAND & NORTH MAIN ROAD A",
    "lat": 25.565099,
    "lon": 91.8837534
  },
  {
    "partId": 1040,
    "stateCode": "S15",
    "stateName": "Meghalaya",
    "districtCode": "S1503",
    "districtName": "EAST KHASI HILLS",
    "acNumber": 16,
    "acName": "EAST SHILLONG",
    "partNumber": 39,
    "partName": "LAITUMKHRAH BOYCE UPLAND & NORTH MAIN ROAD B",
    "lat": 25.565099,
    "lon": 91.8837534
  },
  {
    "partId": 4639,
    "stateCode": "S15",
    "stateName": "Meghalaya",
    "districtCode": "S1503",
    "districtName": "EAST KHASI HILLS",
    "acNumber": 29,
    "acName": "MAWKYNREW",
    "partNumber": 1,
    "partName": "LAITKSEH",
    "lat": 25.4105192,
    "lon": 92.01998057910063
  },
  {
    "partId": 4705,
    "stateCode": "S15",
    "stateName": "Meghalaya",
    "districtCode": "S1503",
    "districtName": "EAST KHASI HILLS",
    "acNumber": 29,
    "acName": "MAWKYNREW",
    "partNumber": 2,
    "partName": "UMTNGEW",
    "lat": 25.4105192,
    "lon": 92.01998057910063
  },
  {
    "partId": 4640,
    "stateCode": "S15",
    "stateName": "Meghalaya",
    "districtCode": "S1503",
    "districtName": "EAST KHASI HILLS",
    "acNumber": 29,
    "acName": "MAWKYNREW",
    "partNumber": 3,
    "partName": "THANGSNING A",
    "lat": 25.4105192,
    "lon": 92.01998057910063
  },
  {
    "partId": 4641,
    "stateCode": "S15",
    "stateName": "Meghalaya",
    "districtCode": "S1503",
    "districtName": "EAST KHASI HILLS",
    "acNumber": 29,
    "acName": "MAWKYNREW",
    "partNumber": 4,
    "partName": "THANGSNING B",
    "lat": 25.4105192,
    "lon": 92.01998057910063
  },
  {
    "partId": 4642,
    "stateCode": "S15",
    "stateName": "Meghalaya",
    "districtCode": "S1503",
    "districtName": "EAST KHASI HILLS",
    "acNumber": 29,
    "acName": "MAWKYNREW",
    "partNumber": 5,
    "partName": "RAPLENG",
    "lat": 25.4105192,
    "lon": 92.01998057910063
  },
  {
    "partId": 4643,
    "stateCode": "S15",
    "stateName": "Meghalaya",
    "districtCode": "S1503",
    "districtName": "EAST KHASI HILLS",
    "acNumber": 29,
    "acName": "MAWKYNREW",
    "partNumber": 6,
    "partName": "LAITDIENGSAI",
    "lat": 25.4105192,
    "lon": 92.01998057910063
  },
  {
    "partId": 4644,
    "stateCode": "S15",
    "stateName": "Meghalaya",
    "districtCode": "S1503",
    "districtName": "EAST KHASI HILLS",
    "acNumber": 29,
    "acName": "MAWKYNREW",
    "partNumber": 7,
    "partName": "LAITLUM",
    "lat": 25.4105192,
    "lon": 92.01998057910063
  },
  {
    "partId": 4645,
    "stateCode": "S15",
    "stateName": "Meghalaya",
    "districtCode": "S1503",
    "districtName": "EAST KHASI HILLS",
    "acNumber": 29,
    "acName": "MAWKYNREW",
    "partNumber": 8,
    "partName": "RASONG",
    "lat": 25.440990149999998,
    "lon": 91.91394557796565
  },
  {
    "partId": 4646,
    "stateCode": "S15",
    "stateName": "Meghalaya",
    "districtCode": "S1503",
    "districtName": "EAST KHASI HILLS",
    "acNumber": 29,
    "acName": "MAWKYNREW",
    "partNumber": 9,
    "partName": "RANGPHLANG",
    "lat": 25.4264385,
    "lon": 91.9038773
  },
  {
    "partId": 4647,
    "stateCode": "S15",
    "stateName": "Meghalaya",
    "districtCode": "S1503",
    "districtName": "EAST KHASI HILLS",
    "acNumber": 29,
    "acName": "MAWKYNREW",
    "partNumber": 10,
    "partName": "MAWLALI",
    "lat": 25.4105192,
    "lon": 92.01998057910063
  },
  {
    "partId": 4648,
    "stateCode": "S15",
    "stateName": "Meghalaya",
    "districtCode": "S1503",
    "districtName": "EAST KHASI HILLS",
    "acNumber": 29,
    "acName": "MAWKYNREW",
    "partNumber": 11,
    "partName": "THADAN",
    "lat": 25.4105192,
    "lon": 92.01998057910063
  },
  {
    "partId": 4649,
    "stateCode": "S15",
    "stateName": "Meghalaya",
    "districtCode": "S1503",
    "districtName": "EAST KHASI HILLS",
    "acNumber": 29,
    "acName": "MAWKYNREW",
    "partNumber": 12,
    "partName": "THYNROIT WEST A",
    "lat": 25.4105192,
    "lon": 92.01998057910063
  },
  {
    "partId": 4650,
    "stateCode": "S15",
    "stateName": "Meghalaya",
    "districtCode": "S1503",
    "districtName": "EAST KHASI HILLS",
    "acNumber": 29,
    "acName": "MAWKYNREW",
    "partNumber": 13,
    "partName": "THYNROIT WEST B",
    "lat": 25.4105192,
    "lon": 92.01998057910063
  },
  {
    "partId": 4651,
    "stateCode": "S15",
    "stateName": "Meghalaya",
    "districtCode": "S1503",
    "districtName": "EAST KHASI HILLS",
    "acNumber": 29,
    "acName": "MAWKYNREW",
    "partNumber": 14,
    "partName": "THYNROIT EAST A",
    "lat": 25.4945243,
    "lon": 91.9710695
  },
  {
    "partId": 4652,
    "stateCode": "S15",
    "stateName": "Meghalaya",
    "districtCode": "S1503",
    "districtName": "EAST KHASI HILLS",
    "acNumber": 29,
    "acName": "MAWKYNREW",
    "partNumber": 15,
    "partName": "THYNROIT EAST B",
    "lat": 25.4945243,
    "lon": 91.9710695
  },
  {
    "partId": 4653,
    "stateCode": "S15",
    "stateName": "Meghalaya",
    "districtCode": "S1503",
    "districtName": "EAST KHASI HILLS",
    "acNumber": 29,
    "acName": "MAWKYNREW",
    "partNumber": 16,
    "partName": "MAWBER A",
    "lat": 25.5164181,
    "lon": 92.0054662
  },
  {
    "partId": 4654,
    "stateCode": "S15",
    "stateName": "Meghalaya",
    "districtCode": "S1503",
    "districtName": "EAST KHASI HILLS",
    "acNumber": 29,
    "acName": "MAWKYNREW",
    "partNumber": 17,
    "partName": "MAWBER B",
    "lat": 25.5164181,
    "lon": 92.0054662
  },
  {
    "partId": 4655,
    "stateCode": "S15",
    "stateName": "Meghalaya",
    "districtCode": "S1503",
    "districtName": "EAST KHASI HILLS",
    "acNumber": 29,
    "acName": "MAWKYNREW",
    "partNumber": 18,
    "partName": "MAWPYRSHONG A",
    "lat": 25.4105192,
    "lon": 92.01998057910063
  },
  {
    "partId": 4656,
    "stateCode": "S15",
    "stateName": "Meghalaya",
    "districtCode": "S1503",
    "districtName": "EAST KHASI HILLS",
    "acNumber": 29,
    "acName": "MAWKYNREW",
    "partNumber": 19,
    "partName": "MAWPYRSHONG B",
    "lat": 25.4105192,
    "lon": 92.01998057910063
  },
  {
    "partId": 4657,
    "stateCode": "S15",
    "stateName": "Meghalaya",
    "districtCode": "S1503",
    "districtName": "EAST KHASI HILLS",
    "acNumber": 29,
    "acName": "MAWKYNREW",
    "partNumber": 20,
    "partName": "JONGKSHA EAST A",
    "lat": 25.4703212,
    "lon": 91.9679689
  },
  {
    "partId": 4658,
    "stateCode": "S15",
    "stateName": "Meghalaya",
    "districtCode": "S1503",
    "districtName": "EAST KHASI HILLS",
    "acNumber": 29,
    "acName": "MAWKYNREW",
    "partNumber": 21,
    "partName": "JONGKSHA EAST B",
    "lat": 25.4703212,
    "lon": 91.9679689
  },
  {
    "partId": 4659,
    "stateCode": "S15",
    "stateName": "Meghalaya",
    "districtCode": "S1503",
    "districtName": "EAST KHASI HILLS",
    "acNumber": 29,
    "acName": "MAWKYNREW",
    "partNumber": 22,
    "partName": "JONGKSHA WEST A",
    "lat": 25.4105192,
    "lon": 92.01998057910063
  },
  {
    "partId": 4660,
    "stateCode": "S15",
    "stateName": "Meghalaya",
    "districtCode": "S1503",
    "districtName": "EAST KHASI HILLS",
    "acNumber": 29,
    "acName": "MAWKYNREW",
    "partNumber": 23,
    "partName": "JONGKSHA WEST B",
    "lat": 25.4105192,
    "lon": 92.01998057910063
  },
  {
    "partId": 4661,
    "stateCode": "S15",
    "stateName": "Meghalaya",
    "districtCode": "S1503",
    "districtName": "EAST KHASI HILLS",
    "acNumber": 29,
    "acName": "MAWKYNREW",
    "partNumber": 24,
    "partName": "MAWIAPBANG",
    "lat": 25.4105192,
    "lon": 92.01998057910063
  },
  {
    "partId": 4662,
    "stateCode": "S15",
    "stateName": "Meghalaya",
    "districtCode": "S1503",
    "districtName": "EAST KHASI HILLS",
    "acNumber": 29,
    "acName": "MAWKYNREW",
    "partNumber": 25,
    "partName": "KHARANG A",
    "lat": 25.4105192,
    "lon": 92.01998057910063
  },
  {
    "partId": 4663,
    "stateCode": "S15",
    "stateName": "Meghalaya",
    "districtCode": "S1503",
    "districtName": "EAST KHASI HILLS",
    "acNumber": 29,
    "acName": "MAWKYNREW",
    "partNumber": 26,
    "partName": "KHARANG B",
    "lat": 25.4105192,
    "lon": 92.01998057910063
  },
  {
    "partId": 4664,
    "stateCode": "S15",
    "stateName": "Meghalaya",
    "districtCode": "S1503",
    "districtName": "EAST KHASI HILLS",
    "acNumber": 29,
    "acName": "MAWKYNREW",
    "partNumber": 27,
    "partName": "PINGWAIT",
    "lat": 25.4105192,
    "lon": 92.01998057910063
  },
  {
    "partId": 4665,
    "stateCode": "S15",
    "stateName": "Meghalaya",
    "districtCode": "S1503",
    "districtName": "EAST KHASI HILLS",
    "acNumber": 29,
    "acName": "MAWKYNREW",
    "partNumber": 28,
    "partName": "DIENGLIENG",
    "lat": 25.4105192,
    "lon": 92.01998057910063
  },
  {
    "partId": 4666,
    "stateCode": "S15",
    "stateName": "Meghalaya",
    "districtCode": "S1503",
    "districtName": "EAST KHASI HILLS",
    "acNumber": 29,
    "acName": "MAWKYNREW",
    "partNumber": 29,
    "partName": "TANGLEI",
    "lat": 25.4105192,
    "lon": 92.01998057910063
  },
  {
    "partId": 4667,
    "stateCode": "S15",
    "stateName": "Meghalaya",
    "districtCode": "S1503",
    "districtName": "EAST KHASI HILLS",
    "acNumber": 29,
    "acName": "MAWKYNREW",
    "partNumber": 30,
    "partName": "UMSNING",
    "lat": 25.4105192,
    "lon": 92.01998057910063
  },
  {
    "partId": 4668,
    "stateCode": "S15",
    "stateName": "Meghalaya",
    "districtCode": "S1503",
    "districtName": "EAST KHASI HILLS",
    "acNumber": 29,
    "acName": "MAWKYNREW",
    "partNumber": 31,
    "partName": "SYNIASYA",
    "lat": 25.4105192,
    "lon": 92.01998057910063
  },
  {
    "partId": 4669,
    "stateCode": "S15",
    "stateName": "Meghalaya",
    "districtCode": "S1503",
    "districtName": "EAST KHASI HILLS",
    "acNumber": 29,
    "acName": "MAWKYNREW",
    "partNumber": 32,
    "partName": "NONGJRONG A",
    "lat": 25.4789125,
    "lon": 92.0902884
  },
  {
    "partId": 4670,
    "stateCode": "S15",
    "stateName": "Meghalaya",
    "districtCode": "S1503",
    "districtName": "EAST KHASI HILLS",
    "acNumber": 29,
    "acName": "MAWKYNREW",
    "partNumber": 33,
    "partName": "NONGJRONG B",
    "lat": 25.4789125,
    "lon": 92.0902884
  },
  {
    "partId": 4671,
    "stateCode": "S15",
    "stateName": "Meghalaya",
    "districtCode": "S1503",
    "districtName": "EAST KHASI HILLS",
    "acNumber": 29,
    "acName": "MAWKYNREW",
    "partNumber": 34,
    "partName": "MAWKYNREW",
    "lat": 25.4105192,
    "lon": 92.01998057910063
  },
  {
    "partId": 4672,
    "stateCode": "S15",
    "stateName": "Meghalaya",
    "districtCode": "S1503",
    "districtName": "EAST KHASI HILLS",
    "acNumber": 29,
    "acName": "MAWKYNREW",
    "partNumber": 35,
    "partName": "UMTONG",
    "lat": 25.4105192,
    "lon": 92.01998057910063
  },
  {
    "partId": 4673,
    "stateCode": "S15",
    "stateName": "Meghalaya",
    "districtCode": "S1503",
    "districtName": "EAST KHASI HILLS",
    "acNumber": 29,
    "acName": "MAWKYNREW",
    "partNumber": 36,
    "partName": "MAWLEIN",
    "lat": 25.5836807,
    "lon": 91.8666781
  },
  {
    "partId": 4674,
    "stateCode": "S15",
    "stateName": "Meghalaya",
    "districtCode": "S1503",
    "districtName": "EAST KHASI HILLS",
    "acNumber": 29,
    "acName": "MAWKYNREW",
    "partNumber": 37,
    "partName": "JATAH NONGLYER",
    "lat": 25.4105192,
    "lon": 92.01998057910063
  },
  {
    "partId": 4675,
    "stateCode": "S15",
    "stateName": "Meghalaya",
    "districtCode": "S1503",
    "districtName": "EAST KHASI HILLS",
    "acNumber": 29,
    "acName": "MAWKYNREW",
    "partNumber": 38,
    "partName": "JATAH LAKADONG",
    "lat": 25.4105192,
    "lon": 92.01998057910063
  },
  {
    "partId": 4676,
    "stateCode": "S15",
    "stateName": "Meghalaya",
    "districtCode": "S1503",
    "districtName": "EAST KHASI HILLS",
    "acNumber": 29,
    "acName": "MAWKYNREW",
    "partNumber": 39,
    "partName": "MYNSANG",
    "lat": 25.4105192,
    "lon": 92.01998057910063
  },
  {
    "partId": 4677,
    "stateCode": "S15",
    "stateName": "Meghalaya",
    "districtCode": "S1503",
    "districtName": "EAST KHASI HILLS",
    "acNumber": 29,
    "acName": "MAWKYNREW",
    "partNumber": 40,
    "partName": "LAITMYNSANG",
    "lat": 25.4105192,
    "lon": 92.01998057910063
  },
  {
    "partId": 4678,
    "stateCode": "S15",
    "stateName": "Meghalaya",
    "districtCode": "S1503",
    "districtName": "EAST KHASI HILLS",
    "acNumber": 29,
    "acName": "MAWKYNREW",
    "partNumber": 41,
    "partName": "MAWSIR",
    "lat": 25.4105192,
    "lon": 92.01998057910063
  },
  {
    "partId": 4679,
    "stateCode": "S15",
    "stateName": "Meghalaya",
    "districtCode": "S1503",
    "districtName": "EAST KHASI HILLS",
    "acNumber": 29,
    "acName": "MAWKYNREW",
    "partNumber": 42,
    "partName": "UMSAW WAR",
    "lat": 25.4105192,
    "lon": 92.01998057910063
  },
  {
    "partId": 4706,
    "stateCode": "S15",
    "stateName": "Meghalaya",
    "districtCode": "S1503",
    "districtName": "EAST KHASI HILLS",
    "acNumber": 29,
    "acName": "MAWKYNREW",
    "partNumber": 43,
    "partName": "MAWLANG",
    "lat": 25.4105192,
    "lon": 92.01998057910063
  },
  {
    "partId": 4680,
    "stateCode": "S15",
    "stateName": "Meghalaya",
    "districtCode": "S1503",
    "districtName": "EAST KHASI HILLS",
    "acNumber": 29,
    "acName": "MAWKYNREW",
    "partNumber": 44,
    "partName": "SYNTUNG",
    "lat": 25.3529414,
    "lon": 92.0535099
  },
  {
    "partId": 4681,
    "stateCode": "S15",
    "stateName": "Meghalaya",
    "districtCode": "S1503",
    "districtName": "EAST KHASI HILLS",
    "acNumber": 29,
    "acName": "MAWKYNREW",
    "partNumber": 45,
    "partName": "MAWJATAP",
    "lat": 25.4105192,
    "lon": 92.01998057910063
  },
  {
    "partId": 4682,
    "stateCode": "S15",
    "stateName": "Meghalaya",
    "districtCode": "S1503",
    "districtName": "EAST KHASI HILLS",
    "acNumber": 29,
    "acName": "MAWKYNREW",
    "partNumber": 46,
    "partName": "NONGHULEW",
    "lat": 25.4105192,
    "lon": 92.01998057910063
  },
  {
    "partId": 4683,
    "stateCode": "S15",
    "stateName": "Meghalaya",
    "districtCode": "S1503",
    "districtName": "EAST KHASI HILLS",
    "acNumber": 29,
    "acName": "MAWKYNREW",
    "partNumber": 47,
    "partName": "MAWSNA",
    "lat": 25.3617495,
    "lon": 92.0203685
  },
  {
    "partId": 4684,
    "stateCode": "S15",
    "stateName": "Meghalaya",
    "districtCode": "S1503",
    "districtName": "EAST KHASI HILLS",
    "acNumber": 29,
    "acName": "MAWKYNREW",
    "partNumber": 48,
    "partName": "KHLIEHASEM",
    "lat": 25.3758546,
    "lon": 92.033962
  },
  {
    "partId": 4685,
    "stateCode": "S15",
    "stateName": "Meghalaya",
    "districtCode": "S1503",
    "districtName": "EAST KHASI HILLS",
    "acNumber": 29,
    "acName": "MAWKYNREW",
    "partNumber": 49,
    "partName": "NOHRON",
    "lat": 25.3397597,
    "lon": 92.0250463
  },
  {
    "partId": 4686,
    "stateCode": "S15",
    "stateName": "Meghalaya",
    "districtCode": "S1503",
    "districtName": "EAST KHASI HILLS",
    "acNumber": 29,
    "acName": "MAWKYNREW",
    "partNumber": 50,
    "partName": "NONGRYNGKOH",
    "lat": 25.3230271,
    "lon": 92.0122897
  },
  {
    "partId": 4687,
    "stateCode": "S15",
    "stateName": "Meghalaya",
    "districtCode": "S1503",
    "districtName": "EAST KHASI HILLS",
    "acNumber": 29,
    "acName": "MAWKYNREW",
    "partNumber": 51,
    "partName": "LYNSHING A",
    "lat": 25.4105192,
    "lon": 92.01998057910063
  },
  {
    "partId": 4688,
    "stateCode": "S15",
    "stateName": "Meghalaya",
    "districtCode": "S1503",
    "districtName": "EAST KHASI HILLS",
    "acNumber": 29,
    "acName": "MAWKYNREW",
    "partNumber": 52,
    "partName": "LYNSHING B",
    "lat": 25.4105192,
    "lon": 92.01998057910063
  },
  {
    "partId": 4689,
    "stateCode": "S15",
    "stateName": "Meghalaya",
    "districtCode": "S1503",
    "districtName": "EAST KHASI HILLS",
    "acNumber": 29,
    "acName": "MAWKYNREW",
    "partNumber": 53,
    "partName": "NONGPYRDI",
    "lat": 25.4105192,
    "lon": 92.01998057910063
  },
  {
    "partId": 4690,
    "stateCode": "S15",
    "stateName": "Meghalaya",
    "districtCode": "S1503",
    "districtName": "EAST KHASI HILLS",
    "acNumber": 29,
    "acName": "MAWKYNREW",
    "partNumber": 54,
    "partName": "MAWRASAI",
    "lat": 25.4105192,
    "lon": 92.01998057910063
  },
  {
    "partId": 4691,
    "stateCode": "S15",
    "stateName": "Meghalaya",
    "districtCode": "S1503",
    "districtName": "EAST KHASI HILLS",
    "acNumber": 29,
    "acName": "MAWKYNREW",
    "partNumber": 55,
    "partName": "MAWLAT",
    "lat": 25.4105192,
    "lon": 92.01998057910063
  },
  {
    "partId": 4692,
    "stateCode": "S15",
    "stateName": "Meghalaya",
    "districtCode": "S1503",
    "districtName": "EAST KHASI HILLS",
    "acNumber": 29,
    "acName": "MAWKYNREW",
    "partNumber": 56,
    "partName": "WAHMAWLEIN",
    "lat": 25.3796932,
    "lon": 91.9862214
  },
  {
    "partId": 4693,
    "stateCode": "S15",
    "stateName": "Meghalaya",
    "districtCode": "S1503",
    "districtName": "EAST KHASI HILLS",
    "acNumber": 29,
    "acName": "MAWKYNREW",
    "partNumber": 57,
    "partName": "WAHLAKHIAT",
    "lat": 25.4105192,
    "lon": 92.01998057910063
  },
  {
    "partId": 4694,
    "stateCode": "S15",
    "stateName": "Meghalaya",
    "districtCode": "S1503",
    "districtName": "EAST KHASI HILLS",
    "acNumber": 29,
    "acName": "MAWKYNREW",
    "partNumber": 58,
    "partName": "WAHLYNGDOH",
    "lat": 25.4105192,
    "lon": 92.01998057910063
  },
  {
    "partId": 4695,
    "stateCode": "S15",
    "stateName": "Meghalaya",
    "districtCode": "S1503",
    "districtName": "EAST KHASI HILLS",
    "acNumber": 29,
    "acName": "MAWKYNREW",
    "partNumber": 59,
    "partName": "MAWKRIA",
    "lat": 25.41560016076923,
    "lon": 92.00782482333223
  },
  {
    "partId": 4696,
    "stateCode": "S15",
    "stateName": "Meghalaya",
    "districtCode": "S1503",
    "districtName": "EAST KHASI HILLS",
    "acNumber": 29,
    "acName": "MAWKYNREW",
    "partNumber": 60,
    "partName": "RNGIBAH",
    "lat": 25.41560016076923,
    "lon": 92.00782482333223
  },
  {
    "partId": 4697,
    "stateCode": "S15",
    "stateName": "Meghalaya",
    "districtCode": "S1503",
    "districtName": "EAST KHASI HILLS",
    "acNumber": 29,
    "acName": "MAWKYNREW",
    "partNumber": 61,
    "partName": "THANGBNAI",
    "lat": 25.41560016076923,
    "lon": 92.00782482333223
  },
  {
    "partId": 4698,
    "stateCode": "S15",
    "stateName": "Meghalaya",
    "districtCode": "S1503",
    "districtName": "EAST KHASI HILLS",
    "acNumber": 29,
    "acName": "MAWKYNREW",
    "partNumber": 62,
    "partName": "KHAPMAW",
    "lat": 25.4105192,
    "lon": 92.01998057910063
  },
  {
    "partId": 4699,
    "stateCode": "S15",
    "stateName": "Meghalaya",
    "districtCode": "S1503",
    "districtName": "EAST KHASI HILLS",
    "acNumber": 29,
    "acName": "MAWKYNREW",
    "partNumber": 63,
    "partName": "PYNGKYA",
    "lat": 25.4105192,
    "lon": 92.01998057910063
  },
  {
    "partId": 4700,
    "stateCode": "S15",
    "stateName": "Meghalaya",
    "districtCode": "S1503",
    "districtName": "EAST KHASI HILLS",
    "acNumber": 29,
    "acName": "MAWKYNREW",
    "partNumber": 64,
    "partName": "LAITKYRHONG A",
    "lat": 25.4105192,
    "lon": 92.01998057910063
  },
  {
    "partId": 4701,
    "stateCode": "S15",
    "stateName": "Meghalaya",
    "districtCode": "S1503",
    "districtName": "EAST KHASI HILLS",
    "acNumber": 29,
    "acName": "MAWKYNREW",
    "partNumber": 65,
    "partName": "LAITKYRHONG B",
    "lat": 25.4105192,
    "lon": 92.01998057910063
  },
  {
    "partId": 4702,
    "stateCode": "S15",
    "stateName": "Meghalaya",
    "districtCode": "S1503",
    "districtName": "EAST KHASI HILLS",
    "acNumber": 29,
    "acName": "MAWKYNREW",
    "partNumber": 66,
    "partName": "KHWAD",
    "lat": 25.3888379,
    "lon": 91.9715994
  },
  {
    "partId": 4703,
    "stateCode": "S15",
    "stateName": "Meghalaya",
    "districtCode": "S1503",
    "districtName": "EAST KHASI HILLS",
    "acNumber": 29,
    "acName": "MAWKYNREW",
    "partNumber": 67,
    "partName": "MAWLYNGOT",
    "lat": 25.4105192,
    "lon": 92.01998057910063
  },
  {
    "partId": 4704,
    "stateCode": "S15",
    "stateName": "Meghalaya",
    "districtCode": "S1503",
    "districtName": "EAST KHASI HILLS",
    "acNumber": 29,
    "acName": "MAWKYNREW",
    "partNumber": 68,
    "partName": "MAWBLANG",
    "lat": 25.2368023,
    "lon": 91.7324227
  },
  {
    "partId": 919,
    "stateCode": "S15",
    "stateName": "Meghalaya",
    "districtCode": "S1503",
    "districtName": "EAST KHASI HILLS",
    "acNumber": 15,
    "acName": "MAWLAI",
    "partNumber": 1,
    "partName": "MAWSIATKHNAM",
    "lat": 25.665374,
    "lon": 91.971923
  },
  {
    "partId": 920,
    "stateCode": "S15",
    "stateName": "Meghalaya",
    "districtCode": "S1503",
    "districtName": "EAST KHASI HILLS",
    "acNumber": 15,
    "acName": "MAWLAI",
    "partNumber": 2,
    "partName": "UMJATHANG",
    "lat": 25.640327,
    "lon": 91.89584219573298
  },
  {
    "partId": 921,
    "stateCode": "S15",
    "stateName": "Meghalaya",
    "districtCode": "S1503",
    "districtName": "EAST KHASI HILLS",
    "acNumber": 15,
    "acName": "MAWLAI",
    "partNumber": 3,
    "partName": "NONGKOHLEW",
    "lat": 25.640327,
    "lon": 91.89584219573298
  },
  {
    "partId": 922,
    "stateCode": "S15",
    "stateName": "Meghalaya",
    "districtCode": "S1503",
    "districtName": "EAST KHASI HILLS",
    "acNumber": 15,
    "acName": "MAWLAI",
    "partNumber": 4,
    "partName": "UMRYNJAH",
    "lat": 25.640327,
    "lon": 91.89584219573298
  },
  {
    "partId": 923,
    "stateCode": "S15",
    "stateName": "Meghalaya",
    "districtCode": "S1503",
    "districtName": "EAST KHASI HILLS",
    "acNumber": 15,
    "acName": "MAWLAI",
    "partNumber": 5,
    "partName": "UMPHREW",
    "lat": 25.640327,
    "lon": 91.89584219573298
  },
  {
    "partId": 924,
    "stateCode": "S15",
    "stateName": "Meghalaya",
    "districtCode": "S1503",
    "districtName": "EAST KHASI HILLS",
    "acNumber": 15,
    "acName": "MAWLAI",
    "partNumber": 6,
    "partName": "MAWTAWAR PDENGSHNONG - RIATTAMDONG A",
    "lat": 25.640327,
    "lon": 91.89584219573298
  },
  {
    "partId": 925,
    "stateCode": "S15",
    "stateName": "Meghalaya",
    "districtCode": "S1503",
    "districtName": "EAST KHASI HILLS",
    "acNumber": 15,
    "acName": "MAWLAI",
    "partNumber": 7,
    "partName": "MAWTAWAR PDENGSHNONG - RIATTAMDONG B",
    "lat": 25.640327,
    "lon": 91.89584219573298
  },
  {
    "partId": 926,
    "stateCode": "S15",
    "stateName": "Meghalaya",
    "districtCode": "S1503",
    "districtName": "EAST KHASI HILLS",
    "acNumber": 15,
    "acName": "MAWLAI",
    "partNumber": 8,
    "partName": "MAWTAWAR LUMMAWSING A",
    "lat": 25.640327,
    "lon": 91.89584219573298
  },
  {
    "partId": 927,
    "stateCode": "S15",
    "stateName": "Meghalaya",
    "districtCode": "S1503",
    "districtName": "EAST KHASI HILLS",
    "acNumber": 15,
    "acName": "MAWLAI",
    "partNumber": 9,
    "partName": "MAWTAWAR LUMMAWSING B",
    "lat": 25.640327,
    "lon": 91.89584219573298
  },
  {
    "partId": 928,
    "stateCode": "S15",
    "stateName": "Meghalaya",
    "districtCode": "S1503",
    "districtName": "EAST KHASI HILLS",
    "acNumber": 15,
    "acName": "MAWLAI",
    "partNumber": 10,
    "partName": "LAITLUM",
    "lat": 25.640327,
    "lon": 91.89584219573298
  },
  {
    "partId": 929,
    "stateCode": "S15",
    "stateName": "Meghalaya",
    "districtCode": "S1503",
    "districtName": "EAST KHASI HILLS",
    "acNumber": 15,
    "acName": "MAWLAI",
    "partNumber": 11,
    "partName": "UMSAW MAWTAWAR",
    "lat": 25.640327,
    "lon": 91.89584219573298
  },
  {
    "partId": 930,
    "stateCode": "S15",
    "stateName": "Meghalaya",
    "districtCode": "S1503",
    "districtName": "EAST KHASI HILLS",
    "acNumber": 15,
    "acName": "MAWLAI",
    "partNumber": 12,
    "partName": "MAWLAI KYNTON MASSAR EAST A",
    "lat": 25.639328005128203,
    "lon": 91.89624776512787
  },
  {
    "partId": 931,
    "stateCode": "S15",
    "stateName": "Meghalaya",
    "districtCode": "S1503",
    "districtName": "EAST KHASI HILLS",
    "acNumber": 15,
    "acName": "MAWLAI",
    "partNumber": 13,
    "partName": "MAWLAI KYNTON MASSAR EAST B",
    "lat": 25.640327,
    "lon": 91.89584219573298
  },
  {
    "partId": 932,
    "stateCode": "S15",
    "stateName": "Meghalaya",
    "districtCode": "S1503",
    "districtName": "EAST KHASI HILLS",
    "acNumber": 15,
    "acName": "MAWLAI",
    "partNumber": 14,
    "partName": "MAWLAI KYNTON MASSAR WEST A",
    "lat": 25.640327,
    "lon": 91.89584219573298
  },
  {
    "partId": 933,
    "stateCode": "S15",
    "stateName": "Meghalaya",
    "districtCode": "S1503",
    "districtName": "EAST KHASI HILLS",
    "acNumber": 15,
    "acName": "MAWLAI",
    "partNumber": 15,
    "partName": "MAWLAI KYNTON MASSAR WEST B",
    "lat": 25.640327,
    "lon": 91.89584219573298
  },
  {
    "partId": 934,
    "stateCode": "S15",
    "stateName": "Meghalaya",
    "districtCode": "S1503",
    "districtName": "EAST KHASI HILLS",
    "acNumber": 15,
    "acName": "MAWLAI",
    "partNumber": 16,
    "partName": "MAWLAI MAWDATBAKI WEST A",
    "lat": 25.640327,
    "lon": 91.89584219573298
  },
  {
    "partId": 935,
    "stateCode": "S15",
    "stateName": "Meghalaya",
    "districtCode": "S1503",
    "districtName": "EAST KHASI HILLS",
    "acNumber": 15,
    "acName": "MAWLAI",
    "partNumber": 17,
    "partName": "MAWLAI MAWDATBAKI WEST B",
    "lat": 25.640327,
    "lon": 91.89584219573298
  },
  {
    "partId": 936,
    "stateCode": "S15",
    "stateName": "Meghalaya",
    "districtCode": "S1503",
    "districtName": "EAST KHASI HILLS",
    "acNumber": 15,
    "acName": "MAWLAI",
    "partNumber": 18,
    "partName": "MAWLAI MAWDATBAKI UMJAN - NONGMALI I A",
    "lat": 25.640327,
    "lon": 91.89584219573298
  },
  {
    "partId": 937,
    "stateCode": "S15",
    "stateName": "Meghalaya",
    "districtCode": "S1503",
    "districtName": "EAST KHASI HILLS",
    "acNumber": 15,
    "acName": "MAWLAI",
    "partNumber": 19,
    "partName": "MAWLAI MAWDATBAKI UMJAN - NONGMALI I B",
    "lat": 25.640327,
    "lon": 91.89584219573298
  },
  {
    "partId": 938,
    "stateCode": "S15",
    "stateName": "Meghalaya",
    "districtCode": "S1503",
    "districtName": "EAST KHASI HILLS",
    "acNumber": 15,
    "acName": "MAWLAI",
    "partNumber": 20,
    "partName": "MAWLAI MAWDATBAKI PATA A",
    "lat": 25.640327,
    "lon": 91.89584219573298
  },
  {
    "partId": 939,
    "stateCode": "S15",
    "stateName": "Meghalaya",
    "districtCode": "S1503",
    "districtName": "EAST KHASI HILLS",
    "acNumber": 15,
    "acName": "MAWLAI",
    "partNumber": 21,
    "partName": "MAWLAI MAWDATBAKI PATA B",
    "lat": 25.640327,
    "lon": 91.89584219573298
  },
  {
    "partId": 940,
    "stateCode": "S15",
    "stateName": "Meghalaya",
    "districtCode": "S1503",
    "districtName": "EAST KHASI HILLS",
    "acNumber": 15,
    "acName": "MAWLAI",
    "partNumber": 22,
    "partName": "MAWLAI MAWDATBAKI MAWAPKHAW & UMSOHKROT-UMPARMAW A",
    "lat": 25.640327,
    "lon": 91.89584219573298
  },
  {
    "partId": 941,
    "stateCode": "S15",
    "stateName": "Meghalaya",
    "districtCode": "S1503",
    "districtName": "EAST KHASI HILLS",
    "acNumber": 15,
    "acName": "MAWLAI",
    "partNumber": 23,
    "partName": "MAWLAI MAWDATBAKI MAWAPKHAW & UMSOHKROT-UMPARMAW B",
    "lat": 25.640327,
    "lon": 91.89584219573298
  },
  {
    "partId": 942,
    "stateCode": "S15",
    "stateName": "Meghalaya",
    "districtCode": "S1503",
    "districtName": "EAST KHASI HILLS",
    "acNumber": 15,
    "acName": "MAWLAI",
    "partNumber": 24,
    "partName": "MAWLAI MAWDATBAKI NONGPATHAW A",
    "lat": 25.640327,
    "lon": 91.89584219573298
  },
  {
    "partId": 943,
    "stateCode": "S15",
    "stateName": "Meghalaya",
    "districtCode": "S1503",
    "districtName": "EAST KHASI HILLS",
    "acNumber": 15,
    "acName": "MAWLAI",
    "partNumber": 25,
    "partName": "MAWLAI MAWDATBAKI NONGPATHAW B",
    "lat": 25.640327,
    "lon": 91.89584219573298
  },
  {
    "partId": 944,
    "stateCode": "S15",
    "stateName": "Meghalaya",
    "districtCode": "S1503",
    "districtName": "EAST KHASI HILLS",
    "acNumber": 15,
    "acName": "MAWLAI",
    "partNumber": 26,
    "partName": "UMSHING MAWKYNROH A",
    "lat": 25.640327,
    "lon": 91.89584219573298
  },
  {
    "partId": 945,
    "stateCode": "S15",
    "stateName": "Meghalaya",
    "districtCode": "S1503",
    "districtName": "EAST KHASI HILLS",
    "acNumber": 15,
    "acName": "MAWLAI",
    "partNumber": 27,
    "partName": "UMSHING MAWKYNROH B",
    "lat": 25.640327,
    "lon": 91.89584219573298
  },
  {
    "partId": 946,
    "stateCode": "S15",
    "stateName": "Meghalaya",
    "districtCode": "S1503",
    "districtName": "EAST KHASI HILLS",
    "acNumber": 15,
    "acName": "MAWLAI",
    "partNumber": 28,
    "partName": "UMSHING UMJAPUNG MAWLAI",
    "lat": 25.640327,
    "lon": 91.89584219573298
  },
  {
    "partId": 947,
    "stateCode": "S15",
    "stateName": "Meghalaya",
    "districtCode": "S1503",
    "districtName": "EAST KHASI HILLS",
    "acNumber": 15,
    "acName": "MAWLAI",
    "partNumber": 29,
    "partName": "NEHU CAMPUS (MAWLAI)",
    "lat": 25.640327,
    "lon": 91.89584219573298
  },
  {
    "partId": 948,
    "stateCode": "S15",
    "stateName": "Meghalaya",
    "districtCode": "S1503",
    "districtName": "EAST KHASI HILLS",
    "acNumber": 15,
    "acName": "MAWLAI",
    "partNumber": 30,
    "partName": "MAWLAI MAWROH NORTH A",
    "lat": 25.640327,
    "lon": 91.89584219573298
  },
  {
    "partId": 949,
    "stateCode": "S15",
    "stateName": "Meghalaya",
    "districtCode": "S1503",
    "districtName": "EAST KHASI HILLS",
    "acNumber": 15,
    "acName": "MAWLAI",
    "partNumber": 31,
    "partName": "MAWLAI MAWROH NORTH B",
    "lat": 25.640327,
    "lon": 91.89584219573298
  },
  {
    "partId": 950,
    "stateCode": "S15",
    "stateName": "Meghalaya",
    "districtCode": "S1503",
    "districtName": "EAST KHASI HILLS",
    "acNumber": 15,
    "acName": "MAWLAI",
    "partNumber": 32,
    "partName": "MAWLAI MAWROH SOUTH A",
    "lat": 25.640327,
    "lon": 91.89584219573298
  },
  {
    "partId": 951,
    "stateCode": "S15",
    "stateName": "Meghalaya",
    "districtCode": "S1503",
    "districtName": "EAST KHASI HILLS",
    "acNumber": 15,
    "acName": "MAWLAI",
    "partNumber": 33,
    "partName": "MAWLAI MAWROH SOUTH B",
    "lat": 25.640327,
    "lon": 91.89584219573298
  },
  {
    "partId": 952,
    "stateCode": "S15",
    "stateName": "Meghalaya",
    "districtCode": "S1503",
    "districtName": "EAST KHASI HILLS",
    "acNumber": 15,
    "acName": "MAWLAI",
    "partNumber": 34,
    "partName": "MAWLAI MAWROH EAST A",
    "lat": 25.640327,
    "lon": 91.89584219573298
  },
  {
    "partId": 953,
    "stateCode": "S15",
    "stateName": "Meghalaya",
    "districtCode": "S1503",
    "districtName": "EAST KHASI HILLS",
    "acNumber": 15,
    "acName": "MAWLAI",
    "partNumber": 35,
    "partName": "MAWLAI MAWROH EAST B",
    "lat": 25.640327,
    "lon": 91.89584219573298
  },
  {
    "partId": 954,
    "stateCode": "S15",
    "stateName": "Meghalaya",
    "districtCode": "S1503",
    "districtName": "EAST KHASI HILLS",
    "acNumber": 15,
    "acName": "MAWLAI",
    "partNumber": 36,
    "partName": "MAWLAI PHUDMURI A NORTH & SOUTH I",
    "lat": 25.640327,
    "lon": 91.89584219573298
  },
  {
    "partId": 955,
    "stateCode": "S15",
    "stateName": "Meghalaya",
    "districtCode": "S1503",
    "districtName": "EAST KHASI HILLS",
    "acNumber": 15,
    "acName": "MAWLAI",
    "partNumber": 37,
    "partName": "MAWLAI PHUDMURI A NORTH & SOUTH II",
    "lat": 25.640327,
    "lon": 91.89584219573298
  },
  {
    "partId": 956,
    "stateCode": "S15",
    "stateName": "Meghalaya",
    "districtCode": "S1503",
    "districtName": "EAST KHASI HILLS",
    "acNumber": 15,
    "acName": "MAWLAI",
    "partNumber": 38,
    "partName": "MAWLAI PHUDMURI B",
    "lat": 25.640327,
    "lon": 91.89584219573298
  },
  {
    "partId": 957,
    "stateCode": "S15",
    "stateName": "Meghalaya",
    "districtCode": "S1503",
    "districtName": "EAST KHASI HILLS",
    "acNumber": 15,
    "acName": "MAWLAI",
    "partNumber": 39,
    "partName": "MAWLAI MADAN HEH EAST A",
    "lat": 25.640327,
    "lon": 91.89584219573298
  },
  {
    "partId": 958,
    "stateCode": "S15",
    "stateName": "Meghalaya",
    "districtCode": "S1503",
    "districtName": "EAST KHASI HILLS",
    "acNumber": 15,
    "acName": "MAWLAI",
    "partNumber": 40,
    "partName": "MAWLAI MADAN HEH EAST B",
    "lat": 25.640327,
    "lon": 91.89584219573298
  },
  {
    "partId": 959,
    "stateCode": "S15",
    "stateName": "Meghalaya",
    "districtCode": "S1503",
    "districtName": "EAST KHASI HILLS",
    "acNumber": 15,
    "acName": "MAWLAI",
    "partNumber": 41,
    "partName": "MAWLAI NONGPDENG A EAST & WEST I",
    "lat": 25.640327,
    "lon": 91.89584219573298
  },
  {
    "partId": 960,
    "stateCode": "S15",
    "stateName": "Meghalaya",
    "districtCode": "S1503",
    "districtName": "EAST KHASI HILLS",
    "acNumber": 15,
    "acName": "MAWLAI",
    "partNumber": 42,
    "partName": "MAWLAI NONGPDENG A EAST & WEST II",
    "lat": 25.640327,
    "lon": 91.89584219573298
  },
  {
    "partId": 961,
    "stateCode": "S15",
    "stateName": "Meghalaya",
    "districtCode": "S1503",
    "districtName": "EAST KHASI HILLS",
    "acNumber": 15,
    "acName": "MAWLAI",
    "partNumber": 43,
    "partName": "MAWLAI NONGPDENG B EAST & WEST I",
    "lat": 25.640327,
    "lon": 91.89584219573298
  },
  {
    "partId": 962,
    "stateCode": "S15",
    "stateName": "Meghalaya",
    "districtCode": "S1503",
    "districtName": "EAST KHASI HILLS",
    "acNumber": 15,
    "acName": "MAWLAI",
    "partNumber": 44,
    "partName": "MAWLAI NONGPDENG B EAST & WEST II",
    "lat": 25.640327,
    "lon": 91.89584219573298
  },
  {
    "partId": 963,
    "stateCode": "S15",
    "stateName": "Meghalaya",
    "districtCode": "S1503",
    "districtName": "EAST KHASI HILLS",
    "acNumber": 15,
    "acName": "MAWLAI",
    "partNumber": 45,
    "partName": "MAWLAI MOTSYIAR A",
    "lat": 25.640327,
    "lon": 91.89584219573298
  },
  {
    "partId": 964,
    "stateCode": "S15",
    "stateName": "Meghalaya",
    "districtCode": "S1503",
    "districtName": "EAST KHASI HILLS",
    "acNumber": 15,
    "acName": "MAWLAI",
    "partNumber": 46,
    "partName": "MAWLAI MOTSYIAR B",
    "lat": 25.640327,
    "lon": 91.89584219573298
  },
  {
    "partId": 965,
    "stateCode": "S15",
    "stateName": "Meghalaya",
    "districtCode": "S1503",
    "districtName": "EAST KHASI HILLS",
    "acNumber": 15,
    "acName": "MAWLAI",
    "partNumber": 47,
    "partName": "MAWLAI UMJAIUR BLOCK I-II",
    "lat": 25.639328005128203,
    "lon": 91.89624776512787
  },
  {
    "partId": 966,
    "stateCode": "S15",
    "stateName": "Meghalaya",
    "districtCode": "S1503",
    "districtName": "EAST KHASI HILLS",
    "acNumber": 15,
    "acName": "MAWLAI",
    "partNumber": 48,
    "partName": "MAWLAI UMJAIUR BLOCK III",
    "lat": 25.640327,
    "lon": 91.89584219573298
  },
  {
    "partId": 967,
    "stateCode": "S15",
    "stateName": "Meghalaya",
    "districtCode": "S1503",
    "districtName": "EAST KHASI HILLS",
    "acNumber": 15,
    "acName": "MAWLAI",
    "partNumber": 49,
    "partName": "MAWLAI UMJAIUR BLOCK IV-V",
    "lat": 25.639328005128203,
    "lon": 91.89624776512787
  },
  {
    "partId": 968,
    "stateCode": "S15",
    "stateName": "Meghalaya",
    "districtCode": "S1503",
    "districtName": "EAST KHASI HILLS",
    "acNumber": 15,
    "acName": "MAWLAI",
    "partNumber": 50,
    "partName": "MAWLAI SYLLAIKARIAH A",
    "lat": 25.640327,
    "lon": 91.89584219573298
  },
  {
    "partId": 969,
    "stateCode": "S15",
    "stateName": "Meghalaya",
    "districtCode": "S1503",
    "districtName": "EAST KHASI HILLS",
    "acNumber": 15,
    "acName": "MAWLAI",
    "partNumber": 51,
    "partName": "MAWLAI SYLLAIKARIAH B",
    "lat": 25.640327,
    "lon": 91.89584219573298
  },
  {
    "partId": 970,
    "stateCode": "S15",
    "stateName": "Meghalaya",
    "districtCode": "S1503",
    "districtName": "EAST KHASI HILLS",
    "acNumber": 15,
    "acName": "MAWLAI",
    "partNumber": 52,
    "partName": "MAWLAI NONGLUM A&B I",
    "lat": 25.640327,
    "lon": 91.89584219573298
  },
  {
    "partId": 971,
    "stateCode": "S15",
    "stateName": "Meghalaya",
    "districtCode": "S1503",
    "districtName": "EAST KHASI HILLS",
    "acNumber": 15,
    "acName": "MAWLAI",
    "partNumber": 53,
    "partName": "MAWLAI NONGLUM A&B II",
    "lat": 25.640327,
    "lon": 91.89584219573298
  },
  {
    "partId": 972,
    "stateCode": "S15",
    "stateName": "Meghalaya",
    "districtCode": "S1503",
    "districtName": "EAST KHASI HILLS",
    "acNumber": 15,
    "acName": "MAWLAI",
    "partNumber": 54,
    "partName": "MAWLAI NONGLUM CDE I",
    "lat": 25.640327,
    "lon": 91.89584219573298
  },
  {
    "partId": 973,
    "stateCode": "S15",
    "stateName": "Meghalaya",
    "districtCode": "S1503",
    "districtName": "EAST KHASI HILLS",
    "acNumber": 15,
    "acName": "MAWLAI",
    "partNumber": 55,
    "partName": "MAWLAI NONGLUM CDE II",
    "lat": 25.640327,
    "lon": 91.89584219573298
  },
  {
    "partId": 974,
    "stateCode": "S15",
    "stateName": "Meghalaya",
    "districtCode": "S1503",
    "districtName": "EAST KHASI HILLS",
    "acNumber": 15,
    "acName": "MAWLAI",
    "partNumber": 56,
    "partName": "MAWLAI UMTHLONG A",
    "lat": 25.640327,
    "lon": 91.89584219573298
  },
  {
    "partId": 975,
    "stateCode": "S15",
    "stateName": "Meghalaya",
    "districtCode": "S1503",
    "districtName": "EAST KHASI HILLS",
    "acNumber": 15,
    "acName": "MAWLAI",
    "partNumber": 57,
    "partName": "MAWLAI UMTHLONG B",
    "lat": 25.640327,
    "lon": 91.89584219573298
  },
  {
    "partId": 976,
    "stateCode": "S15",
    "stateName": "Meghalaya",
    "districtCode": "S1503",
    "districtName": "EAST KHASI HILLS",
    "acNumber": 15,
    "acName": "MAWLAI",
    "partNumber": 58,
    "partName": "MAWLAI UMJAJEW",
    "lat": 25.640327,
    "lon": 91.89584219573298
  },
  {
    "partId": 977,
    "stateCode": "S15",
    "stateName": "Meghalaya",
    "districtCode": "S1503",
    "districtName": "EAST KHASI HILLS",
    "acNumber": 15,
    "acName": "MAWLAI",
    "partNumber": 59,
    "partName": "MAWIONG NONGNENG A",
    "lat": 25.640327,
    "lon": 91.89584219573298
  },
  {
    "partId": 978,
    "stateCode": "S15",
    "stateName": "Meghalaya",
    "districtCode": "S1503",
    "districtName": "EAST KHASI HILLS",
    "acNumber": 15,
    "acName": "MAWLAI",
    "partNumber": 60,
    "partName": "MAWIONG NONGNENG B",
    "lat": 25.640327,
    "lon": 91.89584219573298
  },
  {
    "partId": 979,
    "stateCode": "S15",
    "stateName": "Meghalaya",
    "districtCode": "S1503",
    "districtName": "EAST KHASI HILLS",
    "acNumber": 15,
    "acName": "MAWLAI",
    "partNumber": 61,
    "partName": "MAWIONG NONGNENG C",
    "lat": 25.640327,
    "lon": 91.89584219573298
  },
  {
    "partId": 980,
    "stateCode": "S15",
    "stateName": "Meghalaya",
    "districtCode": "S1503",
    "districtName": "EAST KHASI HILLS",
    "acNumber": 15,
    "acName": "MAWLAI",
    "partNumber": 62,
    "partName": "MAWIONG RUMNONG A",
    "lat": 25.640327,
    "lon": 91.89584219573298
  },
  {
    "partId": 981,
    "stateCode": "S15",
    "stateName": "Meghalaya",
    "districtCode": "S1503",
    "districtName": "EAST KHASI HILLS",
    "acNumber": 15,
    "acName": "MAWLAI",
    "partNumber": 63,
    "partName": "MAWIONG RUMNONG B",
    "lat": 25.640327,
    "lon": 91.89584219573298
  },
  {
    "partId": 982,
    "stateCode": "S15",
    "stateName": "Meghalaya",
    "districtCode": "S1503",
    "districtName": "EAST KHASI HILLS",
    "acNumber": 15,
    "acName": "MAWLAI",
    "partNumber": 64,
    "partName": "MAWIONG TARIANG I",
    "lat": 25.640327,
    "lon": 91.89584219573298
  },
  {
    "partId": 983,
    "stateCode": "S15",
    "stateName": "Meghalaya",
    "districtCode": "S1503",
    "districtName": "EAST KHASI HILLS",
    "acNumber": 15,
    "acName": "MAWLAI",
    "partNumber": 65,
    "partName": "MAWIONG TARIANG II",
    "lat": 25.640327,
    "lon": 91.89584219573298
  },
  {
    "partId": 984,
    "stateCode": "S15",
    "stateName": "Meghalaya",
    "districtCode": "S1503",
    "districtName": "EAST KHASI HILLS",
    "acNumber": 15,
    "acName": "MAWLAI",
    "partNumber": 66,
    "partName": "MAWIONG RIM A",
    "lat": 25.640327,
    "lon": 91.89584219573298
  },
  {
    "partId": 985,
    "stateCode": "S15",
    "stateName": "Meghalaya",
    "districtCode": "S1503",
    "districtName": "EAST KHASI HILLS",
    "acNumber": 15,
    "acName": "MAWLAI",
    "partNumber": 67,
    "partName": "MAWIONG RIM B",
    "lat": 25.639328005128203,
    "lon": 91.89624776512787
  },
  {
    "partId": 986,
    "stateCode": "S15",
    "stateName": "Meghalaya",
    "districtCode": "S1503",
    "districtName": "EAST KHASI HILLS",
    "acNumber": 15,
    "acName": "MAWLAI",
    "partNumber": 68,
    "partName": "MAWIONG POLICE QUARTER A",
    "lat": 25.640327,
    "lon": 91.89584219573298
  },
  {
    "partId": 987,
    "stateCode": "S15",
    "stateName": "Meghalaya",
    "districtCode": "S1503",
    "districtName": "EAST KHASI HILLS",
    "acNumber": 15,
    "acName": "MAWLAI",
    "partNumber": 69,
    "partName": "MAWIONG POLICE QUARTER B",
    "lat": 25.640327,
    "lon": 91.89584219573298
  },
  {
    "partId": 988,
    "stateCode": "S15",
    "stateName": "Meghalaya",
    "districtCode": "S1503",
    "districtName": "EAST KHASI HILLS",
    "acNumber": 15,
    "acName": "MAWLAI",
    "partNumber": 70,
    "partName": "MAWLAI IEWRYNGHEP EAST A",
    "lat": 25.5888427,
    "lon": 91.873619
  },
  {
    "partId": 989,
    "stateCode": "S15",
    "stateName": "Meghalaya",
    "districtCode": "S1503",
    "districtName": "EAST KHASI HILLS",
    "acNumber": 15,
    "acName": "MAWLAI",
    "partNumber": 71,
    "partName": "MAWLAI IEWRYNGHEP EAST B",
    "lat": 25.5888427,
    "lon": 91.873619
  },
  {
    "partId": 990,
    "stateCode": "S15",
    "stateName": "Meghalaya",
    "districtCode": "S1503",
    "districtName": "EAST KHASI HILLS",
    "acNumber": 15,
    "acName": "MAWLAI",
    "partNumber": 72,
    "partName": "MAWLAI IEWRYNGHEP WEST A",
    "lat": 25.640327,
    "lon": 91.89584219573298
  },
  {
    "partId": 991,
    "stateCode": "S15",
    "stateName": "Meghalaya",
    "districtCode": "S1503",
    "districtName": "EAST KHASI HILLS",
    "acNumber": 15,
    "acName": "MAWLAI",
    "partNumber": 73,
    "partName": "MAWLAI IEWRYNGHEP WEST B",
    "lat": 25.640327,
    "lon": 91.89584219573298
  },
  {
    "partId": 992,
    "stateCode": "S15",
    "stateName": "Meghalaya",
    "districtCode": "S1503",
    "districtName": "EAST KHASI HILLS",
    "acNumber": 15,
    "acName": "MAWLAI",
    "partNumber": 74,
    "partName": "MAWLAI NONGKWAR EAST A",
    "lat": 25.640327,
    "lon": 91.89584219573298
  },
  {
    "partId": 993,
    "stateCode": "S15",
    "stateName": "Meghalaya",
    "districtCode": "S1503",
    "districtName": "EAST KHASI HILLS",
    "acNumber": 15,
    "acName": "MAWLAI",
    "partNumber": 75,
    "partName": "MAWLAI NONGKWAR EAST B",
    "lat": 25.640327,
    "lon": 91.89584219573298
  },
  {
    "partId": 994,
    "stateCode": "S15",
    "stateName": "Meghalaya",
    "districtCode": "S1503",
    "districtName": "EAST KHASI HILLS",
    "acNumber": 15,
    "acName": "MAWLAI",
    "partNumber": 76,
    "partName": "MAWLAI NONGKWAR WEST A I",
    "lat": 25.640327,
    "lon": 91.89584219573298
  },
  {
    "partId": 995,
    "stateCode": "S15",
    "stateName": "Meghalaya",
    "districtCode": "S1503",
    "districtName": "EAST KHASI HILLS",
    "acNumber": 15,
    "acName": "MAWLAI",
    "partNumber": 77,
    "partName": "MAWLAI NONGKWAR WEST A II",
    "lat": 25.640327,
    "lon": 91.89584219573298
  },
  {
    "partId": 996,
    "stateCode": "S15",
    "stateName": "Meghalaya",
    "districtCode": "S1503",
    "districtName": "EAST KHASI HILLS",
    "acNumber": 15,
    "acName": "MAWLAI",
    "partNumber": 78,
    "partName": "MAWLAI NONGKWAR WEST B I",
    "lat": 25.640327,
    "lon": 91.89584219573298
  },
  {
    "partId": 997,
    "stateCode": "S15",
    "stateName": "Meghalaya",
    "districtCode": "S1503",
    "districtName": "EAST KHASI HILLS",
    "acNumber": 15,
    "acName": "MAWLAI",
    "partNumber": 79,
    "partName": "MAWLAI NONGKWAR WEST B II",
    "lat": 25.640327,
    "lon": 91.89584219573298
  },
  {
    "partId": 998,
    "stateCode": "S15",
    "stateName": "Meghalaya",
    "districtCode": "S1503",
    "districtName": "EAST KHASI HILLS",
    "acNumber": 15,
    "acName": "MAWLAI",
    "partNumber": 80,
    "partName": "MAWLAI NONGKWAR NORTH A",
    "lat": 25.640327,
    "lon": 91.89584219573298
  },
  {
    "partId": 999,
    "stateCode": "S15",
    "stateName": "Meghalaya",
    "districtCode": "S1503",
    "districtName": "EAST KHASI HILLS",
    "acNumber": 15,
    "acName": "MAWLAI",
    "partNumber": 81,
    "partName": "MAWLAI NONGKWAR NORTH B",
    "lat": 25.640327,
    "lon": 91.89584219573298
  },
  {
    "partId": 1000,
    "stateCode": "S15",
    "stateName": "Meghalaya",
    "districtCode": "S1503",
    "districtName": "EAST KHASI HILLS",
    "acNumber": 15,
    "acName": "MAWLAI",
    "partNumber": 82,
    "partName": "MAWLAI NONGKWAR SOUTH A",
    "lat": 25.639328005128203,
    "lon": 91.89624776512787
  },
  {
    "partId": 1001,
    "stateCode": "S15",
    "stateName": "Meghalaya",
    "districtCode": "S1503",
    "districtName": "EAST KHASI HILLS",
    "acNumber": 15,
    "acName": "MAWLAI",
    "partNumber": 83,
    "partName": "MAWLAI NONGKWAR SOUTH B",
    "lat": 25.640327,
    "lon": 91.89584219573298
  },
  {
    "partId": 4322,
    "stateCode": "S15",
    "stateName": "Meghalaya",
    "districtCode": "S1503",
    "districtName": "EAST KHASI HILLS",
    "acNumber": 24,
    "acName": "MAWPHLANG",
    "partNumber": 1,
    "partName": "SADEW A",
    "lat": 25.5131454,
    "lon": 91.75959227530493
  },
  {
    "partId": 4323,
    "stateCode": "S15",
    "stateName": "Meghalaya",
    "districtCode": "S1503",
    "districtName": "EAST KHASI HILLS",
    "acNumber": 24,
    "acName": "MAWPHLANG",
    "partNumber": 2,
    "partName": "SADEW B",
    "lat": 25.501274003999995,
    "lon": 91.75348470348258
  },
  {
    "partId": 4324,
    "stateCode": "S15",
    "stateName": "Meghalaya",
    "districtCode": "S1503",
    "districtName": "EAST KHASI HILLS",
    "acNumber": 24,
    "acName": "MAWPHLANG",
    "partNumber": 3,
    "partName": "LADMAWRENG",
    "lat": 25.5131454,
    "lon": 91.75959227530493
  },
  {
    "partId": 4325,
    "stateCode": "S15",
    "stateName": "Meghalaya",
    "districtCode": "S1503",
    "districtName": "EAST KHASI HILLS",
    "acNumber": 24,
    "acName": "MAWPHLANG",
    "partNumber": 4,
    "partName": "MAWRENG A",
    "lat": 25.5131454,
    "lon": 91.75959227530493
  },
  {
    "partId": 4326,
    "stateCode": "S15",
    "stateName": "Meghalaya",
    "districtCode": "S1503",
    "districtName": "EAST KHASI HILLS",
    "acNumber": 24,
    "acName": "MAWPHLANG",
    "partNumber": 5,
    "partName": "MAWRENG B",
    "lat": 25.5131454,
    "lon": 91.75959227530493
  },
  {
    "partId": 4327,
    "stateCode": "S15",
    "stateName": "Meghalaya",
    "districtCode": "S1503",
    "districtName": "EAST KHASI HILLS",
    "acNumber": 24,
    "acName": "MAWPHLANG",
    "partNumber": 6,
    "partName": "LAITJEM A",
    "lat": 25.5131454,
    "lon": 91.75959227530493
  },
  {
    "partId": 4328,
    "stateCode": "S15",
    "stateName": "Meghalaya",
    "districtCode": "S1503",
    "districtName": "EAST KHASI HILLS",
    "acNumber": 24,
    "acName": "MAWPHLANG",
    "partNumber": 7,
    "partName": "LAITJEM B",
    "lat": 25.5131454,
    "lon": 91.75959227530493
  },
  {
    "partId": 4329,
    "stateCode": "S15",
    "stateName": "Meghalaya",
    "districtCode": "S1503",
    "districtName": "EAST KHASI HILLS",
    "acNumber": 24,
    "acName": "MAWPHLANG",
    "partNumber": 8,
    "partName": "LUMSOHRIEW A",
    "lat": 25.5131454,
    "lon": 91.75959227530493
  },
  {
    "partId": 4330,
    "stateCode": "S15",
    "stateName": "Meghalaya",
    "districtCode": "S1503",
    "districtName": "EAST KHASI HILLS",
    "acNumber": 24,
    "acName": "MAWPHLANG",
    "partNumber": 9,
    "partName": "LUMSOHRIEW B",
    "lat": 25.5131454,
    "lon": 91.75959227530493
  },
  {
    "partId": 4331,
    "stateCode": "S15",
    "stateName": "Meghalaya",
    "districtCode": "S1503",
    "districtName": "EAST KHASI HILLS",
    "acNumber": 24,
    "acName": "MAWPHLANG",
    "partNumber": 10,
    "partName": "MAWKRIAH A",
    "lat": 25.5131454,
    "lon": 91.75959227530493
  },
  {
    "partId": 4332,
    "stateCode": "S15",
    "stateName": "Meghalaya",
    "districtCode": "S1503",
    "districtName": "EAST KHASI HILLS",
    "acNumber": 24,
    "acName": "MAWPHLANG",
    "partNumber": 11,
    "partName": "MAWKRIAH B",
    "lat": 25.5131454,
    "lon": 91.75959227530493
  },
  {
    "partId": 4333,
    "stateCode": "S15",
    "stateName": "Meghalaya",
    "districtCode": "S1503",
    "districtName": "EAST KHASI HILLS",
    "acNumber": 24,
    "acName": "MAWPHLANG",
    "partNumber": 12,
    "partName": "DIENGKYNTHONG A",
    "lat": 25.501274003999995,
    "lon": 91.75348470348258
  },
  {
    "partId": 4334,
    "stateCode": "S15",
    "stateName": "Meghalaya",
    "districtCode": "S1503",
    "districtName": "EAST KHASI HILLS",
    "acNumber": 24,
    "acName": "MAWPHLANG",
    "partNumber": 13,
    "partName": "DIENGKYNTHONG B",
    "lat": 25.5131454,
    "lon": 91.75959227530493
  },
  {
    "partId": 4335,
    "stateCode": "S15",
    "stateName": "Meghalaya",
    "districtCode": "S1503",
    "districtName": "EAST KHASI HILLS",
    "acNumber": 24,
    "acName": "MAWPHLANG",
    "partNumber": 14,
    "partName": "NONGTHYMMAI A",
    "lat": 25.501274003999995,
    "lon": 91.75348470348258
  },
  {
    "partId": 4336,
    "stateCode": "S15",
    "stateName": "Meghalaya",
    "districtCode": "S1503",
    "districtName": "EAST KHASI HILLS",
    "acNumber": 24,
    "acName": "MAWPHLANG",
    "partNumber": 15,
    "partName": "NONGTHYMMAI B",
    "lat": 25.5609176,
    "lon": 91.90460576071314
  },
  {
    "partId": 4337,
    "stateCode": "S15",
    "stateName": "Meghalaya",
    "districtCode": "S1503",
    "districtName": "EAST KHASI HILLS",
    "acNumber": 24,
    "acName": "MAWPHLANG",
    "partNumber": 16,
    "partName": "MAWBEH",
    "lat": 25.5131454,
    "lon": 91.75959227530493
  },
  {
    "partId": 4381,
    "stateCode": "S15",
    "stateName": "Meghalaya",
    "districtCode": "S1503",
    "districtName": "EAST KHASI HILLS",
    "acNumber": 24,
    "acName": "MAWPHLANG",
    "partNumber": 17,
    "partName": "SYNRANGSHOHNOH",
    "lat": 25.5131454,
    "lon": 91.75959227530493
  },
  {
    "partId": 4338,
    "stateCode": "S15",
    "stateName": "Meghalaya",
    "districtCode": "S1503",
    "districtName": "EAST KHASI HILLS",
    "acNumber": 24,
    "acName": "MAWPHLANG",
    "partNumber": 18,
    "partName": "WAHRAMKHAR",
    "lat": 25.5131454,
    "lon": 91.75959227530493
  },
  {
    "partId": 4339,
    "stateCode": "S15",
    "stateName": "Meghalaya",
    "districtCode": "S1503",
    "districtName": "EAST KHASI HILLS",
    "acNumber": 24,
    "acName": "MAWPHLANG",
    "partNumber": 19,
    "partName": "LAITNONGRIM A",
    "lat": 25.5131454,
    "lon": 91.75959227530493
  },
  {
    "partId": 4340,
    "stateCode": "S15",
    "stateName": "Meghalaya",
    "districtCode": "S1503",
    "districtName": "EAST KHASI HILLS",
    "acNumber": 24,
    "acName": "MAWPHLANG",
    "partNumber": 20,
    "partName": "LAITNONGRIM B",
    "lat": 25.5131454,
    "lon": 91.75959227530493
  },
  {
    "partId": 4341,
    "stateCode": "S15",
    "stateName": "Meghalaya",
    "districtCode": "S1503",
    "districtName": "EAST KHASI HILLS",
    "acNumber": 24,
    "acName": "MAWPHLANG",
    "partNumber": 21,
    "partName": "NONGSPUNG A",
    "lat": 25.5131454,
    "lon": 91.75959227530493
  },
  {
    "partId": 4342,
    "stateCode": "S15",
    "stateName": "Meghalaya",
    "districtCode": "S1503",
    "districtName": "EAST KHASI HILLS",
    "acNumber": 24,
    "acName": "MAWPHLANG",
    "partNumber": 22,
    "partName": "NONGSPUNG B",
    "lat": 25.5131454,
    "lon": 91.75959227530493
  },
  {
    "partId": 4343,
    "stateCode": "S15",
    "stateName": "Meghalaya",
    "districtCode": "S1503",
    "districtName": "EAST KHASI HILLS",
    "acNumber": 24,
    "acName": "MAWPHLANG",
    "partNumber": 23,
    "partName": "PYNDENGLITHA",
    "lat": 25.5131454,
    "lon": 91.75959227530493
  },
  {
    "partId": 4344,
    "stateCode": "S15",
    "stateName": "Meghalaya",
    "districtCode": "S1503",
    "districtName": "EAST KHASI HILLS",
    "acNumber": 24,
    "acName": "MAWPHLANG",
    "partNumber": 24,
    "partName": "PHANBHUR",
    "lat": 25.5131454,
    "lon": 91.75959227530493
  },
  {
    "partId": 4345,
    "stateCode": "S15",
    "stateName": "Meghalaya",
    "districtCode": "S1503",
    "districtName": "EAST KHASI HILLS",
    "acNumber": 24,
    "acName": "MAWPHLANG",
    "partNumber": 25,
    "partName": "SOHPIAN A",
    "lat": 25.501274003999995,
    "lon": 91.75348470348258
  },
  {
    "partId": 4346,
    "stateCode": "S15",
    "stateName": "Meghalaya",
    "districtCode": "S1503",
    "districtName": "EAST KHASI HILLS",
    "acNumber": 24,
    "acName": "MAWPHLANG",
    "partNumber": 26,
    "partName": "SOHPIAN B",
    "lat": 25.5131454,
    "lon": 91.75959227530493
  },
  {
    "partId": 4347,
    "stateCode": "S15",
    "stateName": "Meghalaya",
    "districtCode": "S1503",
    "districtName": "EAST KHASI HILLS",
    "acNumber": 24,
    "acName": "MAWPHLANG",
    "partNumber": 27,
    "partName": "MARBISU MAWSMAI A",
    "lat": 25.501274003999995,
    "lon": 91.75348470348258
  },
  {
    "partId": 4348,
    "stateCode": "S15",
    "stateName": "Meghalaya",
    "districtCode": "S1503",
    "districtName": "EAST KHASI HILLS",
    "acNumber": 24,
    "acName": "MAWPHLANG",
    "partNumber": 28,
    "partName": "MARBISU MAWSMAI B",
    "lat": 25.501274003999995,
    "lon": 91.75348470348258
  },
  {
    "partId": 4349,
    "stateCode": "S15",
    "stateName": "Meghalaya",
    "districtCode": "S1503",
    "districtName": "EAST KHASI HILLS",
    "acNumber": 24,
    "acName": "MAWPHLANG",
    "partNumber": 29,
    "partName": "LAITPYNTER SYNRANG KABAN",
    "lat": 25.5131454,
    "lon": 91.75959227530493
  },
  {
    "partId": 4350,
    "stateCode": "S15",
    "stateName": "Meghalaya",
    "districtCode": "S1503",
    "districtName": "EAST KHASI HILLS",
    "acNumber": 24,
    "acName": "MAWPHLANG",
    "partNumber": 30,
    "partName": "MARBISU PDENGSHNONG A",
    "lat": 25.5131454,
    "lon": 91.75959227530493
  },
  {
    "partId": 4351,
    "stateCode": "S15",
    "stateName": "Meghalaya",
    "districtCode": "S1503",
    "districtName": "EAST KHASI HILLS",
    "acNumber": 24,
    "acName": "MAWPHLANG",
    "partNumber": 31,
    "partName": "MARBISU PDENGSHNONG B",
    "lat": 25.501274003999995,
    "lon": 91.75348470348258
  },
  {
    "partId": 4352,
    "stateCode": "S15",
    "stateName": "Meghalaya",
    "districtCode": "S1503",
    "districtName": "EAST KHASI HILLS",
    "acNumber": 24,
    "acName": "MAWPHLANG",
    "partNumber": 32,
    "partName": "LWAI",
    "lat": 25.3114338,
    "lon": 91.7595767
  },
  {
    "partId": 4353,
    "stateCode": "S15",
    "stateName": "Meghalaya",
    "districtCode": "S1503",
    "districtName": "EAST KHASI HILLS",
    "acNumber": 24,
    "acName": "MAWPHLANG",
    "partNumber": 33,
    "partName": "MAWNGAP MAWSMAI A",
    "lat": 25.5131454,
    "lon": 91.75959227530493
  },
  {
    "partId": 4354,
    "stateCode": "S15",
    "stateName": "Meghalaya",
    "districtCode": "S1503",
    "districtName": "EAST KHASI HILLS",
    "acNumber": 24,
    "acName": "MAWPHLANG",
    "partNumber": 34,
    "partName": "MAWNGAP MAWSMAI B",
    "lat": 25.5131454,
    "lon": 91.75959227530493
  },
  {
    "partId": 4355,
    "stateCode": "S15",
    "stateName": "Meghalaya",
    "districtCode": "S1503",
    "districtName": "EAST KHASI HILLS",
    "acNumber": 24,
    "acName": "MAWPHLANG",
    "partNumber": 35,
    "partName": "MAWNGAP LUMPARING",
    "lat": 25.5131454,
    "lon": 91.75959227530493
  },
  {
    "partId": 4356,
    "stateCode": "S15",
    "stateName": "Meghalaya",
    "districtCode": "S1503",
    "districtName": "EAST KHASI HILLS",
    "acNumber": 24,
    "acName": "MAWPHLANG",
    "partNumber": 36,
    "partName": "MAWNGAP DUKAN",
    "lat": 25.5131454,
    "lon": 91.75959227530493
  },
  {
    "partId": 4357,
    "stateCode": "S15",
    "stateName": "Meghalaya",
    "districtCode": "S1503",
    "districtName": "EAST KHASI HILLS",
    "acNumber": 24,
    "acName": "MAWPHLANG",
    "partNumber": 37,
    "partName": "MAWNGAP RIM A",
    "lat": 25.5131454,
    "lon": 91.75959227530493
  },
  {
    "partId": 4358,
    "stateCode": "S15",
    "stateName": "Meghalaya",
    "districtCode": "S1503",
    "districtName": "EAST KHASI HILLS",
    "acNumber": 24,
    "acName": "MAWPHLANG",
    "partNumber": 38,
    "partName": "MAWNGAP RIM B",
    "lat": 25.5131454,
    "lon": 91.75959227530493
  },
  {
    "partId": 4359,
    "stateCode": "S15",
    "stateName": "Meghalaya",
    "districtCode": "S1503",
    "districtName": "EAST KHASI HILLS",
    "acNumber": 24,
    "acName": "MAWPHLANG",
    "partNumber": 39,
    "partName": "POMSANNGUT A",
    "lat": 25.5131454,
    "lon": 91.75959227530493
  },
  {
    "partId": 4360,
    "stateCode": "S15",
    "stateName": "Meghalaya",
    "districtCode": "S1503",
    "districtName": "EAST KHASI HILLS",
    "acNumber": 24,
    "acName": "MAWPHLANG",
    "partNumber": 40,
    "partName": "POMSANNGUT B",
    "lat": 25.5131454,
    "lon": 91.75959227530493
  },
  {
    "partId": 4361,
    "stateCode": "S15",
    "stateName": "Meghalaya",
    "districtCode": "S1503",
    "districtName": "EAST KHASI HILLS",
    "acNumber": 24,
    "acName": "MAWPHLANG",
    "partNumber": 41,
    "partName": "NONGWAH",
    "lat": 25.5131454,
    "lon": 91.75959227530493
  },
  {
    "partId": 4362,
    "stateCode": "S15",
    "stateName": "Meghalaya",
    "districtCode": "S1503",
    "districtName": "EAST KHASI HILLS",
    "acNumber": 24,
    "acName": "MAWPHLANG",
    "partNumber": 42,
    "partName": "NIAMSANG",
    "lat": 25.501274003999995,
    "lon": 91.75348470348258
  },
  {
    "partId": 4363,
    "stateCode": "S15",
    "stateName": "Meghalaya",
    "districtCode": "S1503",
    "districtName": "EAST KHASI HILLS",
    "acNumber": 24,
    "acName": "MAWPHLANG",
    "partNumber": 43,
    "partName": "MAWSADANG",
    "lat": 25.5131454,
    "lon": 91.75959227530493
  },
  {
    "partId": 4364,
    "stateCode": "S15",
    "stateName": "Meghalaya",
    "districtCode": "S1503",
    "districtName": "EAST KHASI HILLS",
    "acNumber": 24,
    "acName": "MAWPHLANG",
    "partNumber": 44,
    "partName": "LAITMAWSIANG A",
    "lat": 25.501274003999995,
    "lon": 91.75348470348258
  },
  {
    "partId": 4365,
    "stateCode": "S15",
    "stateName": "Meghalaya",
    "districtCode": "S1503",
    "districtName": "EAST KHASI HILLS",
    "acNumber": 24,
    "acName": "MAWPHLANG",
    "partNumber": 45,
    "partName": "LAITMAWSIANG B",
    "lat": 25.3961613,
    "lon": 91.604912
  },
  {
    "partId": 4366,
    "stateCode": "S15",
    "stateName": "Meghalaya",
    "districtCode": "S1503",
    "districtName": "EAST KHASI HILLS",
    "acNumber": 24,
    "acName": "MAWPHLANG",
    "partNumber": 46,
    "partName": "LAITNIANGTLONG",
    "lat": 25.5131454,
    "lon": 91.75959227530493
  },
  {
    "partId": 4367,
    "stateCode": "S15",
    "stateName": "Meghalaya",
    "districtCode": "S1503",
    "districtName": "EAST KHASI HILLS",
    "acNumber": 24,
    "acName": "MAWPHLANG",
    "partNumber": 47,
    "partName": "TYRSAD A",
    "lat": 25.410567,
    "lon": 91.6642041
  },
  {
    "partId": 4368,
    "stateCode": "S15",
    "stateName": "Meghalaya",
    "districtCode": "S1503",
    "districtName": "EAST KHASI HILLS",
    "acNumber": 24,
    "acName": "MAWPHLANG",
    "partNumber": 48,
    "partName": "TYRSAD B",
    "lat": 25.410567,
    "lon": 91.6642041
  },
  {
    "partId": 4369,
    "stateCode": "S15",
    "stateName": "Meghalaya",
    "districtCode": "S1503",
    "districtName": "EAST KHASI HILLS",
    "acNumber": 24,
    "acName": "MAWPHLANG",
    "partNumber": 49,
    "partName": "KYRPHEI",
    "lat": 25.3956559,
    "lon": 91.6546724
  },
  {
    "partId": 4370,
    "stateCode": "S15",
    "stateName": "Meghalaya",
    "districtCode": "S1503",
    "districtName": "EAST KHASI HILLS",
    "acNumber": 24,
    "acName": "MAWPHLANG",
    "partNumber": 50,
    "partName": "LAITMAWPEN",
    "lat": 25.5131454,
    "lon": 91.75959227530493
  },
  {
    "partId": 4382,
    "stateCode": "S15",
    "stateName": "Meghalaya",
    "districtCode": "S1503",
    "districtName": "EAST KHASI HILLS",
    "acNumber": 24,
    "acName": "MAWPHLANG",
    "partNumber": 51,
    "partName": "WAHUMLAWBAH",
    "lat": 25.5131454,
    "lon": 91.75959227530493
  },
  {
    "partId": 4371,
    "stateCode": "S15",
    "stateName": "Meghalaya",
    "districtCode": "S1503",
    "districtName": "EAST KHASI HILLS",
    "acNumber": 24,
    "acName": "MAWPHLANG",
    "partNumber": 52,
    "partName": "THAINTHYNROH A",
    "lat": 25.5131454,
    "lon": 91.75959227530493
  },
  {
    "partId": 4372,
    "stateCode": "S15",
    "stateName": "Meghalaya",
    "districtCode": "S1503",
    "districtName": "EAST KHASI HILLS",
    "acNumber": 24,
    "acName": "MAWPHLANG",
    "partNumber": 53,
    "partName": "THAINTHYNROH B",
    "lat": 25.5131454,
    "lon": 91.75959227530493
  },
  {
    "partId": 4373,
    "stateCode": "S15",
    "stateName": "Meghalaya",
    "districtCode": "S1503",
    "districtName": "EAST KHASI HILLS",
    "acNumber": 24,
    "acName": "MAWPHLANG",
    "partNumber": 54,
    "partName": "UMSAWMAT",
    "lat": 25.501274003999995,
    "lon": 91.75348470348258
  },
  {
    "partId": 4374,
    "stateCode": "S15",
    "stateName": "Meghalaya",
    "districtCode": "S1503",
    "districtName": "EAST KHASI HILLS",
    "acNumber": 24,
    "acName": "MAWPHLANG",
    "partNumber": 55,
    "partName": "MAWPONGHONG",
    "lat": 25.5131454,
    "lon": 91.75959227530493
  },
  {
    "partId": 4375,
    "stateCode": "S15",
    "stateName": "Meghalaya",
    "districtCode": "S1503",
    "districtName": "EAST KHASI HILLS",
    "acNumber": 24,
    "acName": "MAWPHLANG",
    "partNumber": 56,
    "partName": "MAWPHLANG NONGRUM A",
    "lat": 25.5131454,
    "lon": 91.75959227530493
  },
  {
    "partId": 4376,
    "stateCode": "S15",
    "stateName": "Meghalaya",
    "districtCode": "S1503",
    "districtName": "EAST KHASI HILLS",
    "acNumber": 24,
    "acName": "MAWPHLANG",
    "partNumber": 57,
    "partName": "MAWPHLANG NONGRUM B",
    "lat": 25.501274003999995,
    "lon": 91.75348470348258
  },
  {
    "partId": 4377,
    "stateCode": "S15",
    "stateName": "Meghalaya",
    "districtCode": "S1503",
    "districtName": "EAST KHASI HILLS",
    "acNumber": 24,
    "acName": "MAWPHLANG",
    "partNumber": 58,
    "partName": "MAWPHLANG MAWKOHMON A",
    "lat": 25.501274003999995,
    "lon": 91.75348470348258
  },
  {
    "partId": 4378,
    "stateCode": "S15",
    "stateName": "Meghalaya",
    "districtCode": "S1503",
    "districtName": "EAST KHASI HILLS",
    "acNumber": 24,
    "acName": "MAWPHLANG",
    "partNumber": 59,
    "partName": "MAWPHLANG MAWKOHMON B",
    "lat": 25.5131454,
    "lon": 91.75959227530493
  },
  {
    "partId": 4383,
    "stateCode": "S15",
    "stateName": "Meghalaya",
    "districtCode": "S1503",
    "districtName": "EAST KHASI HILLS",
    "acNumber": 24,
    "acName": "MAWPHLANG",
    "partNumber": 60,
    "partName": "MADAN MAWSER",
    "lat": 25.5131454,
    "lon": 91.75959227530493
  },
  {
    "partId": 4379,
    "stateCode": "S15",
    "stateName": "Meghalaya",
    "districtCode": "S1503",
    "districtName": "EAST KHASI HILLS",
    "acNumber": 24,
    "acName": "MAWPHLANG",
    "partNumber": 61,
    "partName": "KYIEM A",
    "lat": 25.5131454,
    "lon": 91.75959227530493
  },
  {
    "partId": 4380,
    "stateCode": "S15",
    "stateName": "Meghalaya",
    "districtCode": "S1503",
    "districtName": "EAST KHASI HILLS",
    "acNumber": 24,
    "acName": "MAWPHLANG",
    "partNumber": 62,
    "partName": "KYIEM B",
    "lat": 25.5131454,
    "lon": 91.75959227530493
  },
  {
    "partId": 799,
    "stateCode": "S15",
    "stateName": "Meghalaya",
    "districtCode": "S1503",
    "districtName": "EAST KHASI HILLS",
    "acNumber": 13,
    "acName": "MAWRYNGKNENG",
    "partNumber": 1,
    "partName": "MAWKHANU",
    "lat": 25.62757515,
    "lon": 92.05782393325285
  },
  {
    "partId": 800,
    "stateCode": "S15",
    "stateName": "Meghalaya",
    "districtCode": "S1503",
    "districtName": "EAST KHASI HILLS",
    "acNumber": 13,
    "acName": "MAWRYNGKNENG",
    "partNumber": 2,
    "partName": "UMMIR",
    "lat": 25.6150218,
    "lon": 92.07225851579508
  },
  {
    "partId": 801,
    "stateCode": "S15",
    "stateName": "Meghalaya",
    "districtCode": "S1503",
    "districtName": "EAST KHASI HILLS",
    "acNumber": 13,
    "acName": "MAWRYNGKNENG",
    "partNumber": 3,
    "partName": "NONGHALI",
    "lat": 25.61807515,
    "lon": 92.1114737548844
  },
  {
    "partId": 802,
    "stateCode": "S15",
    "stateName": "Meghalaya",
    "districtCode": "S1503",
    "districtName": "EAST KHASI HILLS",
    "acNumber": 13,
    "acName": "MAWRYNGKNENG",
    "partNumber": 4,
    "partName": "MYNRIANG",
    "lat": 25.65440945,
    "lon": 92.13187871056851
  },
  {
    "partId": 803,
    "stateCode": "S15",
    "stateName": "Meghalaya",
    "districtCode": "S1503",
    "districtName": "EAST KHASI HILLS",
    "acNumber": 13,
    "acName": "MAWRYNGKNENG",
    "partNumber": 5,
    "partName": "DIENGPASOH A",
    "lat": 25.6012904,
    "lon": 92.05133434321604
  },
  {
    "partId": 804,
    "stateCode": "S15",
    "stateName": "Meghalaya",
    "districtCode": "S1503",
    "districtName": "EAST KHASI HILLS",
    "acNumber": 13,
    "acName": "MAWRYNGKNENG",
    "partNumber": 6,
    "partName": "DIENGPASOH B",
    "lat": 25.592695,
    "lon": 92.04103075
  },
  {
    "partId": 805,
    "stateCode": "S15",
    "stateName": "Meghalaya",
    "districtCode": "S1503",
    "districtName": "EAST KHASI HILLS",
    "acNumber": 13,
    "acName": "MAWRYNGKNENG",
    "partNumber": 7,
    "partName": "MAWIONG",
    "lat": 25.6012904,
    "lon": 92.05133434321604
  },
  {
    "partId": 806,
    "stateCode": "S15",
    "stateName": "Meghalaya",
    "districtCode": "S1503",
    "districtName": "EAST KHASI HILLS",
    "acNumber": 13,
    "acName": "MAWRYNGKNENG",
    "partNumber": 8,
    "partName": "JAROIT",
    "lat": 25.6012904,
    "lon": 92.05133434321604
  },
  {
    "partId": 807,
    "stateCode": "S15",
    "stateName": "Meghalaya",
    "districtCode": "S1503",
    "districtName": "EAST KHASI HILLS",
    "acNumber": 13,
    "acName": "MAWRYNGKNENG",
    "partNumber": 9,
    "partName": "TYNRING A",
    "lat": 25.6012904,
    "lon": 92.05133434321604
  },
  {
    "partId": 808,
    "stateCode": "S15",
    "stateName": "Meghalaya",
    "districtCode": "S1503",
    "districtName": "EAST KHASI HILLS",
    "acNumber": 13,
    "acName": "MAWRYNGKNENG",
    "partNumber": 10,
    "partName": "TYNRING B",
    "lat": 25.5932494,
    "lon": 91.983908
  },
  {
    "partId": 809,
    "stateCode": "S15",
    "stateName": "Meghalaya",
    "districtCode": "S1503",
    "districtName": "EAST KHASI HILLS",
    "acNumber": 13,
    "acName": "MAWRYNGKNENG",
    "partNumber": 11,
    "partName": "SIEJIONG",
    "lat": 25.6012904,
    "lon": 92.05133434321604
  },
  {
    "partId": 810,
    "stateCode": "S15",
    "stateName": "Meghalaya",
    "districtCode": "S1503",
    "districtName": "EAST KHASI HILLS",
    "acNumber": 13,
    "acName": "MAWRYNGKNENG",
    "partNumber": 12,
    "partName": "MAWPDANG A",
    "lat": 25.6012904,
    "lon": 92.05133434321604
  },
  {
    "partId": 811,
    "stateCode": "S15",
    "stateName": "Meghalaya",
    "districtCode": "S1503",
    "districtName": "EAST KHASI HILLS",
    "acNumber": 13,
    "acName": "MAWRYNGKNENG",
    "partNumber": 13,
    "partName": "MAWPDANG B",
    "lat": 25.5869193,
    "lon": 91.9903554
  },
  {
    "partId": 812,
    "stateCode": "S15",
    "stateName": "Meghalaya",
    "districtCode": "S1503",
    "districtName": "EAST KHASI HILLS",
    "acNumber": 13,
    "acName": "MAWRYNGKNENG",
    "partNumber": 14,
    "partName": "MAWKASIANG A",
    "lat": 25.59621238114754,
    "lon": 92.0459615992615
  },
  {
    "partId": 813,
    "stateCode": "S15",
    "stateName": "Meghalaya",
    "districtCode": "S1503",
    "districtName": "EAST KHASI HILLS",
    "acNumber": 13,
    "acName": "MAWRYNGKNENG",
    "partNumber": 15,
    "partName": "MAWKASIANG B",
    "lat": 25.6012904,
    "lon": 92.05133434321604
  },
  {
    "partId": 814,
    "stateCode": "S15",
    "stateName": "Meghalaya",
    "districtCode": "S1503",
    "districtName": "EAST KHASI HILLS",
    "acNumber": 13,
    "acName": "MAWRYNGKNENG",
    "partNumber": 16,
    "partName": "MAWDIANG-DIANG",
    "lat": 25.6012904,
    "lon": 92.05133434321604
  },
  {
    "partId": 815,
    "stateCode": "S15",
    "stateName": "Meghalaya",
    "districtCode": "S1503",
    "districtName": "EAST KHASI HILLS",
    "acNumber": 13,
    "acName": "MAWRYNGKNENG",
    "partNumber": 17,
    "partName": "MAWLONG",
    "lat": 25.2126188,
    "lon": 91.6942083
  },
  {
    "partId": 816,
    "stateCode": "S15",
    "stateName": "Meghalaya",
    "districtCode": "S1503",
    "districtName": "EAST KHASI HILLS",
    "acNumber": 13,
    "acName": "MAWRYNGKNENG",
    "partNumber": 18,
    "partName": "MADAN SAISIEJ",
    "lat": 25.59621238114754,
    "lon": 92.0459615992615
  },
  {
    "partId": 817,
    "stateCode": "S15",
    "stateName": "Meghalaya",
    "districtCode": "S1503",
    "districtName": "EAST KHASI HILLS",
    "acNumber": 13,
    "acName": "MAWRYNGKNENG",
    "partNumber": 19,
    "partName": "MAWLYNREI KHLIEHSHNONG",
    "lat": 25.6012904,
    "lon": 92.05133434321604
  },
  {
    "partId": 818,
    "stateCode": "S15",
    "stateName": "Meghalaya",
    "districtCode": "S1503",
    "districtName": "EAST KHASI HILLS",
    "acNumber": 13,
    "acName": "MAWRYNGKNENG",
    "partNumber": 20,
    "partName": "MAWLYNREI DONGSHYIAP A",
    "lat": 25.6012904,
    "lon": 92.05133434321604
  },
  {
    "partId": 819,
    "stateCode": "S15",
    "stateName": "Meghalaya",
    "districtCode": "S1503",
    "districtName": "EAST KHASI HILLS",
    "acNumber": 13,
    "acName": "MAWRYNGKNENG",
    "partNumber": 21,
    "partName": "MAWLYNREI DONGSHYIAP B",
    "lat": 25.6012904,
    "lon": 92.05133434321604
  },
  {
    "partId": 820,
    "stateCode": "S15",
    "stateName": "Meghalaya",
    "districtCode": "S1503",
    "districtName": "EAST KHASI HILLS",
    "acNumber": 13,
    "acName": "MAWRYNGKNENG",
    "partNumber": 22,
    "partName": "MAWLYNREI NONGLUM A",
    "lat": 25.6012904,
    "lon": 92.05133434321604
  },
  {
    "partId": 821,
    "stateCode": "S15",
    "stateName": "Meghalaya",
    "districtCode": "S1503",
    "districtName": "EAST KHASI HILLS",
    "acNumber": 13,
    "acName": "MAWRYNGKNENG",
    "partNumber": 23,
    "partName": "MAWLYNREI NONGLUM B",
    "lat": 25.6012904,
    "lon": 92.05133434321604
  },
  {
    "partId": 822,
    "stateCode": "S15",
    "stateName": "Meghalaya",
    "districtCode": "S1503",
    "districtName": "EAST KHASI HILLS",
    "acNumber": 13,
    "acName": "MAWRYNGKNENG",
    "partNumber": 24,
    "partName": "MAWSHBUIT KHARKAMNI A",
    "lat": 25.6012904,
    "lon": 92.05133434321604
  },
  {
    "partId": 823,
    "stateCode": "S15",
    "stateName": "Meghalaya",
    "districtCode": "S1503",
    "districtName": "EAST KHASI HILLS",
    "acNumber": 13,
    "acName": "MAWRYNGKNENG",
    "partNumber": 25,
    "partName": "MAWSHBUIT KHARKAMNI B",
    "lat": 25.6012904,
    "lon": 92.05133434321604
  },
  {
    "partId": 824,
    "stateCode": "S15",
    "stateName": "Meghalaya",
    "districtCode": "S1503",
    "districtName": "EAST KHASI HILLS",
    "acNumber": 13,
    "acName": "MAWRYNGKNENG",
    "partNumber": 26,
    "partName": "MAWSHBUIT NONGPDENG A",
    "lat": 25.6012904,
    "lon": 92.05133434321604
  },
  {
    "partId": 825,
    "stateCode": "S15",
    "stateName": "Meghalaya",
    "districtCode": "S1503",
    "districtName": "EAST KHASI HILLS",
    "acNumber": 13,
    "acName": "MAWRYNGKNENG",
    "partNumber": 27,
    "partName": "MAWSHBUIT NONGPDENG B",
    "lat": 25.6012904,
    "lon": 92.05133434321604
  },
  {
    "partId": 826,
    "stateCode": "S15",
    "stateName": "Meghalaya",
    "districtCode": "S1503",
    "districtName": "EAST KHASI HILLS",
    "acNumber": 13,
    "acName": "MAWRYNGKNENG",
    "partNumber": 28,
    "partName": "JYNTAH",
    "lat": 25.6012904,
    "lon": 92.05133434321604
  },
  {
    "partId": 827,
    "stateCode": "S15",
    "stateName": "Meghalaya",
    "districtCode": "S1503",
    "districtName": "EAST KHASI HILLS",
    "acNumber": 13,
    "acName": "MAWRYNGKNENG",
    "partNumber": 29,
    "partName": "MAWLYNGAD A",
    "lat": 25.6012904,
    "lon": 92.05133434321604
  },
  {
    "partId": 828,
    "stateCode": "S15",
    "stateName": "Meghalaya",
    "districtCode": "S1503",
    "districtName": "EAST KHASI HILLS",
    "acNumber": 13,
    "acName": "MAWRYNGKNENG",
    "partNumber": 30,
    "partName": "MAWLYNGAD B",
    "lat": 25.6012904,
    "lon": 92.05133434321604
  },
  {
    "partId": 829,
    "stateCode": "S15",
    "stateName": "Meghalaya",
    "districtCode": "S1503",
    "districtName": "EAST KHASI HILLS",
    "acNumber": 13,
    "acName": "MAWRYNGKNENG",
    "partNumber": 31,
    "partName": "SOHRYNGKHAM NENG",
    "lat": 25.6012904,
    "lon": 92.05133434321604
  },
  {
    "partId": 830,
    "stateCode": "S15",
    "stateName": "Meghalaya",
    "districtCode": "S1503",
    "districtName": "EAST KHASI HILLS",
    "acNumber": 13,
    "acName": "MAWRYNGKNENG",
    "partNumber": 32,
    "partName": "SOHRYNGKHAM LULONG PDENGSHNONG A",
    "lat": 25.6012904,
    "lon": 92.05133434321604
  },
  {
    "partId": 831,
    "stateCode": "S15",
    "stateName": "Meghalaya",
    "districtCode": "S1503",
    "districtName": "EAST KHASI HILLS",
    "acNumber": 13,
    "acName": "MAWRYNGKNENG",
    "partNumber": 33,
    "partName": "SOHRYNGKHAM LULONG PDENGSHNONG B",
    "lat": 25.6012904,
    "lon": 92.05133434321604
  },
  {
    "partId": 832,
    "stateCode": "S15",
    "stateName": "Meghalaya",
    "districtCode": "S1503",
    "districtName": "EAST KHASI HILLS",
    "acNumber": 13,
    "acName": "MAWRYNGKNENG",
    "partNumber": 34,
    "partName": "SOHRYNGKHAM MADAN LULONG A",
    "lat": 25.6012904,
    "lon": 92.05133434321604
  },
  {
    "partId": 833,
    "stateCode": "S15",
    "stateName": "Meghalaya",
    "districtCode": "S1503",
    "districtName": "EAST KHASI HILLS",
    "acNumber": 13,
    "acName": "MAWRYNGKNENG",
    "partNumber": 35,
    "partName": "SOHRYNGKHAM MADAN LULONG B",
    "lat": 25.6012904,
    "lon": 92.05133434321604
  },
  {
    "partId": 834,
    "stateCode": "S15",
    "stateName": "Meghalaya",
    "districtCode": "S1503",
    "districtName": "EAST KHASI HILLS",
    "acNumber": 13,
    "acName": "MAWRYNGKNENG",
    "partNumber": 36,
    "partName": "SOHRYNGKHAM MAWLYNDEP",
    "lat": 25.6012904,
    "lon": 92.05133434321604
  },
  {
    "partId": 835,
    "stateCode": "S15",
    "stateName": "Meghalaya",
    "districtCode": "S1503",
    "districtName": "EAST KHASI HILLS",
    "acNumber": 13,
    "acName": "MAWRYNGKNENG",
    "partNumber": 37,
    "partName": "SOHRYNGKHAM MAWDIEJA A",
    "lat": 25.6012904,
    "lon": 92.05133434321604
  },
  {
    "partId": 836,
    "stateCode": "S15",
    "stateName": "Meghalaya",
    "districtCode": "S1503",
    "districtName": "EAST KHASI HILLS",
    "acNumber": 13,
    "acName": "MAWRYNGKNENG",
    "partNumber": 38,
    "partName": "SOHRYNGKHAM MAWDIEJA B",
    "lat": 25.6012904,
    "lon": 92.05133434321604
  },
  {
    "partId": 837,
    "stateCode": "S15",
    "stateName": "Meghalaya",
    "districtCode": "S1503",
    "districtName": "EAST KHASI HILLS",
    "acNumber": 13,
    "acName": "MAWRYNGKNENG",
    "partNumber": 39,
    "partName": "MAWRYNGKNENG MISSION A",
    "lat": 25.6012904,
    "lon": 92.05133434321604
  },
  {
    "partId": 838,
    "stateCode": "S15",
    "stateName": "Meghalaya",
    "districtCode": "S1503",
    "districtName": "EAST KHASI HILLS",
    "acNumber": 13,
    "acName": "MAWRYNGKNENG",
    "partNumber": 40,
    "partName": "MAWRYNGKNENG MISSION B",
    "lat": 25.6012904,
    "lon": 92.05133434321604
  },
  {
    "partId": 839,
    "stateCode": "S15",
    "stateName": "Meghalaya",
    "districtCode": "S1503",
    "districtName": "EAST KHASI HILLS",
    "acNumber": 13,
    "acName": "MAWRYNGKNENG",
    "partNumber": 41,
    "partName": "MAWRYNGKNENG GATE A",
    "lat": 25.6012904,
    "lon": 92.05133434321604
  },
  {
    "partId": 840,
    "stateCode": "S15",
    "stateName": "Meghalaya",
    "districtCode": "S1503",
    "districtName": "EAST KHASI HILLS",
    "acNumber": 13,
    "acName": "MAWRYNGKNENG",
    "partNumber": 42,
    "partName": "MAWRYNGKNENG GATE B",
    "lat": 25.6012904,
    "lon": 92.05133434321604
  },
  {
    "partId": 841,
    "stateCode": "S15",
    "stateName": "Meghalaya",
    "districtCode": "S1503",
    "districtName": "EAST KHASI HILLS",
    "acNumber": 13,
    "acName": "MAWRYNGKNENG",
    "partNumber": 43,
    "partName": "MAWRYNGKNENG PDENGSHNONG A",
    "lat": 25.6012904,
    "lon": 92.05133434321604
  },
  {
    "partId": 842,
    "stateCode": "S15",
    "stateName": "Meghalaya",
    "districtCode": "S1503",
    "districtName": "EAST KHASI HILLS",
    "acNumber": 13,
    "acName": "MAWRYNGKNENG",
    "partNumber": 44,
    "partName": "MAWRYNGKNENG PDENGSHNONG B",
    "lat": 25.6012904,
    "lon": 92.05133434321604
  },
  {
    "partId": 843,
    "stateCode": "S15",
    "stateName": "Meghalaya",
    "districtCode": "S1503",
    "districtName": "EAST KHASI HILLS",
    "acNumber": 13,
    "acName": "MAWRYNGKNENG",
    "partNumber": 45,
    "partName": "THANGSHALAI",
    "lat": 25.6012904,
    "lon": 92.05133434321604
  },
  {
    "partId": 844,
    "stateCode": "S15",
    "stateName": "Meghalaya",
    "districtCode": "S1503",
    "districtName": "EAST KHASI HILLS",
    "acNumber": 13,
    "acName": "MAWRYNGKNENG",
    "partNumber": 46,
    "partName": "MAWRYNGKNENG NONGDAWAH A",
    "lat": 25.6012904,
    "lon": 92.05133434321604
  },
  {
    "partId": 845,
    "stateCode": "S15",
    "stateName": "Meghalaya",
    "districtCode": "S1503",
    "districtName": "EAST KHASI HILLS",
    "acNumber": 13,
    "acName": "MAWRYNGKNENG",
    "partNumber": 47,
    "partName": "MAWRYNGKNENG NONGDAWAH B",
    "lat": 25.6012904,
    "lon": 92.05133434321604
  },
  {
    "partId": 846,
    "stateCode": "S15",
    "stateName": "Meghalaya",
    "districtCode": "S1503",
    "districtName": "EAST KHASI HILLS",
    "acNumber": 13,
    "acName": "MAWRYNGKNENG",
    "partNumber": 48,
    "partName": "MAWRYNGKNENG MAWMANG",
    "lat": 25.6012904,
    "lon": 92.05133434321604
  },
  {
    "partId": 847,
    "stateCode": "S15",
    "stateName": "Meghalaya",
    "districtCode": "S1503",
    "districtName": "EAST KHASI HILLS",
    "acNumber": 13,
    "acName": "MAWRYNGKNENG",
    "partNumber": 49,
    "partName": "PURIANG A",
    "lat": 25.6012904,
    "lon": 92.05133434321604
  },
  {
    "partId": 848,
    "stateCode": "S15",
    "stateName": "Meghalaya",
    "districtCode": "S1503",
    "districtName": "EAST KHASI HILLS",
    "acNumber": 13,
    "acName": "MAWRYNGKNENG",
    "partNumber": 50,
    "partName": "PURIANG B",
    "lat": 25.6012904,
    "lon": 92.05133434321604
  },
  {
    "partId": 849,
    "stateCode": "S15",
    "stateName": "Meghalaya",
    "districtCode": "S1503",
    "districtName": "EAST KHASI HILLS",
    "acNumber": 13,
    "acName": "MAWRYNGKNENG",
    "partNumber": 51,
    "partName": "KRUIN",
    "lat": 25.59621238114754,
    "lon": 92.0459615992615
  },
  {
    "partId": 850,
    "stateCode": "S15",
    "stateName": "Meghalaya",
    "districtCode": "S1503",
    "districtName": "EAST KHASI HILLS",
    "acNumber": 13,
    "acName": "MAWRYNGKNENG",
    "partNumber": 52,
    "partName": "KUT A",
    "lat": 25.6012904,
    "lon": 92.05133434321604
  },
  {
    "partId": 851,
    "stateCode": "S15",
    "stateName": "Meghalaya",
    "districtCode": "S1503",
    "districtName": "EAST KHASI HILLS",
    "acNumber": 13,
    "acName": "MAWRYNGKNENG",
    "partNumber": 53,
    "partName": "KUT B",
    "lat": 25.59621238114754,
    "lon": 92.0459615992615
  },
  {
    "partId": 852,
    "stateCode": "S15",
    "stateName": "Meghalaya",
    "districtCode": "S1503",
    "districtName": "EAST KHASI HILLS",
    "acNumber": 13,
    "acName": "MAWRYNGKNENG",
    "partNumber": 54,
    "partName": "LUMKSEH",
    "lat": 25.59621238114754,
    "lon": 92.0459615992615
  },
  {
    "partId": 853,
    "stateCode": "S15",
    "stateName": "Meghalaya",
    "districtCode": "S1503",
    "districtName": "EAST KHASI HILLS",
    "acNumber": 13,
    "acName": "MAWRYNGKNENG",
    "partNumber": 55,
    "partName": "LUMDIENGSAI",
    "lat": 25.6012904,
    "lon": 92.05133434321604
  },
  {
    "partId": 854,
    "stateCode": "S15",
    "stateName": "Meghalaya",
    "districtCode": "S1503",
    "districtName": "EAST KHASI HILLS",
    "acNumber": 13,
    "acName": "MAWRYNGKNENG",
    "partNumber": 56,
    "partName": "MAWIONG SUNG",
    "lat": 25.6012904,
    "lon": 92.05133434321604
  },
  {
    "partId": 855,
    "stateCode": "S15",
    "stateName": "Meghalaya",
    "districtCode": "S1503",
    "districtName": "EAST KHASI HILLS",
    "acNumber": 13,
    "acName": "MAWRYNGKNENG",
    "partNumber": 57,
    "partName": "POMLAHIER",
    "lat": 25.59621238114754,
    "lon": 92.0459615992615
  },
  {
    "partId": 856,
    "stateCode": "S15",
    "stateName": "Meghalaya",
    "districtCode": "S1503",
    "districtName": "EAST KHASI HILLS",
    "acNumber": 13,
    "acName": "MAWRYNGKNENG",
    "partNumber": 58,
    "partName": "POMMURA",
    "lat": 25.6012904,
    "lon": 92.05133434321604
  },
  {
    "partId": 857,
    "stateCode": "S15",
    "stateName": "Meghalaya",
    "districtCode": "S1503",
    "districtName": "EAST KHASI HILLS",
    "acNumber": 13,
    "acName": "MAWRYNGKNENG",
    "partNumber": 59,
    "partName": "KSEHPYNDENG",
    "lat": 25.6012904,
    "lon": 92.05133434321604
  },
  {
    "partId": 858,
    "stateCode": "S15",
    "stateName": "Meghalaya",
    "districtCode": "S1503",
    "districtName": "EAST KHASI HILLS",
    "acNumber": 13,
    "acName": "MAWRYNGKNENG",
    "partNumber": 60,
    "partName": "UMPLING DONG SUROK A",
    "lat": 25.6012904,
    "lon": 92.05133434321604
  },
  {
    "partId": 859,
    "stateCode": "S15",
    "stateName": "Meghalaya",
    "districtCode": "S1503",
    "districtName": "EAST KHASI HILLS",
    "acNumber": 13,
    "acName": "MAWRYNGKNENG",
    "partNumber": 61,
    "partName": "UMPLING DONG SUROK B",
    "lat": 25.6012904,
    "lon": 92.05133434321604
  },
  {
    "partId": 860,
    "stateCode": "S15",
    "stateName": "Meghalaya",
    "districtCode": "S1503",
    "districtName": "EAST KHASI HILLS",
    "acNumber": 13,
    "acName": "MAWRYNGKNENG",
    "partNumber": 62,
    "partName": "UMPLING LUMDIENGMET A",
    "lat": 25.6012904,
    "lon": 92.05133434321604
  },
  {
    "partId": 861,
    "stateCode": "S15",
    "stateName": "Meghalaya",
    "districtCode": "S1503",
    "districtName": "EAST KHASI HILLS",
    "acNumber": 13,
    "acName": "MAWRYNGKNENG",
    "partNumber": 63,
    "partName": "UMPLING LUMDIENGMET B",
    "lat": 25.6012904,
    "lon": 92.05133434321604
  },
  {
    "partId": 862,
    "stateCode": "S15",
    "stateName": "Meghalaya",
    "districtCode": "S1503",
    "districtName": "EAST KHASI HILLS",
    "acNumber": 13,
    "acName": "MAWRYNGKNENG",
    "partNumber": 64,
    "partName": "UMPLING DONG SHANENG A",
    "lat": 25.6012904,
    "lon": 92.05133434321604
  },
  {
    "partId": 863,
    "stateCode": "S15",
    "stateName": "Meghalaya",
    "districtCode": "S1503",
    "districtName": "EAST KHASI HILLS",
    "acNumber": 13,
    "acName": "MAWRYNGKNENG",
    "partNumber": 65,
    "partName": "UMPLING DONG SHANENG B",
    "lat": 25.6012904,
    "lon": 92.05133434321604
  },
  {
    "partId": 864,
    "stateCode": "S15",
    "stateName": "Meghalaya",
    "districtCode": "S1503",
    "districtName": "EAST KHASI HILLS",
    "acNumber": 13,
    "acName": "MAWRYNGKNENG",
    "partNumber": 66,
    "partName": "UMPLING DONG SHARUM A",
    "lat": 25.6012904,
    "lon": 92.05133434321604
  },
  {
    "partId": 865,
    "stateCode": "S15",
    "stateName": "Meghalaya",
    "districtCode": "S1503",
    "districtName": "EAST KHASI HILLS",
    "acNumber": 13,
    "acName": "MAWRYNGKNENG",
    "partNumber": 67,
    "partName": "UMPLING DONG SHARUM B",
    "lat": 25.6012904,
    "lon": 92.05133434321604
  },
  {
    "partId": 4385,
    "stateCode": "S15",
    "stateName": "Meghalaya",
    "districtCode": "S1503",
    "districtName": "EAST KHASI HILLS",
    "acNumber": 25,
    "acName": "MAWSYNRAM",
    "partNumber": 1,
    "partName": "MAWSPONG",
    "lat": 25.305995062295082,
    "lon": 91.56928518993324
  },
  {
    "partId": 4386,
    "stateCode": "S15",
    "stateName": "Meghalaya",
    "districtCode": "S1503",
    "districtName": "EAST KHASI HILLS",
    "acNumber": 25,
    "acName": "MAWSYNRAM",
    "partNumber": 2,
    "partName": "MAWKAPHAN",
    "lat": 25.3002445,
    "lon": 91.5676761
  },
  {
    "partId": 4387,
    "stateCode": "S15",
    "stateName": "Meghalaya",
    "districtCode": "S1503",
    "districtName": "EAST KHASI HILLS",
    "acNumber": 25,
    "acName": "MAWSYNRAM",
    "partNumber": 3,
    "partName": "DOMSKONG",
    "lat": 25.301132,
    "lon": 91.5589857
  },
  {
    "partId": 4388,
    "stateCode": "S15",
    "stateName": "Meghalaya",
    "districtCode": "S1503",
    "districtName": "EAST KHASI HILLS",
    "acNumber": 25,
    "acName": "MAWSYNRAM",
    "partNumber": 4,
    "partName": "KENBAH",
    "lat": 25.308445,
    "lon": 91.5570706
  },
  {
    "partId": 4389,
    "stateCode": "S15",
    "stateName": "Meghalaya",
    "districtCode": "S1503",
    "districtName": "EAST KHASI HILLS",
    "acNumber": 25,
    "acName": "MAWSYNRAM",
    "partNumber": 5,
    "partName": "KYNMYNSAW",
    "lat": 25.3388615,
    "lon": 91.59223090531222
  },