[
  {
    "partId": 7952,
    "stateCode": "S01",
    "stateName": "Andhra Pradesh",
    "districtCode": "S0119",
    "districtName": "Kurnool",
    "acNumber": 146,
    "acName": "Adoni",
    "partNumber": 1,
    "partName": "PEDDA THUMBALAM",
    "lat": 15.7635621,
    "lon": 77.2608252
  },
  {
    "partId": 22847,
    "stateCode": "S01",
    "stateName": "Andhra Pradesh",
    "districtCode": "S0119",
    "districtName": "Kurnool",
    "acNumber": 146,
    "acName": "Adoni",
    "partNumber": 2,
    "partName": "PEDDA THUMBALAM",
    "lat": 15.7635621,
    "lon": 77.2608252
  },
  {
    "partId": 22846,
    "stateCode": "S01",
    "stateName": "Andhra Pradesh",
    "districtCode": "S0119",
    "districtName": "Kurnool",
    "acNumber": 146,
    "acName": "Adoni",
    "partNumber": 3,
    "partName": "PEDDA THUMBALAM",
    "lat": 15.7635621,
    "lon": 77.2608252
  },
  {
    "partId": 22845,
    "stateCode": "S01",
    "stateName": "Andhra Pradesh",
    "districtCode": "S0119",
    "districtName": "Kurnool",
    "acNumber": 146,
    "acName": "Adoni",
    "partNumber": 4,
    "partName": "PEDDA THUMBALAM",
    "lat": 15.7635621,
    "lon": 77.2608252
  },
  {
    "partId": 22844,
    "stateCode": "S01",
    "stateName": "Andhra Pradesh",
    "districtCode": "S0119",
    "districtName": "Kurnool",
    "acNumber": 146,
    "acName": "Adoni",
    "partNumber": 5,
    "partName": "PEDDA THUMBALAM",
    "lat": 15.7635621,
    "lon": 77.2608252
  },
  {
    "partId": 22843,
    "stateCode": "S01",
    "stateName": "Andhra Pradesh",
    "districtCode": "S0119",
    "districtName": "Kurnool",
    "acNumber": 146,
    "acName": "Adoni",
    "partNumber": 6,
    "partName": "PEDDA THUMBALAM",
    "lat": 15.7635621,
    "lon": 77.2608252
  },
  {
    "partId": 22842,
    "stateCode": "S01",
    "stateName": "Andhra Pradesh",
    "districtCode": "S0119",
    "districtName": "Kurnool",
    "acNumber": 146,
    "acName": "Adoni",
    "partNumber": 7,
    "partName": "PEDDA THUMBALAM",
    "lat": 15.7635621,
    "lon": 77.2608252
  },
  {
    "partId": 21353,
    "stateCode": "S01",
    "stateName": "Andhra Pradesh",
    "districtCode": "S0119",
    "districtName": "Kurnool",
    "acNumber": 146,
    "acName": "Adoni",
    "partNumber": 8,
    "partName": "KUPPAGAL",
    "lat": 15.7305669,
    "lon": 77.2378609
  },
  {
    "partId": 21352,
    "stateCode": "S01",
    "stateName": "Andhra Pradesh",
    "districtCode": "S0119",
    "districtName": "Kurnool",
    "acNumber": 146,
    "acName": "Adoni",
    "partNumber": 9,
    "partName": "KUPPAGAL",
    "lat": 15.7305669,
    "lon": 77.2378609
  },
  {
    "partId": 21351,
    "stateCode": "S01",
    "stateName": "Andhra Pradesh",
    "districtCode": "S0119",
    "districtName": "Kurnool",
    "acNumber": 146,
    "acName": "Adoni",
    "partNumber": 10,
    "partName": "BALLEKALLU",
    "lat": 15.54788035,
    "lon": 77.55425904309928
  },
  {
    "partId": 21350,
    "stateCode": "S01",
    "stateName": "Andhra Pradesh",
    "districtCode": "S0119",
    "districtName": "Kurnool",
    "acNumber": 146,
    "acName": "Adoni",
    "partNumber": 11,
    "partName": "BALLEKALLU",
    "lat": 15.54788035,
    "lon": 77.55425904309928
  },
  {
    "partId": 14253,
    "stateCode": "S01",
    "stateName": "Andhra Pradesh",
    "districtCode": "S0119",
    "districtName": "Kurnool",
    "acNumber": 146,
    "acName": "Adoni",
    "partNumber": 12,
    "partName": "PANDAVAGALLU",
    "lat": 15.7195033,
    "lon": 77.2331737
  },
  {
    "partId": 22832,
    "stateCode": "S01",
    "stateName": "Andhra Pradesh",
    "districtCode": "S0119",
    "districtName": "Kurnool",
    "acNumber": 146,
    "acName": "Adoni",
    "partNumber": 13,
    "partName": "PANDAVAGALLU",
    "lat": 15.7195033,
    "lon": 77.2331737
  },
  {
    "partId": 14252,
    "stateCode": "S01",
    "stateName": "Andhra Pradesh",
    "districtCode": "S0119",
    "districtName": "Kurnool",
    "acNumber": 146,
    "acName": "Adoni",
    "partNumber": 14,
    "partName": "JALIBANCHI",
    "lat": 15.54788035,
    "lon": 77.55425904309928
  },
  {
    "partId": 14251,
    "stateCode": "S01",
    "stateName": "Andhra Pradesh",
    "districtCode": "S0119",
    "districtName": "Kurnool",
    "acNumber": 146,
    "acName": "Adoni",
    "partNumber": 15,
    "partName": "JALIBENCHI",
    "lat": 15.7040473,
    "lon": 77.2629433
  },
  {
    "partId": 14250,
    "stateCode": "S01",
    "stateName": "Andhra Pradesh",
    "districtCode": "S0119",
    "districtName": "Kurnool",
    "acNumber": 146,
    "acName": "Adoni",
    "partNumber": 16,
    "partName": "GANEKAL",
    "lat": 15.7024925,
    "lon": 77.2217363
  },
  {
    "partId": 14249,
    "stateCode": "S01",
    "stateName": "Andhra Pradesh",
    "districtCode": "S0119",
    "districtName": "Kurnool",
    "acNumber": 146,
    "acName": "Adoni",
    "partNumber": 17,
    "partName": "GANEKAL",
    "lat": 15.7024925,
    "lon": 77.2217363
  },
  {
    "partId": 14248,
    "stateCode": "S01",
    "stateName": "Andhra Pradesh",
    "districtCode": "S0119",
    "districtName": "Kurnool",
    "acNumber": 146,
    "acName": "Adoni",
    "partNumber": 18,
    "partName": "KADITHOTA",
    "lat": 15.6658446,
    "lon": 77.22386
  },
  {
    "partId": 14247,
    "stateCode": "S01",
    "stateName": "Andhra Pradesh",
    "districtCode": "S0119",
    "districtName": "Kurnool",
    "acNumber": 146,
    "acName": "Adoni",
    "partNumber": 19,
    "partName": "G. HOSALLI",
    "lat": 15.6793586,
    "lon": 77.200436
  },
  {
    "partId": 21373,
    "stateCode": "S01",
    "stateName": "Andhra Pradesh",
    "districtCode": "S0119",
    "districtName": "Kurnool",
    "acNumber": 146,
    "acName": "Adoni",
    "partNumber": 20,
    "partName": "HANAWAL",
    "lat": 15.54788035,
    "lon": 77.55425904309928
  },
  {
    "partId": 21372,
    "stateCode": "S01",
    "stateName": "Andhra Pradesh",
    "districtCode": "S0119",
    "districtName": "Kurnool",
    "acNumber": 146,
    "acName": "Adoni",
    "partNumber": 21,
    "partName": "HANAWAL",
    "lat": 15.54788035,
    "lon": 77.55425904309928
  },
  {
    "partId": 21371,
    "stateCode": "S01",
    "stateName": "Andhra Pradesh",
    "districtCode": "S0119",
    "districtName": "Kurnool",
    "acNumber": 146,
    "acName": "Adoni",
    "partNumber": 22,
    "partName": "HANAWAL",
    "lat": 15.54788035,
    "lon": 77.55425904309928
  },
  {
    "partId": 21370,
    "stateCode": "S01",
    "stateName": "Andhra Pradesh",
    "districtCode": "S0119",
    "districtName": "Kurnool",
    "acNumber": 146,
    "acName": "Adoni",
    "partNumber": 23,
    "partName": "111 MADIRE",
    "lat": 15.6487339,
    "lon": 77.2123984
  },
  {
    "partId": 21362,
    "stateCode": "S01",
    "stateName": "Andhra Pradesh",
    "districtCode": "S0119",
    "districtName": "Kurnool",
    "acNumber": 146,
    "acName": "Adoni",
    "partNumber": 24,
    "partName": "111 MADIRE",
    "lat": 15.6487339,
    "lon": 77.2123984
  },
  {
    "partId": 21369,
    "stateCode": "S01",
    "stateName": "Andhra Pradesh",
    "districtCode": "S0119",
    "districtName": "Kurnool",
    "acNumber": 146,
    "acName": "Adoni",
    "partNumber": 25,
    "partName": "111MADIRE",
    "lat": 15.54788035,
    "lon": 77.55425904309928
  },
  {
    "partId": 21386,
    "stateCode": "S01",
    "stateName": "Andhra Pradesh",
    "districtCode": "S0119",
    "districtName": "Kurnool",
    "acNumber": 146,
    "acName": "Adoni",
    "partNumber": 26,
    "partName": "111 MADIRE",
    "lat": 15.6487339,
    "lon": 77.2123984
  },
  {
    "partId": 21385,
    "stateCode": "S01",
    "stateName": "Andhra Pradesh",
    "districtCode": "S0119",
    "districtName": "Kurnool",
    "acNumber": 146,
    "acName": "Adoni",
    "partNumber": 27,
    "partName": "111 MADIRE",
    "lat": 15.6487339,
    "lon": 77.2123984
  },
  {
    "partId": 23089,
    "stateCode": "S01",
    "stateName": "Andhra Pradesh",
    "districtCode": "S0119",
    "districtName": "Kurnool",
    "acNumber": 146,
    "acName": "Adoni",
    "partNumber": 28,
    "partName": "CHINNAHARIVANAM",
    "lat": 15.54788035,
    "lon": 77.55425904309928
  },
  {
    "partId": 23088,
    "stateCode": "S01",
    "stateName": "Andhra Pradesh",
    "districtCode": "S0119",
    "districtName": "Kurnool",
    "acNumber": 146,
    "acName": "Adoni",
    "partNumber": 29,
    "partName": "CHINNAHARIVANAM",
    "lat": 15.54788035,
    "lon": 77.55425904309928
  },
  {
    "partId": 25583,
    "stateCode": "S01",
    "stateName": "Andhra Pradesh",
    "districtCode": "S0119",
    "districtName": "Kurnool",
    "acNumber": 146,
    "acName": "Adoni",
    "partNumber": 30,
    "partName": "CHINNA GONEHAL",
    "lat": 15.6071965,
    "lon": 77.1644876
  },
  {
    "partId": 7951,
    "stateCode": "S01",
    "stateName": "Andhra Pradesh",
    "districtCode": "S0119",
    "districtName": "Kurnool",
    "acNumber": 146,
    "acName": "Adoni",
    "partNumber": 31,
    "partName": "SANTHEKUDLUR",
    "lat": 15.6263639,
    "lon": 77.1411662
  },
  {
    "partId": 21361,
    "stateCode": "S01",
    "stateName": "Andhra Pradesh",
    "districtCode": "S0119",
    "districtName": "Kurnool",
    "acNumber": 146,
    "acName": "Adoni",
    "partNumber": 32,
    "partName": "SANTHEKUDLUR",
    "lat": 15.6263639,
    "lon": 77.1411662
  },
  {
    "partId": 7950,
    "stateCode": "S01",
    "stateName": "Andhra Pradesh",
    "districtCode": "S0119",
    "districtName": "Kurnool",
    "acNumber": 146,
    "acName": "Adoni",
    "partNumber": 33,
    "partName": "SANTHEKUDLUR",
    "lat": 15.6263639,
    "lon": 77.1411662
  },
  {
    "partId": 7949,
    "stateCode": "S01",
    "stateName": "Andhra Pradesh",
    "districtCode": "S0119",
    "districtName": "Kurnool",
    "acNumber": 146,
    "acName": "Adoni",
    "partNumber": 34,
    "partName": "SANTHEKUDLUR",
    "lat": 15.6263639,
    "lon": 77.1411662
  },
  {
    "partId": 21360,
    "stateCode": "S01",
    "stateName": "Andhra Pradesh",
    "districtCode": "S0119",
    "districtName": "Kurnool",
    "acNumber": 146,
    "acName": "Adoni",
    "partNumber": 35,
    "partName": "SANTHEKUDLUR",
    "lat": 15.6263639,
    "lon": 77.1411662
  },
  {
    "partId": 27811,
    "stateCode": "S01",
    "stateName": "Andhra Pradesh",
    "districtCode": "S0119",
    "districtName": "Kurnool",
    "acNumber": 146,
    "acName": "Adoni",
    "partNumber": 36,
    "partName": "BALADUR",
    "lat": 15.6158201,
    "lon": 77.1357581
  },
  {
    "partId": 27810,
    "stateCode": "S01",
    "stateName": "Andhra Pradesh",
    "districtCode": "S0119",
    "districtName": "Kurnool",
    "acNumber": 146,
    "acName": "Adoni",
    "partNumber": 37,
    "partName": "PEDDA HARIVANAM",
    "lat": 15.6319837,
    "lon": 77.1022196
  },
  {
    "partId": 27809,
    "stateCode": "S01",
    "stateName": "Andhra Pradesh",
    "districtCode": "S0119",
    "districtName": "Kurnool",
    "acNumber": 146,
    "acName": "Adoni",
    "partNumber": 38,
    "partName": "PEDDA HARIVANAM",
    "lat": 15.6319837,
    "lon": 77.1022196
  },
  {
    "partId": 27808,
    "stateCode": "S01",
    "stateName": "Andhra Pradesh",
    "districtCode": "S0119",
    "districtName": "Kurnool",
    "acNumber": 146,
    "acName": "Adoni",
    "partNumber": 39,
    "partName": "PEDDA HARIVANAM",
    "lat": 15.6319837,
    "lon": 77.1022196
  },
  {
    "partId": 27807,
    "stateCode": "S01",
    "stateName": "Andhra Pradesh",
    "districtCode": "S0119",
    "districtName": "Kurnool",
    "acNumber": 146,
    "acName": "Adoni",
    "partNumber": 40,
    "partName": "PEDDA HARIVANAM",
    "lat": 15.6319837,
    "lon": 77.1022196
  },
  {
    "partId": 27806,
    "stateCode": "S01",
    "stateName": "Andhra Pradesh",
    "districtCode": "S0119",
    "districtName": "Kurnool",
    "acNumber": 146,
    "acName": "Adoni",
    "partNumber": 41,
    "partName": "PEDDA HARIVANAM",
    "lat": 15.6319837,
    "lon": 77.1022196
  },
  {
    "partId": 27805,
    "stateCode": "S01",
    "stateName": "Andhra Pradesh",
    "districtCode": "S0119",
    "districtName": "Kurnool",
    "acNumber": 146,
    "acName": "Adoni",
    "partNumber": 42,
    "partName": "PEDDA HARIVANAM",
    "lat": 15.6319837,
    "lon": 77.1022196
  },
  {
    "partId": 27804,
    "stateCode": "S01",
    "stateName": "Andhra Pradesh",
    "districtCode": "S0119",
    "districtName": "Kurnool",
    "acNumber": 146,
    "acName": "Adoni",
    "partNumber": 43,
    "partName": "PEDDA HARIVANAM",
    "lat": 15.6319837,
    "lon": 77.1022196
  },
  {
    "partId": 23116,
    "stateCode": "S01",
    "stateName": "Andhra Pradesh",
    "districtCode": "S0119",
    "districtName": "Kurnool",
    "acNumber": 146,
    "acName": "Adoni",
    "partNumber": 44,
    "partName": "NAGANATHANAHALLI",
    "lat": 15.54788035,
    "lon": 77.55425904309928
  },
  {
    "partId": 21359,
    "stateCode": "S01",
    "stateName": "Andhra Pradesh",
    "districtCode": "S0119",
    "districtName": "Kurnool",
    "acNumber": 146,
    "acName": "Adoni",
    "partNumber": 45,
    "partName": "NAGANATHANAHALLI",
    "lat": 15.54788035,
    "lon": 77.55425904309928
  },
  {
    "partId": 7962,
    "stateCode": "S01",
    "stateName": "Andhra Pradesh",
    "districtCode": "S0119",
    "districtName": "Kurnool",
    "acNumber": 146,
    "acName": "Adoni",
    "partNumber": 46,
    "partName": "NAGANATHANAHALLI",
    "lat": 15.54788035,
    "lon": 77.55425904309928
  },
  {
    "partId": 7964,
    "stateCode": "S01",
    "stateName": "Andhra Pradesh",
    "districtCode": "S0119",
    "districtName": "Kurnool",
    "acNumber": 146,
    "acName": "Adoni",
    "partNumber": 47,
    "partName": "CHAGI",
    "lat": 15.5357509,
    "lon": 77.2596005
  },
  {
    "partId": 7963,
    "stateCode": "S01",
    "stateName": "Andhra Pradesh",
    "districtCode": "S0119",
    "districtName": "Kurnool",
    "acNumber": 146,
    "acName": "Adoni",
    "partNumber": 48,
    "partName": "NARAYANA PURAM",
    "lat": 15.54788035,
    "lon": 77.55425904309928
  },
  {
    "partId": 21421,
    "stateCode": "S01",
    "stateName": "Andhra Pradesh",
    "districtCode": "S0119",
    "districtName": "Kurnool",
    "acNumber": 146,
    "acName": "Adoni",
    "partNumber": 49,
    "partName": "NARAYANA PURAM",
    "lat": 15.54788035,
    "lon": 77.55425904309928
  },
  {
    "partId": 21420,
    "stateCode": "S01",
    "stateName": "Andhra Pradesh",
    "districtCode": "S0119",
    "districtName": "Kurnool",
    "acNumber": 146,
    "acName": "Adoni",
    "partNumber": 50,
    "partName": "DHANAPURAM",
    "lat": 15.5641403,
    "lon": 77.2655997
  },
  {
    "partId": 21419,
    "stateCode": "S01",
    "stateName": "Andhra Pradesh",
    "districtCode": "S0119",
    "districtName": "Kurnool",
    "acNumber": 146,
    "acName": "Adoni",
    "partNumber": 51,
    "partName": "DHANAPURAM",
    "lat": 15.5641403,
    "lon": 77.2655997
  },
  {
    "partId": 21418,
    "stateCode": "S01",
    "stateName": "Andhra Pradesh",
    "districtCode": "S0119",
    "districtName": "Kurnool",
    "acNumber": 146,
    "acName": "Adoni",
    "partNumber": 52,
    "partName": "104 BASAPURAM",
    "lat": 15.9347958,
    "lon": 77.3076458
  },
  {
    "partId": 21417,
    "stateCode": "S01",
    "stateName": "Andhra Pradesh",
    "districtCode": "S0119",
    "districtName": "Kurnool",
    "acNumber": 146,
    "acName": "Adoni",
    "partNumber": 53,
    "partName": "104 BASAPURAM",
    "lat": 15.9347958,
    "lon": 77.3076458
  },
  {
    "partId": 21416,
    "stateCode": "S01",
    "stateName": "Andhra Pradesh",
    "districtCode": "S0119",
    "districtName": "Kurnool",
    "acNumber": 146,
    "acName": "Adoni",
    "partNumber": 54,
    "partName": "104 BASAPURAM",
    "lat": 15.9347958,
    "lon": 77.3076458
  },
  {
    "partId": 21415,
    "stateCode": "S01",
    "stateName": "Andhra Pradesh",
    "districtCode": "S0119",
    "districtName": "Kurnool",
    "acNumber": 146,
    "acName": "Adoni",
    "partNumber": 55,
    "partName": "ISVI",
    "lat": 15.54788035,
    "lon": 77.55425904309928
  },
  {
    "partId": 21414,
    "stateCode": "S01",
    "stateName": "Andhra Pradesh",
    "districtCode": "S0119",
    "districtName": "Kurnool",
    "acNumber": 146,
    "acName": "Adoni",
    "partNumber": 56,
    "partName": "ISVI",
    "lat": 15.54788035,
    "lon": 77.55425904309928
  },
  {
    "partId": 22841,
    "stateCode": "S01",
    "stateName": "Andhra Pradesh",
    "districtCode": "S0119",
    "districtName": "Kurnool",
    "acNumber": 146,
    "acName": "Adoni",
    "partNumber": 57,
    "partName": "DODDANAKERI",
    "lat": 15.7015033,
    "lon": 77.2863265
  },
  {
    "partId": 22840,
    "stateCode": "S01",
    "stateName": "Andhra Pradesh",
    "districtCode": "S0119",
    "districtName": "Kurnool",
    "acNumber": 146,
    "acName": "Adoni",
    "partNumber": 58,
    "partName": "DODDANAKERI",
    "lat": 15.7015033,
    "lon": 77.2863265
  },
  {
    "partId": 22839,
    "stateCode": "S01",
    "stateName": "Andhra Pradesh",
    "districtCode": "S0119",
    "districtName": "Kurnool",
    "acNumber": 146,
    "acName": "Adoni",
    "partNumber": 59,
    "partName": "MANTRIKI",
    "lat": 15.6974734,
    "lon": 77.3029565
  },
  {
    "partId": 9187,
    "stateCode": "S01",
    "stateName": "Andhra Pradesh",
    "districtCode": "S0119",
    "districtName": "Kurnool",
    "acNumber": 146,
    "acName": "Adoni",
    "partNumber": 60,
    "partName": "KOTTURU",
    "lat": 15.2675079,
    "lon": 77.6095713
  },
  {
    "partId": 25582,
    "stateCode": "S01",
    "stateName": "Andhra Pradesh",
    "districtCode": "S0119",
    "districtName": "Kurnool",
    "acNumber": 146,
    "acName": "Adoni",
    "partNumber": 61,
    "partName": "PESALABANDA",
    "lat": 15.6802021,
    "lon": 77.3105154
  },
  {
    "partId": 25581,
    "stateCode": "S01",
    "stateName": "Andhra Pradesh",
    "districtCode": "S0119",
    "districtName": "Kurnool",
    "acNumber": 146,
    "acName": "Adoni",
    "partNumber": 62,
    "partName": "SULTANAPURAM",
    "lat": 15.6761699,
    "lon": 77.3006281
  },
  {
    "partId": 25580,
    "stateCode": "S01",
    "stateName": "Andhra Pradesh",
    "districtCode": "S0119",
    "districtName": "Kurnool",
    "acNumber": 146,
    "acName": "Adoni",
    "partNumber": 63,
    "partName": "KAPATI",
    "lat": 15.6675647,
    "lon": 77.334735
  },
  {
    "partId": 25579,
    "stateCode": "S01",
    "stateName": "Andhra Pradesh",
    "districtCode": "S0119",
    "districtName": "Kurnool",
    "acNumber": 146,
    "acName": "Adoni",
    "partNumber": 64,
    "partName": "KAPATI",
    "lat": 15.6675647,
    "lon": 77.334735
  },
  {
    "partId": 25578,
    "stateCode": "S01",
    "stateName": "Andhra Pradesh",
    "districtCode": "S0119",
    "districtName": "Kurnool",
    "acNumber": 146,
    "acName": "Adoni",
    "partNumber": 65,
    "partName": "NAGALAPURAM",
    "lat": 15.6654104,
    "lon": 77.3544279
  },
  {
    "partId": 21358,
    "stateCode": "S01",
    "stateName": "Andhra Pradesh",
    "districtCode": "S0119",
    "districtName": "Kurnool",
    "acNumber": 146,
    "acName": "Adoni",
    "partNumber": 66,
    "partName": "NAGALAPURAM",
    "lat": 15.6654104,
    "lon": 77.3544279
  },
  {
    "partId": 25577,
    "stateCode": "S01",
    "stateName": "Andhra Pradesh",
    "districtCode": "S0119",
    "districtName": "Kurnool",
    "acNumber": 146,
    "acName": "Adoni",
    "partNumber": 67,
    "partName": "AREKAL",
    "lat": 15.6597473,
    "lon": 77.3672634
  },
  {
    "partId": 22808,
    "stateCode": "S01",
    "stateName": "Andhra Pradesh",
    "districtCode": "S0119",
    "districtName": "Kurnool",
    "acNumber": 146,
    "acName": "Adoni",
    "partNumber": 68,
    "partName": "AREKAL",
    "lat": 15.6597473,
    "lon": 77.3672634
  },
  {
    "partId": 22807,
    "stateCode": "S01",
    "stateName": "Andhra Pradesh",
    "districtCode": "S0119",
    "districtName": "Kurnool",
    "acNumber": 146,
    "acName": "Adoni",
    "partNumber": 69,
    "partName": "PEDDA PENDEKAL",
    "lat": 15.54788035,
    "lon": 77.55425904309928
  },
  {
    "partId": 22806,
    "stateCode": "S01",
    "stateName": "Andhra Pradesh",
    "districtCode": "S0119",
    "districtName": "Kurnool",
    "acNumber": 146,
    "acName": "Adoni",
    "partNumber": 70,
    "partName": "BYCHIGERI  S.KONDAPURAM",
    "lat": 15.54788035,
    "lon": 77.55425904309928
  },
  {
    "partId": 22805,
    "stateCode": "S01",
    "stateName": "Andhra Pradesh",
    "districtCode": "S0119",
    "districtName": "Kurnool",
    "acNumber": 146,
    "acName": "Adoni",
    "partNumber": 71,
    "partName": "BYCHIGERI  S.KONDAPURAM",
    "lat": 15.54788035,
    "lon": 77.55425904309928
  },
  {
    "partId": 22804,
    "stateCode": "S01",
    "stateName": "Andhra Pradesh",
    "districtCode": "S0119",
    "districtName": "Kurnool",
    "acNumber": 146,
    "acName": "Adoni",
    "partNumber": 72,
    "partName": "NETTEKALLU",
    "lat": 15.54788035,
    "lon": 77.55425904309928
  },
  {
    "partId": 22836,
    "stateCode": "S01",
    "stateName": "Andhra Pradesh",
    "districtCode": "S0119",
    "districtName": "Kurnool",
    "acNumber": 146,
    "acName": "Adoni",
    "partNumber": 73,
    "partName": "NETTEKALLU",
    "lat": 15.54788035,
    "lon": 77.55425904309928
  },
  {
    "partId": 21476,
    "stateCode": "S01",
    "stateName": "Andhra Pradesh",
    "districtCode": "S0119",
    "districtName": "Kurnool",
    "acNumber": 146,
    "acName": "Adoni",
    "partNumber": 74,
    "partName": "SAMBAGALLU",
    "lat": 15.6203818,
    "lon": 77.370653
  },
  {
    "partId": 21475,
    "stateCode": "S01",
    "stateName": "Andhra Pradesh",
    "districtCode": "S0119",
    "districtName": "Kurnool",
    "acNumber": 146,
    "acName": "Adoni",
    "partNumber": 75,
    "partName": "CHINNA PENDEKAL",
    "lat": 15.54788035,
    "lon": 77.55425904309928
  },
  {
    "partId": 21474,
    "stateCode": "S01",
    "stateName": "Andhra Pradesh",
    "districtCode": "S0119",
    "districtName": "Kurnool",
    "acNumber": 146,
    "acName": "Adoni",
    "partNumber": 76,
    "partName": "CHINNA PENDEKAL",
    "lat": 15.54788035,
    "lon": 77.55425904309928
  },
  {
    "partId": 21473,
    "stateCode": "S01",
    "stateName": "Andhra Pradesh",
    "districtCode": "S0119",
    "districtName": "Kurnool",
    "acNumber": 146,
    "acName": "Adoni",
    "partNumber": 77,
    "partName": "MANDIGIRI",
    "lat": 15.54788035,
    "lon": 77.55425904309928
  },
  {
    "partId": 21472,
    "stateCode": "S01",
    "stateName": "Andhra Pradesh",
    "districtCode": "S0119",
    "districtName": "Kurnool",
    "acNumber": 146,
    "acName": "Adoni",
    "partNumber": 78,
    "partName": "MANDIGIRI",
    "lat": 15.54788035,
    "lon": 77.55425904309928
  },
  {
    "partId": 21471,
    "stateCode": "S01",
    "stateName": "Andhra Pradesh",
    "districtCode": "S0119",
    "districtName": "Kurnool",
    "acNumber": 146,
    "acName": "Adoni",
    "partNumber": 79,
    "partName": "MANDIGIRI",
    "lat": 15.54788035,
    "lon": 77.55425904309928
  },
  {
    "partId": 21470,
    "stateCode": "S01",
    "stateName": "Andhra Pradesh",
    "districtCode": "S0119",
    "districtName": "Kurnool",
    "acNumber": 146,
    "acName": "Adoni",
    "partNumber": 80,
    "partName": "MANDIGIRI",
    "lat": 15.54788035,
    "lon": 77.55425904309928
  },
  {
    "partId": 21469,
    "stateCode": "S01",
    "stateName": "Andhra Pradesh",
    "districtCode": "S0119",
    "districtName": "Kurnool",
    "acNumber": 146,
    "acName": "Adoni",
    "partNumber": 81,
    "partName": "MANDIGIRI",
    "lat": 15.54788035,
    "lon": 77.55425904309928
  },
  {
    "partId": 25576,
    "stateCode": "S01",
    "stateName": "Andhra Pradesh",
    "districtCode": "S0119",
    "districtName": "Kurnool",
    "acNumber": 146,
    "acName": "Adoni",
    "partNumber": 82,
    "partName": "MANDIGIRI",
    "lat": 15.54788035,
    "lon": 77.55425904309928
  },
  {
    "partId": 25575,
    "stateCode": "S01",
    "stateName": "Andhra Pradesh",
    "districtCode": "S0119",
    "districtName": "Kurnool",
    "acNumber": 146,
    "acName": "Adoni",
    "partNumber": 83,
    "partName": "MANDIGIRI",
    "lat": 15.54788035,
    "lon": 77.55425904309928
  },
  {
    "partId": 22838,
    "stateCode": "S01",
    "stateName": "Andhra Pradesh",
    "districtCode": "S0119",
    "districtName": "Kurnool",
    "acNumber": 146,
    "acName": "Adoni",
    "partNumber": 84,
    "partName": "MANDIGIRI",
    "lat": 15.54788035,
    "lon": 77.55425904309928
  },
  {
    "partId": 25574,
    "stateCode": "S01",
    "stateName": "Andhra Pradesh",
    "districtCode": "S0119",
    "districtName": "Kurnool",
    "acNumber": 146,
    "acName": "Adoni",
    "partNumber": 85,
    "partName": "SADHAPURAM",
    "lat": 15.54788035,
    "lon": 77.55425904309928
  },
  {
    "partId": 22849,
    "stateCode": "S01",
    "stateName": "Andhra Pradesh",
    "districtCode": "S0119",
    "districtName": "Kurnool",
    "acNumber": 146,
    "acName": "Adoni",
    "partNumber": 86,
    "partName": "SADHAPURAM",
    "lat": 15.54788035,
    "lon": 77.55425904309928
  },
  {
    "partId": 25573,
    "stateCode": "S01",
    "stateName": "Andhra Pradesh",
    "districtCode": "S0119",
    "districtName": "Kurnool",
    "acNumber": 146,
    "acName": "Adoni",
    "partNumber": 87,
    "partName": "GONABHAVI",
    "lat": 15.5891029,
    "lon": 77.3216132
  },
  {
    "partId": 25568,
    "stateCode": "S01",
    "stateName": "Andhra Pradesh",
    "districtCode": "S0119",
    "districtName": "Kurnool",
    "acNumber": 146,
    "acName": "Adoni",
    "partNumber": 88,
    "partName": "HUVVANURU",
    "lat": 15.54788035,
    "lon": 77.55425904309928
  },
  {
    "partId": 22827,
    "stateCode": "S01",
    "stateName": "Andhra Pradesh",
    "districtCode": "S0119",
    "districtName": "Kurnool",
    "acNumber": 146,
    "acName": "Adoni",
    "partNumber": 89,
    "partName": "DIBBANAKALLU",
    "lat": 15.54788035,
    "lon": 77.55425904309928
  },
  {
    "partId": 21443,
    "stateCode": "S01",
    "stateName": "Andhra Pradesh",
    "districtCode": "S0119",
    "districtName": "Kurnool",
    "acNumber": 146,
    "acName": "Adoni",
    "partNumber": 90,
    "partName": "DIBBANAKALLU",
    "lat": 15.54788035,
    "lon": 77.55425904309928
  },
  {
    "partId": 21442,
    "stateCode": "S01",
    "stateName": "Andhra Pradesh",
    "districtCode": "S0119",
    "districtName": "Kurnool",
    "acNumber": 146,
    "acName": "Adoni",
    "partNumber": 91,
    "partName": "SALAKALAKONDA",
    "lat": 15.5882725,
    "lon": 77.3602362
  },
  {
    "partId": 22835,
    "stateCode": "S01",
    "stateName": "Andhra Pradesh",
    "districtCode": "S0119",
    "districtName": "Kurnool",
    "acNumber": 146,
    "acName": "Adoni",
    "partNumber": 92,
    "partName": "BASARAKODU",
    "lat": 15.5890573,
    "lon": 77.371606
  },
  {
    "partId": 22834,
    "stateCode": "S01",
    "stateName": "Andhra Pradesh",
    "districtCode": "S0119",
    "districtName": "Kurnool",
    "acNumber": 146,
    "acName": "Adoni",
    "partNumber": 93,
    "partName": "ALASANDHAGUTTI",
    "lat": 15.54788035,
    "lon": 77.55425904309928
  },
  {
    "partId": 21357,
    "stateCode": "S01",
    "stateName": "Andhra Pradesh",
    "districtCode": "S0119",
    "districtName": "Kurnool",
    "acNumber": 146,
    "acName": "Adoni",
    "partNumber": 94,
    "partName": "ALASANDHAGUTTI",
    "lat": 15.54788035,
    "lon": 77.55425904309928
  },
  {
    "partId": 22833,
    "stateCode": "S01",
    "stateName": "Andhra Pradesh",
    "districtCode": "S0119",
    "districtName": "Kurnool",
    "acNumber": 146,
    "acName": "Adoni",
    "partNumber": 95,
    "partName": "VIRUPAPURAM",
    "lat": 15.4173366,
    "lon": 77.1182969
  },
  {
    "partId": 21356,
    "stateCode": "S01",
    "stateName": "Andhra Pradesh",
    "districtCode": "S0119",
    "districtName": "Kurnool",
    "acNumber": 146,
    "acName": "Adoni",
    "partNumber": 96,
    "partName": "VIRUPAPURAM",
    "lat": 15.4173366,
    "lon": 77.1182969
  },
  {
    "partId": 23112,
    "stateCode": "S01",
    "stateName": "Andhra Pradesh",
    "districtCode": "S0119",
    "districtName": "Kurnool",
    "acNumber": 146,
    "acName": "Adoni",
    "partNumber": 97,
    "partName": "VIRUPAPURAM",
    "lat": 15.4173366,
    "lon": 77.1182969
  },
  {
    "partId": 23111,
    "stateCode": "S01",
    "stateName": "Andhra Pradesh",
    "districtCode": "S0119",
    "districtName": "Kurnool",
    "acNumber": 146,
    "acName": "Adoni",
    "partNumber": 98,
    "partName": "ADONI",
    "lat": 15.6551786,
    "lon": 77.27010061559264
  },
  {
    "partId": 22837,
    "stateCode": "S01",
    "stateName": "Andhra Pradesh",
    "districtCode": "S0119",
    "districtName": "Kurnool",
    "acNumber": 146,
    "acName": "Adoni",
    "partNumber": 99,
    "partName": "ADONI",
    "lat": 15.6551786,
    "lon": 77.27010061559264
  },
  {
    "partId": 23110,
    "stateCode": "S01",
    "stateName": "Andhra Pradesh",
    "districtCode": "S0119",
    "districtName": "Kurnool",
    "acNumber": 146,
    "acName": "Adoni",
    "partNumber": 100,
    "partName": "ADONI",
    "lat": 15.6551786,
    "lon": 77.27010061559264
  },
  {
    "partId": 23109,
    "stateCode": "S01",
    "stateName": "Andhra Pradesh",
    "districtCode": "S0119",
    "districtName": "Kurnool",
    "acNumber": 146,
    "acName": "Adoni",
    "partNumber": 101,
    "partName": "ADONI",
    "lat": 15.6551786,
    "lon": 77.27010061559264
  },
  {
    "partId": 23108,
    "stateCode": "S01",
    "stateName": "Andhra Pradesh",
    "districtCode": "S0119",
    "districtName": "Kurnool",
    "acNumber": 146,
    "acName": "Adoni",
    "partNumber": 102,
    "partName": "ADONI",
    "lat": 15.6551786,
    "lon": 77.27010061559264
  },
  {
    "partId": 21355,
    "stateCode": "S01",
    "stateName": "Andhra Pradesh",
    "districtCode": "S0119",
    "districtName": "Kurnool",
    "acNumber": 146,
    "acName": "Adoni",
    "partNumber": 103,
    "partName": "ADONI",
    "lat": 15.6551786,
    "lon": 77.27010061559264
  },
  {
    "partId": 23107,
    "stateCode": "S01",
    "stateName": "Andhra Pradesh",
    "districtCode": "S0119",
    "districtName": "Kurnool",
    "acNumber": 146,
    "acName": "Adoni",
    "partNumber": 104,
    "partName": "ADONI",
    "lat": 15.6551786,
    "lon": 77.27010061559264
  },
  {
    "partId": 23106,
    "stateCode": "S01",
    "stateName": "Andhra Pradesh",
    "districtCode": "S0119",
    "districtName": "Kurnool",
    "acNumber": 146,
    "acName": "Adoni",
    "partNumber": 105,
    "partName": "ADONI",
    "lat": 15.6551786,
    "lon": 77.27010061559264
  },
  {
    "partId": 23105,
    "stateCode": "S01",
    "stateName": "Andhra Pradesh",
    "districtCode": "S0119",
    "districtName": "Kurnool",
    "acNumber": 146,
    "acName": "Adoni",
    "partNumber": 106,
    "partName": "ADONI",
    "lat": 15.6551786,
    "lon": 77.27010061559264
  },
  {
    "partId": 23104,
    "stateCode": "S01",
    "stateName": "Andhra Pradesh",
    "districtCode": "S0119",
    "districtName": "Kurnool",
    "acNumber": 146,
    "acName": "Adoni",
    "partNumber": 107,
    "partName": "ADONI",
    "lat": 15.6551786,
    "lon": 77.27010061559264
  },
  {
    "partId": 23103,
    "stateCode": "S01",
    "stateName": "Andhra Pradesh",
    "districtCode": "S0119",
    "districtName": "Kurnool",
    "acNumber": 146,
    "acName": "Adoni",
    "partNumber": 108,
    "partName": "ADONI",
    "lat": 15.6551786,
    "lon": 77.27010061559264
  },
  {
    "partId": 23102,
    "stateCode": "S01",
    "stateName": "Andhra Pradesh",
    "districtCode": "S0119",
    "districtName": "Kurnool",
    "acNumber": 146,
    "acName": "Adoni",
    "partNumber": 109,
    "partName": "ADONI",
    "lat": 15.6551786,
    "lon": 77.27010061559264
  },
  {
    "partId": 21403,
    "stateCode": "S01",
    "stateName": "Andhra Pradesh",
    "districtCode": "S0119",
    "districtName": "Kurnool",
    "acNumber": 146,
    "acName": "Adoni",
    "partNumber": 110,
    "partName": "ADONI",
    "lat": 15.6551786,
    "lon": 77.27010061559264
  },
  {
    "partId": 21402,
    "stateCode": "S01",
    "stateName": "Andhra Pradesh",
    "districtCode": "S0119",
    "districtName": "Kurnool",
    "acNumber": 146,
    "acName": "Adoni",
    "partNumber": 111,
    "partName": "ADONI",
    "lat": 15.6551786,
    "lon": 77.27010061559264
  },
  {
    "partId": 21401,
    "stateCode": "S01",
    "stateName": "Andhra Pradesh",
    "districtCode": "S0119",
    "districtName": "Kurnool",
    "acNumber": 146,
    "acName": "Adoni",
    "partNumber": 112,
    "partName": "ADONI",
    "lat": 15.6551786,
    "lon": 77.27010061559264
  },
  {
    "partId": 21400,
    "stateCode": "S01",
    "stateName": "Andhra Pradesh",
    "districtCode": "S0119",
    "districtName": "Kurnool",
    "acNumber": 146,
    "acName": "Adoni",
    "partNumber": 113,
    "partName": "ADONI",
    "lat": 15.6551786,
    "lon": 77.27010061559264
  },
  {
    "partId": 21399,
    "stateCode": "S01",
    "stateName": "Andhra Pradesh",
    "districtCode": "S0119",
    "districtName": "Kurnool",
    "acNumber": 146,
    "acName": "Adoni",
    "partNumber": 114,
    "partName": "ADONI",
    "lat": 15.6551786,
    "lon": 77.27010061559264
  },
  {
    "partId": 21398,
    "stateCode": "S01",
    "stateName": "Andhra Pradesh",
    "districtCode": "S0119",
    "districtName": "Kurnool",
    "acNumber": 146,
    "acName": "Adoni",
    "partNumber": 115,
    "partName": "ADONI",
    "lat": 15.6551786,
    "lon": 77.27010061559264
  },
  {
    "partId": 21397,
    "stateCode": "S01",
    "stateName": "Andhra Pradesh",
    "districtCode": "S0119",
    "districtName": "Kurnool",
    "acNumber": 146,
    "acName": "Adoni",
    "partNumber": 116,
    "partName": "ADONI",
    "lat": 15.6551786,
    "lon": 77.27010061559264
  },
  {
    "partId": 21396,
    "stateCode": "S01",
    "stateName": "Andhra Pradesh",
    "districtCode": "S0119",
    "districtName": "Kurnool",
    "acNumber": 146,
    "acName": "Adoni",
    "partNumber": 117,
    "partName": "ADONI",
    "lat": 15.6551786,
    "lon": 77.27010061559264
  },
  {
    "partId": 21395,
    "stateCode": "S01",
    "stateName": "Andhra Pradesh",
    "districtCode": "S0119",
    "districtName": "Kurnool",
    "acNumber": 146,
    "acName": "Adoni",
    "partNumber": 118,
    "partName": "ADONI",
    "lat": 15.6551786,
    "lon": 77.27010061559264
  },
  {
    "partId": 21354,
    "stateCode": "S01",
    "stateName": "Andhra Pradesh",
    "districtCode": "S0119",
    "districtName": "Kurnool",
    "acNumber": 146,
    "acName": "Adoni",
    "partNumber": 119,
    "partName": "ADONI",
    "lat": 15.6551786,
    "lon": 77.27010061559264
  },
  {
    "partId": 21394,
    "stateCode": "S01",
    "stateName": "Andhra Pradesh",
    "districtCode": "S0119",
    "districtName": "Kurnool",
    "acNumber": 146,
    "acName": "Adoni",
    "partNumber": 120,
    "partName": "ADONI",
    "lat": 15.6551786,
    "lon": 77.27010061559264
  },
  {
    "partId": 21393,
    "stateCode": "S01",
    "stateName": "Andhra Pradesh",
    "districtCode": "S0119",
    "districtName": "Kurnool",
    "acNumber": 146,
    "acName": "Adoni",
    "partNumber": 121,
    "partName": "ADONI",
    "lat": 15.6551786,
    "lon": 77.27010061559264
  },
  {
    "partId": 21392,
    "stateCode": "S01",
    "stateName": "Andhra Pradesh",
    "districtCode": "S0119",
    "districtName": "Kurnool",
    "acNumber": 146,
    "acName": "Adoni",
    "partNumber": 122,
    "partName": "ADONI",
    "lat": 15.6551786,
    "lon": 77.27010061559264
  },
  {
    "partId": 21441,
    "stateCode": "S01",
    "stateName": "Andhra Pradesh",
    "districtCode": "S0119",
    "districtName": "Kurnool",
    "acNumber": 146,
    "acName": "Adoni",
    "partNumber": 123,
    "partName": "ADONI",
    "lat": 15.6551786,
    "lon": 77.27010061559264
  },
  {
    "partId": 21440,
    "stateCode": "S01",
    "stateName": "Andhra Pradesh",
    "districtCode": "S0119",
    "districtName": "Kurnool",
    "acNumber": 146,
    "acName": "Adoni",
    "partNumber": 124,
    "partName": "ADONI",
    "lat": 15.6551786,
    "lon": 77.27010061559264
  },
  {
    "partId": 21439,
    "stateCode": "S01",
    "stateName": "Andhra Pradesh",
    "districtCode": "S0119",
    "districtName": "Kurnool",
    "acNumber": 146,
    "acName": "Adoni",
    "partNumber": 125,
    "partName": "ADONI",
    "lat": 15.6551786,
    "lon": 77.27010061559264
  },
  {
    "partId": 22853,
    "stateCode": "S01",
    "stateName": "Andhra Pradesh",
    "districtCode": "S0119",
    "districtName": "Kurnool",
    "acNumber": 146,
    "acName": "Adoni",
    "partNumber": 126,
    "partName": "ADONI",
    "lat": 15.6551786,
    "lon": 77.27010061559264
  },
  {
    "partId": 21438,
    "stateCode": "S01",
    "stateName": "Andhra Pradesh",
    "districtCode": "S0119",
    "districtName": "Kurnool",
    "acNumber": 146,
    "acName": "Adoni",
    "partNumber": 127,
    "partName": "ADONI",
    "lat": 15.6551786,
    "lon": 77.27010061559264
  },
  {
    "partId": 21437,
    "stateCode": "S01",
    "stateName": "Andhra Pradesh",
    "districtCode": "S0119",
    "districtName": "Kurnool",
    "acNumber": 146,
    "acName": "Adoni",
    "partNumber": 128,
    "partName": "ADONI",
    "lat": 15.6551786,
    "lon": 77.27010061559264
  },
  {
    "partId": 21436,
    "stateCode": "S01",
    "stateName": "Andhra Pradesh",
    "districtCode": "S0119",
    "districtName": "Kurnool",
    "acNumber": 146,
    "acName": "Adoni",
    "partNumber": 129,
    "partName": "ADONI",
    "lat": 15.6551786,
    "lon": 77.27010061559264
  },
  {
    "partId": 21435,
    "stateCode": "S01",
    "stateName": "Andhra Pradesh",
    "districtCode": "S0119",
    "districtName": "Kurnool",
    "acNumber": 146,
    "acName": "Adoni",
    "partNumber": 130,
    "partName": "ADONI",
    "lat": 15.6551786,
    "lon": 77.27010061559264
  },
  {
    "partId": 21434,
    "stateCode": "S01",
    "stateName": "Andhra Pradesh",
    "districtCode": "S0119",
    "districtName": "Kurnool",
    "acNumber": 146,
    "acName": "Adoni",
    "partNumber": 131,
    "partName": "ADONI",
    "lat": 15.6551786,
    "lon": 77.27010061559264
  },
  {
    "partId": 21433,
    "stateCode": "S01",
    "stateName": "Andhra Pradesh",
    "districtCode": "S0119",
    "districtName": "Kurnool",
    "acNumber": 146,
    "acName": "Adoni",
    "partNumber": 132,
    "partName": "ADONI",
    "lat": 15.6551786,
    "lon": 77.27010061559264
  },
  {
    "partId": 21432,
    "stateCode": "S01",
    "stateName": "Andhra Pradesh",
    "districtCode": "S0119",
    "districtName": "Kurnool",
    "acNumber": 146,
    "acName": "Adoni",
    "partNumber": 133,
    "partName": "ADONI",
    "lat": 15.6551786,
    "lon": 77.27010061559264
  },
  {
    "partId": 21431,
    "stateCode": "S01",
    "stateName": "Andhra Pradesh",
    "districtCode": "S0119",
    "districtName": "Kurnool",
    "acNumber": 146,
    "acName": "Adoni",
    "partNumber": 134,
    "partName": "ADONI",
    "lat": 15.6551786,
    "lon": 77.27010061559264
  },
  {
    "partId": 21430,
    "stateCode": "S01",
    "stateName": "Andhra Pradesh",
    "districtCode": "S0119",
    "districtName": "Kurnool",
    "acNumber": 146,
    "acName": "Adoni",
    "partNumber": 135,
    "partName": "ADONI",
    "lat": 15.6551786,
    "lon": 77.27010061559264
  },
  {
    "partId": 21429,
    "stateCode": "S01",
    "stateName": "Andhra Pradesh",
    "districtCode": "S0119",
    "districtName": "Kurnool",
    "acNumber": 146,
    "acName": "Adoni",
    "partNumber": 136,
    "partName": "ADONI",
    "lat": 15.6551786,
    "lon": 77.27010061559264
  },
  {
    "partId": 21428,
    "stateCode": "S01",
    "stateName": "Andhra Pradesh",
    "districtCode": "S0119",
    "districtName": "Kurnool",
    "acNumber": 146,
    "acName": "Adoni",
    "partNumber": 137,
    "partName": "ADONI",
    "lat": 15.6551786,
    "lon": 77.27010061559264
  },
  {
    "partId": 21427,
    "stateCode": "S01",
    "stateName": "Andhra Pradesh",
    "districtCode": "S0119",
    "districtName": "Kurnool",
    "acNumber": 146,
    "acName": "Adoni",
    "partNumber": 138,
    "partName": "ADONI",
    "lat": 15.6551786,
    "lon": 77.27010061559264
  },
  {
    "partId": 22852,
    "stateCode": "S01",
    "stateName": "Andhra Pradesh",
    "districtCode": "S0119",
    "districtName": "Kurnool",
    "acNumber": 146,
    "acName": "Adoni",
    "partNumber": 139,
    "partName": "ADONI",
    "lat": 15.6551786,
    "lon": 77.27010061559264
  },
  {
    "partId": 21426,
    "stateCode": "S01",
    "stateName": "Andhra Pradesh",
    "districtCode": "S0119",
    "districtName": "Kurnool",
    "acNumber": 146,
    "acName": "Adoni",
    "partNumber": 140,
    "partName": "ADONI",
    "lat": 15.6551786,
    "lon": 77.27010061559264
  },
  {
    "partId": 22851,
    "stateCode": "S01",
    "stateName": "Andhra Pradesh",
    "districtCode": "S0119",
    "districtName": "Kurnool",
    "acNumber": 146,
    "acName": "Adoni",
    "partNumber": 141,
    "partName": "ADONI",
    "lat": 15.6551786,
    "lon": 77.27010061559264
  },
  {
    "partId": 21425,
    "stateCode": "S01",
    "stateName": "Andhra Pradesh",
    "districtCode": "S0119",
    "districtName": "Kurnool",
    "acNumber": 146,
    "acName": "Adoni",
    "partNumber": 142,
    "partName": "ADONI",
    "lat": 15.6551786,
    "lon": 77.27010061559264
  },
  {
    "partId": 21424,
    "stateCode": "S01",
    "stateName": "Andhra Pradesh",
    "districtCode": "S0119",
    "districtName": "Kurnool",
    "acNumber": 146,
    "acName": "Adoni",
    "partNumber": 143,
    "partName": "ADONI",
    "lat": 15.6551786,
    "lon": 77.27010061559264
  },
  {
    "partId": 21423,
    "stateCode": "S01",
    "stateName": "Andhra Pradesh",
    "districtCode": "S0119",
    "districtName": "Kurnool",
    "acNumber": 146,
    "acName": "Adoni",
    "partNumber": 144,
    "partName": "ADONI",
    "lat": 15.6551786,
    "lon": 77.27010061559264
  },
  {
    "partId": 21422,
    "stateCode": "S01",
    "stateName": "Andhra Pradesh",
    "districtCode": "S0119",
    "districtName": "Kurnool",
    "acNumber": 146,
    "acName": "Adoni",
    "partNumber": 145,
    "partName": "ADONI",
    "lat": 15.6551786,
    "lon": 77.27010061559264
  },
  {
    "partId": 23093,
    "stateCode": "S01",
    "stateName": "Andhra Pradesh",
    "districtCode": "S0119",
    "districtName": "Kurnool",
    "acNumber": 146,
    "acName": "Adoni",
    "partNumber": 146,
    "partName": "ADONI",
    "lat": 15.6551786,
    "lon": 77.27010061559264
  },
  {
    "partId": 21383,
    "stateCode": "S01",
    "stateName": "Andhra Pradesh",
    "districtCode": "S0119",
    "districtName": "Kurnool",
    "acNumber": 146,
    "acName": "Adoni",
    "partNumber": 147,
    "partName": "ADONI",
    "lat": 15.6551786,
    "lon": 77.27010061559264
  },
  {
    "partId": 21391,
    "stateCode": "S01",
    "stateName": "Andhra Pradesh",
    "districtCode": "S0119",
    "districtName": "Kurnool",
    "acNumber": 146,
    "acName": "Adoni",
    "partNumber": 148,
    "partName": "ADONI",
    "lat": 15.6551786,
    "lon": 77.27010061559264
  },
  {
    "partId": 21390,
    "stateCode": "S01",
    "stateName": "Andhra Pradesh",
    "districtCode": "S0119",
    "districtName": "Kurnool",
    "acNumber": 146,
    "acName": "Adoni",
    "partNumber": 149,
    "partName": "ADONI",
    "lat": 15.6551786,
    "lon": 77.27010061559264
  },
  {
    "partId": 22850,
    "stateCode": "S01",
    "stateName": "Andhra Pradesh",
    "districtCode": "S0119",
    "districtName": "Kurnool",
    "acNumber": 146,
    "acName": "Adoni",
    "partNumber": 150,
    "partName": "ADONI",
    "lat": 15.6551786,
    "lon": 77.27010061559264
  },
  {
    "partId": 21389,
    "stateCode": "S01",
    "stateName": "Andhra Pradesh",
    "districtCode": "S0119",
    "districtName": "Kurnool",
    "acNumber": 146,
    "acName": "Adoni",
    "partNumber": 151,
    "partName": "ADONI",
    "lat": 15.6551786,
    "lon": 77.27010061559264
  },
  {
    "partId": 21388,
    "stateCode": "S01",
    "stateName": "Andhra Pradesh",
    "districtCode": "S0119",
    "districtName": "Kurnool",
    "acNumber": 146,
    "acName": "Adoni",
    "partNumber": 152,
    "partName": "ADONI",
    "lat": 15.6551786,
    "lon": 77.27010061559264
  },
  {
    "partId": 21387,
    "stateCode": "S01",
    "stateName": "Andhra Pradesh",
    "districtCode": "S0119",
    "districtName": "Kurnool",
    "acNumber": 146,
    "acName": "Adoni",
    "partNumber": 153,
    "partName": "ADONI",
    "lat": 15.6551786,
    "lon": 77.27010061559264
  },
  {
    "partId": 21464,
    "stateCode": "S01",
    "stateName": "Andhra Pradesh",
    "districtCode": "S0119",
    "districtName": "Kurnool",
    "acNumber": 146,
    "acName": "Adoni",
    "partNumber": 154,
    "partName": "ADONI",
    "lat": 15.6551786,
    "lon": 77.27010061559264
  },
  {
    "partId": 21463,
    "stateCode": "S01",
    "stateName": "Andhra Pradesh",
    "districtCode": "S0119",
    "districtName": "Kurnool",
    "acNumber": 146,
    "acName": "Adoni",
    "partNumber": 155,
    "partName": "ADONI",
    "lat": 15.6551786,
    "lon": 77.27010061559264
  },
  {
    "partId": 21462,
    "stateCode": "S01",
    "stateName": "Andhra Pradesh",
    "districtCode": "S0119",
    "districtName": "Kurnool",
    "acNumber": 146,
    "acName": "Adoni",
    "partNumber": 156,
    "partName": "ADONI",
    "lat": 15.6551786,
    "lon": 77.27010061559264
  },
  {
    "partId": 21461,
    "stateCode": "S01",
    "stateName": "Andhra Pradesh",
    "districtCode": "S0119",
    "districtName": "Kurnool",
    "acNumber": 146,
    "acName": "Adoni",
    "partNumber": 157,
    "partName": "ADONI",
    "lat": 15.6551786,
    "lon": 77.27010061559264
  },
  {
    "partId": 21460,
    "stateCode": "S01",
    "stateName": "Andhra Pradesh",
    "districtCode": "S0119",
    "districtName": "Kurnool",
    "acNumber": 146,
    "acName": "Adoni",
    "partNumber": 158,
    "partName": "ADONI",
    "lat": 15.6551786,
    "lon": 77.27010061559264
  },
  {
    "partId": 21459,
    "stateCode": "S01",
    "stateName": "Andhra Pradesh",
    "districtCode": "S0119",
    "districtName": "Kurnool",
    "acNumber": 146,
    "acName": "Adoni",
    "partNumber": 159,
    "partName": "ADONI",
    "lat": 15.6551786,
    "lon": 77.27010061559264
  },
  {
    "partId": 21467,
    "stateCode": "S01",
    "stateName": "Andhra Pradesh",
    "districtCode": "S0119",
    "districtName": "Kurnool",
    "acNumber": 146,
    "acName": "Adoni",
    "partNumber": 160,
    "partName": "ADONI",
    "lat": 15.6551786,
    "lon": 77.27010061559264
  },
  {
    "partId": 21458,
    "stateCode": "S01",
    "stateName": "Andhra Pradesh",
    "districtCode": "S0119",
    "districtName": "Kurnool",
    "acNumber": 146,
    "acName": "Adoni",
    "partNumber": 161,
    "partName": "ADONI",
    "lat": 15.6551786,
    "lon": 77.27010061559264
  },
  {
    "partId": 21457,
    "stateCode": "S01",
    "stateName": "Andhra Pradesh",
    "districtCode": "S0119",
    "districtName": "Kurnool",
    "acNumber": 146,
    "acName": "Adoni",
    "partNumber": 162,
    "partName": "ADONI",
    "lat": 15.6551786,
    "lon": 77.27010061559264
  },
  {
    "partId": 21456,
    "stateCode": "S01",
    "stateName": "Andhra Pradesh",
    "districtCode": "S0119",
    "districtName": "Kurnool",
    "acNumber": 146,
    "acName": "Adoni",
    "partNumber": 163,
    "partName": "ADONI",
    "lat": 15.6551786,
    "lon": 77.27010061559264
  },
  {
    "partId": 21455,
    "stateCode": "S01",
    "stateName": "Andhra Pradesh",
    "districtCode": "S0119",
    "districtName": "Kurnool",
    "acNumber": 146,
    "acName": "Adoni",
    "partNumber": 164,
    "partName": "ADONI",
    "lat": 15.6551786,
    "lon": 77.27010061559264
  },
  {
    "partId": 22848,
    "stateCode": "S01",
    "stateName": "Andhra Pradesh",
    "districtCode": "S0119",
    "districtName": "Kurnool",
    "acNumber": 146,
    "acName": "Adoni",
    "partNumber": 165,
    "partName": "ADONI",
    "lat": 15.6551786,
    "lon": 77.27010061559264
  },
  {
    "partId": 21454,
    "stateCode": "S01",
    "stateName": "Andhra Pradesh",
    "districtCode": "S0119",
    "districtName": "Kurnool",
    "acNumber": 146,
    "acName": "Adoni",
    "partNumber": 166,
    "partName": "ADONI",
    "lat": 15.6551786,
    "lon": 77.27010061559264
  },
  {
    "partId": 21466,
    "stateCode": "S01",
    "stateName": "Andhra Pradesh",
    "districtCode": "S0119",
    "districtName": "Kurnool",
    "acNumber": 146,
    "acName": "Adoni",
    "partNumber": 167,
    "partName": "ADONI",
    "lat": 15.6551786,
    "lon": 77.27010061559264
  },
  {
    "partId": 21453,
    "stateCode": "S01",
    "stateName": "Andhra Pradesh",
    "districtCode": "S0119",
    "districtName": "Kurnool",
    "acNumber": 146,
    "acName": "Adoni",
    "partNumber": 168,
    "partName": "ADONI",
    "lat": 15.6551786,
    "lon": 77.27010061559264
  },
  {
    "partId": 21452,
    "stateCode": "S01",
    "stateName": "Andhra Pradesh",
    "districtCode": "S0119",
    "districtName": "Kurnool",
    "acNumber": 146,
    "acName": "Adoni",
    "partNumber": 169,
    "partName": "ADONI",
    "lat": 15.6551786,
    "lon": 77.27010061559264
  },
  {
    "partId": 21451,
    "stateCode": "S01",
    "stateName": "Andhra Pradesh",
    "districtCode": "S0119",
    "districtName": "Kurnool",
    "acNumber": 146,
    "acName": "Adoni",
    "partNumber": 170,
    "partName": "ADONI",
    "lat": 15.6551786,
    "lon": 77.27010061559264
  },
  {
    "partId": 21450,
    "stateCode": "S01",
    "stateName": "Andhra Pradesh",
    "districtCode": "S0119",
    "districtName": "Kurnool",
    "acNumber": 146,
    "acName": "Adoni",
    "partNumber": 171,
    "partName": "ADONI",
    "lat": 15.6551786,
    "lon": 77.27010061559264
  },
  {
    "partId": 21449,
    "stateCode": "S01",
    "stateName": "Andhra Pradesh",
    "districtCode": "S0119",
    "districtName": "Kurnool",
    "acNumber": 146,
    "acName": "Adoni",
    "partNumber": 172,
    "partName": "ADONI",
    "lat": 15.6551786,
    "lon": 77.27010061559264
  },
  {
    "partId": 21465,
    "stateCode": "S01",
    "stateName": "Andhra Pradesh",
    "districtCode": "S0119",
    "districtName": "Kurnool",
    "acNumber": 146,
    "acName": "Adoni",
    "partNumber": 173,
    "partName": "ADONI",
    "lat": 15.6551786,
    "lon": 77.27010061559264
  },
  {
    "partId": 21448,
    "stateCode": "S01",
    "stateName": "Andhra Pradesh",
    "districtCode": "S0119",
    "districtName": "Kurnool",
    "acNumber": 146,
    "acName": "Adoni",
    "partNumber": 174,
    "partName": "ADONI",
    "lat": 15.6551786,
    "lon": 77.27010061559264
  },
  {
    "partId": 21382,
    "stateCode": "S01",
    "stateName": "Andhra Pradesh",
    "districtCode": "S0119",
    "districtName": "Kurnool",
    "acNumber": 146,
    "acName": "Adoni",
    "partNumber": 175,
    "partName": "ADONI",
    "lat": 15.6551786,
    "lon": 77.27010061559264
  },
  {
    "partId": 21381,
    "stateCode": "S01",
    "stateName": "Andhra Pradesh",
    "districtCode": "S0119",
    "districtName": "Kurnool",
    "acNumber": 146,
    "acName": "Adoni",
    "partNumber": 176,
    "partName": "ADONI",
    "lat": 15.6551786,
    "lon": 77.27010061559264
  },
  {
    "partId": 21380,
    "stateCode": "S01",
    "stateName": "Andhra Pradesh",
    "districtCode": "S0119",
    "districtName": "Kurnool",
    "acNumber": 146,
    "acName": "Adoni",
    "partNumber": 177,
    "partName": "ADONI",
    "lat": 15.6551786,
    "lon": 77.27010061559264
  },
  {
    "partId": 23101,
    "stateCode": "S01",
    "stateName": "Andhra Pradesh",
    "districtCode": "S0119",
    "districtName": "Kurnool",
    "acNumber": 146,
    "acName": "Adoni",
    "partNumber": 178,
    "partName": "ADONI",
    "lat": 15.6551786,
    "lon": 77.27010061559264
  },
  {
    "partId": 23100,
    "stateCode": "S01",
    "stateName": "Andhra Pradesh",
    "districtCode": "S0119",
    "districtName": "Kurnool",
    "acNumber": 146,
    "acName": "Adoni",
    "partNumber": 179,
    "partName": "ADONI",
    "lat": 15.6551786,
    "lon": 77.27010061559264
  },
  {
    "partId": 23092,
    "stateCode": "S01",
    "stateName": "Andhra Pradesh",
    "districtCode": "S0119",
    "districtName": "Kurnool",
    "acNumber": 146,
    "acName": "Adoni",
    "partNumber": 180,
    "partName": "ADONI",
    "lat": 15.6551786,
    "lon": 77.27010061559264
  },
  {
    "partId": 23091,
    "stateCode": "S01",
    "stateName": "Andhra Pradesh",
    "districtCode": "S0119",
    "districtName": "Kurnool",
    "acNumber": 146,
    "acName": "Adoni",
    "partNumber": 181,
    "partName": "ADONI",
    "lat": 15.6551786,
    "lon": 77.27010061559264
  },
  {
    "partId": 23090,
    "stateCode": "S01",
    "stateName": "Andhra Pradesh",
    "districtCode": "S0119",
    "districtName": "Kurnool",
    "acNumber": 146,
    "acName": "Adoni",
    "partNumber": 182,
    "partName": "ADONI",
    "lat": 15.6551786,
    "lon": 77.27010061559264
  },
  {
    "partId": 21413,
    "stateCode": "S01",
    "stateName": "Andhra Pradesh",
    "districtCode": "S0119",
    "districtName": "Kurnool",
    "acNumber": 146,
    "acName": "Adoni",
    "partNumber": 183,
    "partName": "ADONI",
    "lat": 15.6551786,
    "lon": 77.27010061559264
  },
  {
    "partId": 21412,
    "stateCode": "S01",
    "stateName": "Andhra Pradesh",
    "districtCode": "S0119",
    "districtName": "Kurnool",
    "acNumber": 146,
    "acName": "Adoni",
    "partNumber": 184,
    "partName": "ADONI",
    "lat": 15.6551786,
    "lon": 77.27010061559264
  },
  {
    "partId": 7961,
    "stateCode": "S01",
    "stateName": "Andhra Pradesh",
    "districtCode": "S0119",
    "districtName": "Kurnool",
    "acNumber": 146,
    "acName": "Adoni",
    "partNumber": 185,
    "partName": "ADONI",
    "lat": 15.6551786,
    "lon": 77.27010061559264
  },
  {
    "partId": 21411,
    "stateCode": "S01",
    "stateName": "Andhra Pradesh",
    "districtCode": "S0119",
    "districtName": "Kurnool",
    "acNumber": 146,
    "acName": "Adoni",
    "partNumber": 186,
    "partName": "ADONI",
    "lat": 15.6551786,
    "lon": 77.27010061559264
  },
  {
    "partId": 21410,
    "stateCode": "S01",
    "stateName": "Andhra Pradesh",
    "districtCode": "S0119",
    "districtName": "Kurnool",
    "acNumber": 146,
    "acName": "Adoni",
    "partNumber": 187,
    "partName": "ADONI",
    "lat": 15.6551786,
    "lon": 77.27010061559264
  },
  {
    "partId": 21409,
    "stateCode": "S01",
    "stateName": "Andhra Pradesh",
    "districtCode": "S0119",
    "districtName": "Kurnool",
    "acNumber": 146,
    "acName": "Adoni",
    "partNumber": 188,
    "partName": "ADONI",
    "lat": 15.6551786,
    "lon": 77.27010061559264
  },
  {
    "partId": 21408,
    "stateCode": "S01",
    "stateName": "Andhra Pradesh",
    "districtCode": "S0119",
    "districtName": "Kurnool",
    "acNumber": 146,
    "acName": "Adoni",
    "partNumber": 189,
    "partName": "ADONI",
    "lat": 15.6551786,
    "lon": 77.27010061559264
  },
  {
    "partId": 21407,
    "stateCode": "S01",
    "stateName": "Andhra Pradesh",
    "districtCode": "S0119",
    "districtName": "Kurnool",
    "acNumber": 146,
    "acName": "Adoni",
    "partNumber": 190,
    "partName": "ADONI",
    "lat": 15.6551786,
    "lon": 77.27010061559264
  },
  {
    "partId": 21406,
    "stateCode": "S01",
    "stateName": "Andhra Pradesh",
    "districtCode": "S0119",
    "districtName": "Kurnool",
    "acNumber": 146,
    "acName": "Adoni",
    "partNumber": 191,
    "partName": "ADONI",
    "lat": 15.6551786,
    "lon": 77.27010061559264
  },
  {
    "partId": 21405,
    "stateCode": "S01",
    "stateName": "Andhra Pradesh",
    "districtCode": "S0119",
    "districtName": "Kurnool",
    "acNumber": 146,
    "acName": "Adoni",
    "partNumber": 192,
    "partName": "ADONI",
    "lat": 15.6551786,
    "lon": 77.27010061559264
  },
  {
    "partId": 21404,
    "stateCode": "S01",
    "stateName": "Andhra Pradesh",
    "districtCode": "S0119",
    "districtName": "Kurnool",
    "acNumber": 146,
    "acName": "Adoni",
    "partNumber": 193,
    "partName": "ADONI",
    "lat": 15.6551786,
    "lon": 77.27010061559264
  },
  {
    "partId": 21379,
    "stateCode": "S01",
    "stateName": "Andhra Pradesh",
    "districtCode": "S0119",
    "districtName": "Kurnool",
    "acNumber": 146,
    "acName": "Adoni",
    "partNumber": 194,
    "partName": "ADONI",
    "lat": 15.6551786,
    "lon": 77.27010061559264
  },
  {
    "partId": 14246,
    "stateCode": "S01",
    "stateName": "Andhra Pradesh",
    "districtCode": "S0119",
    "districtName": "Kurnool",
    "acNumber": 146,
    "acName": "Adoni",
    "partNumber": 195,
    "partName": "ADONI",
    "lat": 15.6551786,
    "lon": 77.27010061559264
  },
  {
    "partId": 14245,
    "stateCode": "S01",
    "stateName": "Andhra Pradesh",
    "districtCode": "S0119",
    "districtName": "Kurnool",
    "acNumber": 146,
    "acName": "Adoni",
    "partNumber": 196,
    "partName": "ADONI",
    "lat": 15.6551786,
    "lon": 77.27010061559264
  },
  {
    "partId": 21384,
    "stateCode": "S01",
    "stateName": "Andhra Pradesh",
    "districtCode": "S0119",
    "districtName": "Kurnool",
    "acNumber": 146,
    "acName": "Adoni",
    "partNumber": 197,
    "partName": "ADONI",
    "lat": 15.6551786,
    "lon": 77.27010061559264
  },
  {
    "partId": 14244,
    "stateCode": "S01",
    "stateName": "Andhra Pradesh",
    "districtCode": "S0119",
    "districtName": "Kurnool",
    "acNumber": 146,
    "acName": "Adoni",
    "partNumber": 198,
    "partName": "ADONI",
    "lat": 15.6551786,
    "lon": 77.27010061559264
  },
  {
    "partId": 14243,
    "stateCode": "S01",
    "stateName": "Andhra Pradesh",
    "districtCode": "S0119",
    "districtName": "Kurnool",
    "acNumber": 146,
    "acName": "Adoni",
    "partNumber": 199,
    "partName": "ADONI",
    "lat": 15.6551786,
    "lon": 77.27010061559264
  },
  {
    "partId": 14242,
    "stateCode": "S01",
    "stateName": "Andhra Pradesh",
    "districtCode": "S0119",
    "districtName": "Kurnool",
    "acNumber": 146,
    "acName": "Adoni",
    "partNumber": 200,
    "partName": "ADONI",
    "lat": 15.6551786,
    "lon": 77.27010061559264
  },
  {
    "partId": 21378,
    "stateCode": "S01",
    "stateName": "Andhra Pradesh",
    "districtCode": "S0119",
    "districtName": "Kurnool",
    "acNumber": 146,
    "acName": "Adoni",
    "partNumber": 201,
    "partName": "ADONI",
    "lat": 15.6551786,
    "lon": 77.27010061559264
  },
  {
    "partId": 21447,
    "stateCode": "S01",
    "stateName": "Andhra Pradesh",
    "districtCode": "S0119",
    "districtName": "Kurnool",
    "acNumber": 146,
    "acName": "Adoni",
    "partNumber": 202,
    "partName": "ADONI",
    "lat": 15.6551786,
    "lon": 77.27010061559264
  },
  {
    "partId": 21446,
    "stateCode": "S01",
    "stateName": "Andhra Pradesh",
    "districtCode": "S0119",
    "districtName": "Kurnool",
    "acNumber": 146,
    "acName": "Adoni",
    "partNumber": 203,
    "partName": "ADONI",
    "lat": 15.6551786,
    "lon": 77.27010061559264
  },
  {
    "partId": 7960,
    "stateCode": "S01",
    "stateName": "Andhra Pradesh",
    "districtCode": "S0119",
    "districtName": "Kurnool",
    "acNumber": 146,
    "acName": "Adoni",
    "partNumber": 204,
    "partName": "ADONI",
    "lat": 15.6551786,
    "lon": 77.27010061559264
  },
  {
    "partId": 21445,
    "stateCode": "S01",
    "stateName": "Andhra Pradesh",
    "districtCode": "S0119",
    "districtName": "Kurnool",
    "acNumber": 146,
    "acName": "Adoni",
    "partNumber": 205,
    "partName": "ADONI",
    "lat": 15.6551786,
    "lon": 77.27010061559264
  },
  {
    "partId": 21444,
    "stateCode": "S01",
    "stateName": "Andhra Pradesh",
    "districtCode": "S0119",
    "districtName": "Kurnool",
    "acNumber": 146,
    "acName": "Adoni",
    "partNumber": 206,
    "partName": "ADONI",
    "lat": 15.6551786,
    "lon": 77.27010061559264
  },
  {
    "partId": 21368,
    "stateCode": "S01",
    "stateName": "Andhra Pradesh",
    "districtCode": "S0119",
    "districtName": "Kurnool",
    "acNumber": 146,
    "acName": "Adoni",
    "partNumber": 207,
    "partName": "ADONI",
    "lat": 15.6551786,
    "lon": 77.27010061559264
  },
  {
    "partId": 21367,
    "stateCode": "S01",
    "stateName": "Andhra Pradesh",
    "districtCode": "S0119",
    "districtName": "Kurnool",
    "acNumber": 146,
    "acName": "Adoni",
    "partNumber": 208,
    "partName": "ADONI",
    "lat": 15.6551786,
    "lon": 77.27010061559264
  },
  {
    "partId": 7959,
    "stateCode": "S01",
    "stateName": "Andhra Pradesh",
    "districtCode": "S0119",
    "districtName": "Kurnool",
    "acNumber": 146,
    "acName": "Adoni",
    "partNumber": 209,
    "partName": "ADONI",
    "lat": 15.6551786,
    "lon": 77.27010061559264
  },
  {
    "partId": 21366,
    "stateCode": "S01",
    "stateName": "Andhra Pradesh",
    "districtCode": "S0119",
    "districtName": "Kurnool",
    "acNumber": 146,
    "acName": "Adoni",
    "partNumber": 210,
    "partName": "ADONI",
    "lat": 15.6551786,
    "lon": 77.27010061559264
  },
  {
    "partId": 21365,
    "stateCode": "S01",
    "stateName": "Andhra Pradesh",
    "districtCode": "S0119",
    "districtName": "Kurnool",
    "acNumber": 146,
    "acName": "Adoni",
    "partNumber": 211,
    "partName": "ADONI",
    "lat": 15.6551786,
    "lon": 77.27010061559264
  },
  {
    "partId": 21364,
    "stateCode": "S01",
    "stateName": "Andhra Pradesh",
    "districtCode": "S0119",
    "districtName": "Kurnool",
    "acNumber": 146,
    "acName": "Adoni",
    "partNumber": 212,
    "partName": "ADONI",
    "lat": 15.6551786,
    "lon": 77.27010061559264
  },
  {
    "partId": 7958,
    "stateCode": "S01",
    "stateName": "Andhra Pradesh",
    "districtCode": "S0119",
    "districtName": "Kurnool",
    "acNumber": 146,
    "acName": "Adoni",
    "partNumber": 213,
    "partName": "ADONI",
    "lat": 15.6551786,
    "lon": 77.27010061559264
  },
  {
    "partId": 21363,
    "stateCode": "S01",
    "stateName": "Andhra Pradesh",
    "districtCode": "S0119",
    "districtName": "Kurnool",
    "acNumber": 146,
    "acName": "Adoni",
    "partNumber": 214,
    "partName": "ADONI",
    "lat": 15.6551786,
    "lon": 77.27010061559264
  },
  {
    "partId": 7965,
    "stateCode": "S01",
    "stateName": "Andhra Pradesh",
    "districtCode": "S0119",
    "districtName": "Kurnool",
    "acNumber": 146,
    "acName": "Adoni",
    "partNumber": 215,
    "partName": "ADONI",
    "lat": 15.6551786,
    "lon": 77.27010061559264
  },
  {
    "partId": 14241,
    "stateCode": "S01",
    "stateName": "Andhra Pradesh",
    "districtCode": "S0119",
    "districtName": "Kurnool",
    "acNumber": 146,
    "acName": "Adoni",
    "partNumber": 216,
    "partName": "ADONI",
    "lat": 15.6551786,
    "lon": 77.27010061559264
  },
  {
    "partId": 14240,
    "stateCode": "S01",
    "stateName": "Andhra Pradesh",
    "districtCode": "S0119",
    "districtName": "Kurnool",
    "acNumber": 146,
    "acName": "Adoni",
    "partNumber": 217,
    "partName": "ADONI",
    "lat": 15.6551786,
    "lon": 77.27010061559264
  },
  {
    "partId": 7957,
    "stateCode": "S01",
    "stateName": "Andhra Pradesh",
    "districtCode": "S0119",
    "districtName": "Kurnool",
    "acNumber": 146,
    "acName": "Adoni",
    "partNumber": 218,
    "partName": "ADONI",
    "lat": 15.6551786,
    "lon": 77.27010061559264
  },
  {
    "partId": 14239,
    "stateCode": "S01",
    "stateName": "Andhra Pradesh",
    "districtCode": "S0119",
    "districtName": "Kurnool",
    "acNumber": 146,
    "acName": "Adoni",
    "partNumber": 219,
    "partName": "ADONI",
    "lat": 15.6551786,
    "lon": 77.27010061559264
  },
  {
    "partId": 9197,
    "stateCode": "S01",
    "stateName": "Andhra Pradesh",
    "districtCode": "S0119",
    "districtName": "Kurnool",
    "acNumber": 146,
    "acName": "Adoni",
    "partNumber": 220,
    "partName": "ADONI",
    "lat": 15.6551786,
    "lon": 77.27010061559264
  },
  {
    "partId": 9196,
    "stateCode": "S01",
    "stateName": "Andhra Pradesh",
    "districtCode": "S0119",
    "districtName": "Kurnool",
    "acNumber": 146,
    "acName": "Adoni",
    "partNumber": 221,
    "partName": "ADONI",
    "lat": 15.6551786,
    "lon": 77.27010061559264
  },
  {
    "partId": 9195,
    "stateCode": "S01",
    "stateName": "Andhra Pradesh",
    "districtCode": "S0119",
    "districtName": "Kurnool",
    "acNumber": 146,
    "acName": "Adoni",
    "partNumber": 222,
    "partName": "ADONI",
    "lat": 15.6551786,
    "lon": 77.27010061559264
  },
  {
    "partId": 9194,
    "stateCode": "S01",
    "stateName": "Andhra Pradesh",
    "districtCode": "S0119",
    "districtName": "Kurnool",
    "acNumber": 146,
    "acName": "Adoni",
    "partNumber": 223,
    "partName": "ADONI",
    "lat": 15.6551786,
    "lon": 77.27010061559264
  },
  {
    "partId": 7956,
    "stateCode": "S01",
    "stateName": "Andhra Pradesh",
    "districtCode": "S0119",
    "districtName": "Kurnool",
    "acNumber": 146,
    "acName": "Adoni",
    "partNumber": 224,
    "partName": "ADONI",
    "lat": 15.6551786,
    "lon": 77.27010061559264
  },
  {
    "partId": 9193,
    "stateCode": "S01",
    "stateName": "Andhra Pradesh",
    "districtCode": "S0119",
    "districtName": "Kurnool",
    "acNumber": 146,
    "acName": "Adoni",
    "partNumber": 225,
    "partName": "ADONI",
    "lat": 15.6551786,
    "lon": 77.27010061559264
  },
  {
    "partId": 9192,
    "stateCode": "S01",
    "stateName": "Andhra Pradesh",
    "districtCode": "S0119",
    "districtName": "Kurnool",
    "acNumber": 146,
    "acName": "Adoni",
    "partNumber": 226,
    "partName": "ADONI",
    "lat": 15.6551786,
    "lon": 77.27010061559264
  },
  {
    "partId": 9191,
    "stateCode": "S01",
    "stateName": "Andhra Pradesh",
    "districtCode": "S0119",
    "districtName": "Kurnool",
    "acNumber": 146,
    "acName": "Adoni",
    "partNumber": 227,
    "partName": "ADONI",
    "lat": 15.6551786,
    "lon": 77.27010061559264
  },
  {
    "partId": 7955,
    "stateCode": "S01",
    "stateName": "Andhra Pradesh",
    "districtCode": "S0119",
    "districtName": "Kurnool",
    "acNumber": 146,
    "acName": "Adoni",
    "partNumber": 228,
    "partName": "ADONI",
    "lat": 15.6551786,
    "lon": 77.27010061559264
  },
  {
    "partId": 21377,
    "stateCode": "S01",
    "stateName": "Andhra Pradesh",
    "districtCode": "S0119",
    "districtName": "Kurnool",
    "acNumber": 146,
    "acName": "Adoni",
    "partNumber": 229,
    "partName": "ADONI",
    "lat": 15.6551786,
    "lon": 77.27010061559264
  },
  {
    "partId": 21376,
    "stateCode": "S01",
    "stateName": "Andhra Pradesh",
    "districtCode": "S0119",
    "districtName": "Kurnool",
    "acNumber": 146,
    "acName": "Adoni",
    "partNumber": 230,
    "partName": "ADONI",
    "lat": 15.6551786,
    "lon": 77.27010061559264
  },
  {
    "partId": 21375,
    "stateCode": "S01",
    "stateName": "Andhra Pradesh",
    "districtCode": "S0119",
    "districtName": "Kurnool",
    "acNumber": 146,
    "acName": "Adoni",
    "partNumber": 231,
    "partName": "ADONI",
    "lat": 15.6551786,
    "lon": 77.27010061559264
  },
  {
    "partId": 21374,
    "stateCode": "S01",
    "stateName": "Andhra Pradesh",
    "districtCode": "S0119",
    "districtName": "Kurnool",
    "acNumber": 146,
    "acName": "Adoni",
    "partNumber": 232,
    "partName": "ADONI",
    "lat": 15.6551786,
    "lon": 77.27010061559264
  },
  {
    "partId": 22821,
    "stateCode": "S01",
    "stateName": "Andhra Pradesh",
    "districtCode": "S0119",
    "districtName": "Kurnool",
    "acNumber": 146,
    "acName": "Adoni",
    "partNumber": 233,
    "partName": "ADONI",
    "lat": 15.6551786,
    "lon": 77.27010061559264
  },
  {
    "partId": 22825,
    "stateCode": "S01",
    "stateName": "Andhra Pradesh",
    "districtCode": "S0119",
    "districtName": "Kurnool",
    "acNumber": 146,
    "acName": "Adoni",
    "partNumber": 234,
    "partName": "ADONI",
    "lat": 15.6551786,
    "lon": 77.27010061559264
  },
  {
    "partId": 7954,
    "stateCode": "S01",
    "stateName": "Andhra Pradesh",
    "districtCode": "S0119",
    "districtName": "Kurnool",
    "acNumber": 146,
    "acName": "Adoni",
    "partNumber": 235,
    "partName": "ADONI",
    "lat": 15.6551786,
    "lon": 77.27010061559264
  },
  {
    "partId": 22823,
    "stateCode": "S01",
    "stateName": "Andhra Pradesh",
    "districtCode": "S0119",
    "districtName": "Kurnool",
    "acNumber": 146,
    "acName": "Adoni",
    "partNumber": 236,
    "partName": "ADONI",
    "lat": 15.6551786,
    "lon": 77.27010061559264
  },
  {
    "partId": 22824,
    "stateCode": "S01",
    "stateName": "Andhra Pradesh",
    "districtCode": "S0119",
    "districtName": "Kurnool",
    "acNumber": 146,
    "acName": "Adoni",
    "partNumber": 237,
    "partName": "ADONI",
    "lat": 15.6551786,
    "lon": 77.27010061559264
  },
  {
    "partId": 22826,
    "stateCode": "S01",
    "stateName": "Andhra Pradesh",
    "districtCode": "S0119",
    "districtName": "Kurnool",
    "acNumber": 146,
    "acName": "Adoni",
    "partNumber": 238,
    "partName": "ADONI",
    "lat": 15.6551786,
    "lon": 77.27010061559264
  },
  {
    "partId": 22822,
    "stateCode": "S01",
    "stateName": "Andhra Pradesh",
    "districtCode": "S0119",
    "districtName": "Kurnool",
    "acNumber": 146,
    "acName": "Adoni",
    "partNumber": 239,
    "partName": "ADONI",
    "lat": 15.6551786,
    "lon": 77.27010061559264
  },
  {
    "partId": 22820,
    "stateCode": "S01",
    "stateName": "Andhra Pradesh",
    "districtCode": "S0119",
    "districtName": "Kurnool",
    "acNumber": 146,
    "acName": "Adoni",
    "partNumber": 240,
    "partName": "ADONI",
    "lat": 15.6551786,
    "lon": 77.27010061559264
  },
  {
    "partId": 7953,
    "stateCode": "S01",
    "stateName": "Andhra Pradesh",
    "districtCode": "S0119",
    "districtName": "Kurnool",
    "acNumber": 146,
    "acName": "Adoni",
    "partNumber": 241,
    "partName": "ADONI",
    "lat": 15.6551786,
    "lon": 77.27010061559264
  },
  {
    "partId": 22819,
    "stateCode": "S01",
    "stateName": "Andhra Pradesh",
    "districtCode": "S0119",
    "districtName": "Kurnool",
    "acNumber": 146,
    "acName": "Adoni",
    "partNumber": 242,
    "partName": "ADONI",
    "lat": 15.6551786,
    "lon": 77.27010061559264
  },
  {
    "partId": 22818,
    "stateCode": "S01",
    "stateName": "Andhra Pradesh",
    "districtCode": "S0119",
    "districtName": "Kurnool",
    "acNumber": 146,
    "acName": "Adoni",
    "partNumber": 243,
    "partName": "ADONI",
    "lat": 15.6551786,
    "lon": 77.27010061559264
  },
  {
    "partId": 22817,
    "stateCode": "S01",
    "stateName": "Andhra Pradesh",
    "districtCode": "S0119",
    "districtName": "Kurnool",
    "acNumber": 146,
    "acName": "Adoni",
    "partNumber": 244,
    "partName": "ADONI",
    "lat": 15.6551786,
    "lon": 77.27010061559264
  },
  {
    "partId": 22816,
    "stateCode": "S01",
    "stateName": "Andhra Pradesh",
    "districtCode": "S0119",
    "districtName": "Kurnool",
    "acNumber": 146,
    "acName": "Adoni",
    "partNumber": 245,
    "partName": "ADONI",
    "lat": 15.6551786,
    "lon": 77.27010061559264
  },
  {
    "partId": 22813,
    "stateCode": "S01",
    "stateName": "Andhra Pradesh",
    "districtCode": "S0119",
    "districtName": "Kurnool",
    "acNumber": 146,
    "acName": "Adoni",
    "partNumber": 246,
    "partName": "ADONI",
    "lat": 15.6551786,
    "lon": 77.27010061559264
  },
  {
    "partId": 22815,
    "stateCode": "S01",
    "stateName": "Andhra Pradesh",
    "districtCode": "S0119",
    "districtName": "Kurnool",
    "acNumber": 146,
    "acName": "Adoni",
    "partNumber": 247,
    "partName": "ADONI",
    "lat": 15.6551786,
    "lon": 77.27010061559264
  },
  {
    "partId": 22814,
    "stateCode": "S01",
    "stateName": "Andhra Pradesh",
    "districtCode": "S0119",
    "districtName": "Kurnool",
    "acNumber": 146,
    "acName": "Adoni",
    "partNumber": 248,
    "partName": "ADONI",
    "lat": 15.6551786,
    "lon": 77.27010061559264
  },
  {
    "partId": 22812,
    "stateCode": "S01",
    "stateName": "Andhra Pradesh",
    "districtCode": "S0119",
    "districtName": "Kurnool",
    "acNumber": 146,
    "acName": "Adoni",
    "partNumber": 249,
    "partName": "ADONI",
    "lat": 15.6551786,
    "lon": 77.27010061559264
  },
  {
    "partId": 22811,
    "stateCode": "S01",
    "stateName": "Andhra Pradesh",
    "districtCode": "S0119",
    "districtName": "Kurnool",
    "acNumber": 146,
    "acName": "Adoni",
    "partNumber": 250,
    "partName": "ADONI",
    "lat": 15.6551786,
    "lon": 77.27010061559264
  },
  {
    "partId": 22810,
    "stateCode": "S01",
    "stateName": "Andhra Pradesh",
    "districtCode": "S0119",
    "districtName": "Kurnool",
    "acNumber": 146,
    "acName": "Adoni",
    "partNumber": 251,
    "partName": "ADONI",
    "lat": 15.6551786,
    "lon": 77.27010061559264
  },
  {
    "partId": 22809,
    "stateCode": "S01",
    "stateName": "Andhra Pradesh",
    "districtCode": "S0119",
    "districtName": "Kurnool",
    "acNumber": 146,
    "acName": "Adoni",
    "partNumber": 252,
    "partName": "ADONI",
    "lat": 15.6551786,
    "lon": 77.27010061559264
  },
  {
    "partId": 21468,
    "stateCode": "S01",
    "stateName": "Andhra Pradesh",
    "districtCode": "S0119",
    "districtName": "Kurnool",
    "acNumber": 146,
    "acName": "Adoni",
    "partNumber": 253,
    "partName": "ADONI",
    "lat": 15.6551786,
    "lon": 77.27010061559264
  },
  {
    "partId": 9190,
    "stateCode": "S01",
    "stateName": "Andhra Pradesh",
    "districtCode": "S0119",
    "districtName": "Kurnool",
    "acNumber": 146,
    "acName": "Adoni",
    "partNumber": 254,
    "partName": "ADONI",
    "lat": 15.6551786,
    "lon": 77.27010061559264
  },
  {
    "partId": 9189,
    "stateCode": "S01",
    "stateName": "Andhra Pradesh",
    "districtCode": "S0119",
    "districtName": "Kurnool",
    "acNumber": 146,
    "acName": "Adoni",
    "partNumber": 255,
    "partName": "ADONI",
    "lat": 15.6551786,
    "lon": 77.27010061559264
  },
  {
    "partId": 9188,
    "stateCode": "S01",
    "stateName": "Andhra Pradesh",
    "districtCode": "S0119",
    "districtName": "Kurnool",
    "acNumber": 146,
    "acName": "Adoni",
    "partNumber": 256,
    "partName": "ADONI",
    "lat": 15.6551786,
    "lon": 77.27010061559264
  },
  {
    "partId": 26487,
    "stateCode": "S01",
    "stateName": "Andhra Pradesh",
    "districtCode": "S0119",
    "districtName": "Kurnool",
    "acNumber": 147,
    "acName": "Alur",
    "partNumber": 1,
    "partName": "GAJJEHALLI",
    "lat": 15.5770578,
    "lon": 77.0537962
  },
  {
    "partId": 26486,
    "stateCode": "S01",
    "stateName": "Andhra Pradesh",
    "districtCode": "S0119",
    "districtName": "Kurnool",
    "acNumber": 147,
    "acName": "Alur",
    "partNumber": 2,
    "partName": "GAJJEHALLI",
    "lat": 15.5770578,
    "lon": 77.0537962
  },
  {
    "partId": 26485,
    "stateCode": "S01",
    "stateName": "Andhra Pradesh",
    "districtCode": "S0119",
    "districtName": "Kurnool",
    "acNumber": 147,
    "acName": "Alur",
    "partNumber": 3,
    "partName": "Gajjehalli",
    "lat": 15.5770578,
    "lon": 77.0537962
  },
  {
    "partId": 26484,
    "stateCode": "S01",
    "stateName": "Andhra Pradesh",
    "districtCode": "S0119",
    "districtName": "Kurnool",
    "acNumber": 147,
    "acName": "Alur",
    "partNumber": 4,
    "partName": "Honnooru Ko ttall",
    "lat": 15.54788035,
    "lon": 77.55425904309928
  },
  {
    "partId": 26483,
    "stateCode": "S01",
    "stateName": "Andhra Pradesh",
    "districtCode": "S0119",
    "districtName": "Kurnool",
    "acNumber": 147,
    "acName": "Alur",
    "partNumber": 5,
    "partName": "Ngarkanvi",
    "lat": 15.54788035,
    "lon": 77.55425904309928
  },
  {
    "partId": 26482,
    "stateCode": "S01",
    "stateName": "Andhra Pradesh",
    "districtCode": "S0119",
    "districtName": "Kurnool",
    "acNumber": 147,
    "acName": "Alur",
    "partNumber": 6,
    "partName": "Marlamdiki",
    "lat": 15.54788035,
    "lon": 77.55425904309928
  },
  {
    "partId": 26481,
    "stateCode": "S01",
    "stateName": "Andhra Pradesh",
    "districtCode": "S0119",
    "districtName": "Kurnool",
    "acNumber": 147,
    "acName": "Alur",
    "partNumber": 7,
    "partName": "Muddatmagi",
    "lat": 15.54788035,
    "lon": 77.55425904309928
  },
  {
    "partId": 26480,
    "stateCode": "S01",
    "stateName": "Andhra Pradesh",
    "districtCode": "S0119",
    "districtName": "Kurnool",
    "acNumber": 147,
    "acName": "Alur",
    "partNumber": 8,
    "partName": "CoGilThota",
    "lat": 15.54788035,
    "lon": 77.55425904309928
  },
  {
    "partId": 26466,
    "stateCode": "S01",
    "stateName": "Andhra Pradesh",
    "districtCode": "S0119",
    "districtName": "Kurnool",
    "acNumber": 147,
    "acName": "Alur",
    "partNumber": 9,
    "partName": "KOGILLATOTA",
    "lat": 15.54788035,
    "lon": 77.55425904309928
  },
  {
    "partId": 26465,
    "stateCode": "S01",
    "stateName": "Andhra Pradesh",
    "districtCode": "S0119",
    "districtName": "Kurnool",
    "acNumber": 147,
    "acName": "Alur",
    "partNumber": 10,
    "partName": "Balluru",
    "lat": 15.4075511,
    "lon": 77.0339972
  },
  {
    "partId": 26464,
    "stateCode": "S01",
    "stateName": "Andhra Pradesh",
    "districtCode": "S0119",
    "districtName": "Kurnool",
    "acNumber": 147,
    "acName": "Alur",
    "partNumber": 11,
    "partName": "Siddapuram",
    "lat": 15.3936202,
    "lon": 77.0508526
  },
  {
    "partId": 26463,
    "stateCode": "S01",
    "stateName": "Andhra Pradesh",
    "districtCode": "S0119",
    "districtName": "Kurnool",
    "acNumber": 147,
    "acName": "Alur",
    "partNumber": 12,
    "partName": "AMRUTHAPURAM",
    "lat": 15.54788035,
    "lon": 77.55425904309928
  },
  {
    "partId": 26462,
    "stateCode": "S01",
    "stateName": "Andhra Pradesh",
    "districtCode": "S0119",
    "districtName": "Kurnool",
    "acNumber": 147,
    "acName": "Alur",
    "partNumber": 13,
    "partName": "GULYAM",
    "lat": 15.3595463,
    "lon": 77.066531
  },
  {
    "partId": 22438,
    "stateCode": "S01",
    "stateName": "Andhra Pradesh",
    "districtCode": "S0119",
    "districtName": "Kurnool",
    "acNumber": 147,
    "acName": "Alur",
    "partNumber": 14,
    "partName": "Gulyam",
    "lat": 15.3595463,
    "lon": 77.066531
  },
  {
    "partId": 26461,
    "stateCode": "S01",
    "stateName": "Andhra Pradesh",
    "districtCode": "S0119",
    "districtName": "Kurnool",
    "acNumber": 147,
    "acName": "Alur",
    "partNumber": 15,
    "partName": "GULYAM",
    "lat": 15.3595463,
    "lon": 77.066531
  },
  {
    "partId": 32356,
    "stateCode": "S01",
    "stateName": "Andhra Pradesh",
    "districtCode": "S0119",
    "districtName": "Kurnool",
    "acNumber": 147,
    "acName": "Alur",
    "partNumber": 16,
    "partName": "Gulyam",
    "lat": 15.3595463,
    "lon": 77.066531
  },
  {
    "partId": 26460,
    "stateCode": "S01",
    "stateName": "Andhra Pradesh",
    "districtCode": "S0119",
    "districtName": "Kurnool",
    "acNumber": 147,
    "acName": "Alur",
    "partNumber": 17,
    "partName": "GULYAM",
    "lat": 15.3595463,
    "lon": 77.066531
  },
  {
    "partId": 32355,
    "stateCode": "S01",
    "stateName": "Andhra Pradesh",
    "districtCode": "S0119",
    "districtName": "Kurnool",
    "acNumber": 147,
    "acName": "Alur",
    "partNumber": 18,
    "partName": "Gulyam",
    "lat": 15.3595463,
    "lon": 77.066531
  },
  {
    "partId": 26459,
    "stateCode": "S01",
    "stateName": "Andhra Pradesh",
    "districtCode": "S0119",
    "districtName": "Kurnool",
    "acNumber": 147,
    "acName": "Alur",
    "partNumber": 19,
    "partName": "GULYAM",
    "lat": 15.3595463,
    "lon": 77.066531
  },
  {
    "partId": 32354,
    "stateCode": "S01",
    "stateName": "Andhra Pradesh",
    "districtCode": "S0119",
    "districtName": "Kurnool",
    "acNumber": 147,
    "acName": "Alur",
    "partNumber": 20,
    "partName": "Gulyam",
    "lat": 15.3595463,
    "lon": 77.066531
  },
  {
    "partId": 26458,
    "stateCode": "S01",
    "stateName": "Andhra Pradesh",
    "districtCode": "S0119",
    "districtName": "Kurnool",
    "acNumber": 147,
    "acName": "Alur",
    "partNumber": 21,
    "partName": "J.Hosalli",
    "lat": 15.6793586,
    "lon": 77.200436
  },
  {
    "partId": 26457,
    "stateCode": "S01",
    "stateName": "Andhra Pradesh",
    "districtCode": "S0119",
    "districtName": "Kurnool",
    "acNumber": 147,
    "acName": "Alur",
    "partNumber": 22,
    "partName": "BAPURAM",
    "lat": 15.7890213,
    "lon": 77.0843489
  },
  {
    "partId": 32332,
    "stateCode": "S01",
    "stateName": "Andhra Pradesh",
    "districtCode": "S0119",
    "districtName": "Kurnool",
    "acNumber": 147,
    "acName": "Alur",
    "partNumber": 23,
    "partName": "BAPURAM",
    "lat": 15.7890213,
    "lon": 77.0843489
  },
  {
    "partId": 26456,
    "stateCode": "S01",
    "stateName": "Andhra Pradesh",
    "districtCode": "S0119",
    "districtName": "Kurnool",
    "acNumber": 147,
    "acName": "Alur",
    "partNumber": 24,
    "partName": "PATCHARAHALLY",
    "lat": 15.54788035,
    "lon": 77.55425904309928
  },
  {
    "partId": 26455,
    "stateCode": "S01",
    "stateName": "Andhra Pradesh",
    "districtCode": "S0119",
    "districtName": "Kurnool",
    "acNumber": 147,
    "acName": "Alur",
    "partNumber": 25,
    "partName": "Netravatti",
    "lat": 15.54788035,
    "lon": 77.55425904309928
  },
  {
    "partId": 32353,
    "stateCode": "S01",
    "stateName": "Andhra Pradesh",
    "districtCode": "S0119",
    "districtName": "Kurnool",
    "acNumber": 147,
    "acName": "Alur",
    "partNumber": 26,
    "partName": "nitravatti",
    "lat": 15.3798776,
    "lon": 77.1243589
  },
  {
    "partId": 26453,
    "stateCode": "S01",
    "stateName": "Andhra Pradesh",
    "districtCode": "S0119",
    "districtName": "Kurnool",
    "acNumber": 147,
    "acName": "Alur",
    "partNumber": 27,
    "partName": "KURLEHALLI",
    "lat": 15.54788035,
    "lon": 77.55425904309928
  },
  {
    "partId": 26452,
    "stateCode": "S01",
    "stateName": "Andhra Pradesh",
    "districtCode": "S0119",
    "districtName": "Kurnool",
    "acNumber": 147,
    "acName": "Alur",
    "partNumber": 28,
    "partName": "Suluvayi",
    "lat": 15.54788035,
    "lon": 77.55425904309928
  },
  {
    "partId": 26451,
    "stateCode": "S01",
    "stateName": "Andhra Pradesh",
    "districtCode": "S0119",
    "districtName": "Kurnool",
    "acNumber": 147,
    "acName": "Alur",
    "partNumber": 29,
    "partName": "Suluvayi",
    "lat": 15.54788035,
    "lon": 77.55425904309928
  },
  {
    "partId": 26450,
    "stateCode": "S01",
    "stateName": "Andhra Pradesh",
    "districtCode": "S0119",
    "districtName": "Kurnool",
    "acNumber": 147,
    "acName": "Alur",
    "partNumber": 30,
    "partName": "Sammatagiri",
    "lat": 15.54788035,
    "lon": 77.55425904309928
  },
  {
    "partId": 8994,
    "stateCode": "S01",
    "stateName": "Andhra Pradesh",
    "districtCode": "S0119",
    "districtName": "Kurnool",
    "acNumber": 147,
    "acName": "Alur",
    "partNumber": 31,
    "partName": "MOOGUMANGUNDI",
    "lat": 15.54788035,
    "lon": 77.55425904309928
  },
  {
    "partId": 8993,
    "stateCode": "S01",
    "stateName": "Andhra Pradesh",
    "districtCode": "S0119",
    "districtName": "Kurnool",
    "acNumber": 147,
    "acName": "Alur",
    "partNumber": 32,
    "partName": "Peddahyata",
    "lat": 15.54788035,
    "lon": 77.55425904309928
  },
  {
    "partId": 8992,
    "stateCode": "S01",
    "stateName": "Andhra Pradesh",
    "districtCode": "S0119",
    "districtName": "Kurnool",
    "acNumber": 147,
    "acName": "Alur",
    "partNumber": 33,
    "partName": "Holgunda",
    "lat": 15.54788035,
    "lon": 77.55425904309928
  },
  {
    "partId": 26479,
    "stateCode": "S01",
    "stateName": "Andhra Pradesh",
    "districtCode": "S0119",
    "districtName": "Kurnool",
    "acNumber": 147,
    "acName": "Alur",
    "partNumber": 34,
    "partName": "Holgunda",
    "lat": 15.54788035,
    "lon": 77.55425904309928
  },
  {
    "partId": 22436,
    "stateCode": "S01",
    "stateName": "Andhra Pradesh",
    "districtCode": "S0119",
    "districtName": "Kurnool",
    "acNumber": 147,
    "acName": "Alur",
    "partNumber": 35,
    "partName": "HOLAGUNDA",
    "lat": 15.5023597,
    "lon": 77.10300309809286
  },
  {
    "partId": 22435,
    "stateCode": "S01",
    "stateName": "Andhra Pradesh",
    "districtCode": "S0119",
    "districtName": "Kurnool",
    "acNumber": 147,
    "acName": "Alur",
    "partNumber": 36,
    "partName": "Holgunda",
    "lat": 15.54788035,
    "lon": 77.55425904309928
  },
  {
    "partId": 22434,
    "stateCode": "S01",
    "stateName": "Andhra Pradesh",
    "districtCode": "S0119",
    "districtName": "Kurnool",
    "acNumber": 147,
    "acName": "Alur",
    "partNumber": 37,
    "partName": "Holgunda",
    "lat": 15.54788035,
    "lon": 77.55425904309928
  },
  {
    "partId": 9015,
    "stateCode": "S01",
    "stateName": "Andhra Pradesh",
    "districtCode": "S0119",
    "districtName": "Kurnool",
    "acNumber": 147,
    "acName": "Alur",
    "partNumber": 38,
    "partName": "HOLAGUNDA",
    "lat": 15.5023597,
    "lon": 77.10300309809286
  },
  {
    "partId": 9013,
    "stateCode": "S01",
    "stateName": "Andhra Pradesh",
    "districtCode": "S0119",
    "districtName": "Kurnool",
    "acNumber": 147,
    "acName": "Alur",
    "partNumber": 39,
    "partName": "Holgunda",
    "lat": 15.54788035,
    "lon": 77.55425904309928
  },
  {
    "partId": 9012,
    "stateCode": "S01",
    "stateName": "Andhra Pradesh",
    "districtCode": "S0119",
    "districtName": "Kurnool",
    "acNumber": 147,
    "acName": "Alur",
    "partNumber": 40,
    "partName": "HOLAGUNDA",
    "lat": 15.5023597,
    "lon": 77.10300309809286
  },
  {
    "partId": 9011,
    "stateCode": "S01",
    "stateName": "Andhra Pradesh",
    "districtCode": "S0119",
    "districtName": "Kurnool",
    "acNumber": 147,
    "acName": "Alur",
    "partNumber": 41,
    "partName": "Holgunda",
    "lat": 15.54788035,
    "lon": 77.55425904309928
  },
  {
    "partId": 32331,
    "stateCode": "S01",
    "stateName": "Andhra Pradesh",
    "districtCode": "S0119",
    "districtName": "Kurnool",
    "acNumber": 147,
    "acName": "Alur",
    "partNumber": 42,
    "partName": "Holgunda",
    "lat": 15.54788035,
    "lon": 77.55425904309928
  },
  {
    "partId": 20643,
    "stateCode": "S01",
    "stateName": "Andhra Pradesh",
    "districtCode": "S0119",
    "districtName": "Kurnool",
    "acNumber": 147,
    "acName": "Alur",
    "partNumber": 43,
    "partName": "Holgunda",
    "lat": 15.54788035,
    "lon": 77.55425904309928
  },
  {
    "partId": 20642,
    "stateCode": "S01",
    "stateName": "Andhra Pradesh",
    "districtCode": "S0119",
    "districtName": "Kurnool",
    "acNumber": 147,
    "acName": "Alur",
    "partNumber": 44,
    "partName": "Holgunda",
    "lat": 15.54788035,
    "lon": 77.55425904309928
  },
  {
    "partId": 20641,
    "stateCode": "S01",
    "stateName": "Andhra Pradesh",
    "districtCode": "S0119",
    "districtName": "Kurnool",
    "acNumber": 147,
    "acName": "Alur",
    "partNumber": 45,
    "partName": "HOLAGUNDA",
    "lat": 15.5023597,
    "lon": 77.10300309809286
  },
  {
    "partId": 32179,
    "stateCode": "S01",
    "stateName": "Andhra Pradesh",
    "districtCode": "S0119",
    "districtName": "Kurnool",
    "acNumber": 147,
    "acName": "Alur",
    "partNumber": 46,
    "partName": "HOLAGUNDA",
    "lat": 15.5023597,
    "lon": 77.10300309809286
  },
  {
    "partId": 20640,
    "stateCode": "S01",
    "stateName": "Andhra Pradesh",
    "districtCode": "S0119",
    "districtName": "Kurnool",
    "acNumber": 147,
    "acName": "Alur",
    "partNumber": 47,
    "partName": "chinna hyata",
    "lat": 15.54788035,
    "lon": 77.55425904309928
  },
  {
    "partId": 20639,
    "stateCode": "S01",
    "stateName": "Andhra Pradesh",
    "districtCode": "S0119",
    "districtName": "Kurnool",
    "acNumber": 147,
    "acName": "Alur",
    "partNumber": 48,
    "partName": "Vandavagili",
    "lat": 15.54788035,
    "lon": 77.55425904309928
  },
  {
    "partId": 20638,
    "stateCode": "S01",
    "stateName": "Andhra Pradesh",
    "districtCode": "S0119",
    "districtName": "Kurnool",
    "acNumber": 147,
    "acName": "Alur",
    "partNumber": 49,
    "partName": "Vandavagili",
    "lat": 15.54788035,
    "lon": 77.55425904309928
  },
  {
    "partId": 22441,
    "stateCode": "S01",
    "stateName": "Andhra Pradesh",
    "districtCode": "S0119",
    "districtName": "Kurnool",
    "acNumber": 147,
    "acName": "Alur",
    "partNumber": 50,
    "partName": "VANDAVAGILI",
    "lat": 15.54788035,
    "lon": 77.55425904309928
  },
  {
    "partId": 20637,
    "stateCode": "S01",
    "stateName": "Andhra Pradesh",
    "districtCode": "S0119",
    "districtName": "Kurnool",
    "acNumber": 147,
    "acName": "Alur",
    "partNumber": 51,
    "partName": "Ingldhal",
    "lat": 15.54788035,
    "lon": 77.55425904309928
  },
  {
    "partId": 32178,
    "stateCode": "S01",
    "stateName": "Andhra Pradesh",
    "districtCode": "S0119",
    "districtName": "Kurnool",
    "acNumber": 147,
    "acName": "Alur",
    "partNumber": 52,
    "partName": "Ingldhal",
    "lat": 15.54788035,
    "lon": 77.55425904309928
  },
  {
    "partId": 20636,
    "stateCode": "S01",
    "stateName": "Andhra Pradesh",
    "districtCode": "S0119",
    "districtName": "Kurnool",
    "acNumber": 147,
    "acName": "Alur",
    "partNumber": 53,
    "partName": "Maddilingadhalli",
    "lat": 15.54788035,
    "lon": 77.55425904309928
  },
  {
    "partId": 20635,
    "stateCode": "S01",
    "stateName": "Andhra Pradesh",
    "districtCode": "S0119",
    "districtName": "Kurnool",
    "acNumber": 147,
    "acName": "Alur",
    "partNumber": 54,
    "partName": "pedda gonehal",
    "lat": 15.5781547,
    "lon": 77.1510314
  },
  {
    "partId": 20634,
    "stateCode": "S01",
    "stateName": "Andhra Pradesh",
    "districtCode": "S0119",
    "districtName": "Kurnool",
    "acNumber": 147,
    "acName": "Alur",
    "partNumber": 55,
    "partName": "HEBBATAM",
    "lat": 15.5501266,
    "lon": 77.1613724
  },
  {
    "partId": 22440,
    "stateCode": "S01",
    "stateName": "Andhra Pradesh",
    "districtCode": "S0119",
    "districtName": "Kurnool",
    "acNumber": 147,
    "acName": "Alur",
    "partNumber": 56,
    "partName": "HEBBATAM",
    "lat": 15.5501266,
    "lon": 77.1613724
  },
  {
    "partId": 20633,
    "stateCode": "S01",
    "stateName": "Andhra Pradesh",
    "districtCode": "S0119",
    "districtName": "Kurnool",
    "acNumber": 147,
    "acName": "Alur",
    "partNumber": 57,
    "partName": "HEBBATAM",
    "lat": 15.5501266,
    "lon": 77.1613724
  },
  {
    "partId": 22439,
    "stateCode": "S01",
    "stateName": "Andhra Pradesh",
    "districtCode": "S0119",
    "districtName": "Kurnool",
    "acNumber": 147,
    "acName": "Alur",
    "partNumber": 58,
    "partName": "HEBBATAM",
    "lat": 15.5501266,
    "lon": 77.1613724
  },
  {
    "partId": 20632,
    "stateCode": "S01",
    "stateName": "Andhra Pradesh",
    "districtCode": "S0119",
    "districtName": "Kurnool",
    "acNumber": 147,
    "acName": "Alur",
    "partNumber": 59,
    "partName": "Lingadhalli",
    "lat": 15.54788035,
    "lon": 77.55425904309928
  },
  {
    "partId": 20631,
    "stateCode": "S01",
    "stateName": "Andhra Pradesh",
    "districtCode": "S0119",
    "districtName": "Kurnool",
    "acNumber": 147,
    "acName": "Alur",
    "partNumber": 60,
    "partName": "LINGADAHALLI",
    "lat": 15.5205635,
    "lon": 77.1432275
  },
  {
    "partId": 20630,
    "stateCode": "S01",
    "stateName": "Andhra Pradesh",
    "districtCode": "S0119",
    "districtName": "Kurnool",
    "acNumber": 147,
    "acName": "Alur",
    "partNumber": 61,
    "partName": "Ellarti",
    "lat": 15.54788035,
    "lon": 77.55425904309928
  },
  {
    "partId": 20629,
    "stateCode": "S01",
    "stateName": "Andhra Pradesh",
    "districtCode": "S0119",
    "districtName": "Kurnool",
    "acNumber": 147,
    "acName": "Alur",
    "partNumber": 62,
    "partName": "Ellarti",
    "lat": 15.54788035,
    "lon": 77.55425904309928
  },
  {
    "partId": 20628,
    "stateCode": "S01",
    "stateName": "Andhra Pradesh",
    "districtCode": "S0119",
    "districtName": "Kurnool",
    "acNumber": 147,
    "acName": "Alur",
    "partNumber": 63,
    "partName": "Nerniki",
    "lat": 15.54788035,
    "lon": 77.55425904309928
  },
  {
    "partId": 20627,
    "stateCode": "S01",
    "stateName": "Andhra Pradesh",
    "districtCode": "S0119",
    "districtName": "Kurnool",
    "acNumber": 147,
    "acName": "Alur",
    "partNumber": 64,
    "partName": "Nerniki",
    "lat": 15.54788035,
    "lon": 77.55425904309928
  },
  {
    "partId": 20626,
    "stateCode": "S01",
    "stateName": "Andhra Pradesh",
    "districtCode": "S0119",
    "districtName": "Kurnool",
    "acNumber": 147,
    "acName": "Alur",
    "partNumber": 65,
    "partName": "Neraniki Tanda",
    "lat": 15.4569364,
    "lon": 77.1767806
  },
  {
    "partId": 26449,
    "stateCode": "S01",
    "stateName": "Andhra Pradesh",
    "districtCode": "S0119",
    "districtName": "Kurnool",
    "acNumber": 147,
    "acName": "Alur",
    "partNumber": 66,
    "partName": "VIRUPAPURAM",
    "lat": 15.4173366,
    "lon": 77.1182969
  },
  {
    "partId": 32177,
    "stateCode": "S01",
    "stateName": "Andhra Pradesh",
    "districtCode": "S0119",
    "districtName": "Kurnool",
    "acNumber": 147,
    "acName": "Alur",
    "partNumber": 67,
    "partName": "VIRUPAPURAM",
    "lat": 15.4173366,
    "lon": 77.1182969
  },
  {
    "partId": 26448,
    "stateCode": "S01",
    "stateName": "Andhra Pradesh",
    "districtCode": "S0119",
    "districtName": "Kurnool",
    "acNumber": 147,
    "acName": "Alur",
    "partNumber": 68,
    "partName": "bolagotta",
    "lat": 15.54788035,
    "lon": 77.55425904309928
  },
  {
    "partId": 26447,
    "stateCode": "S01",
    "stateName": "Andhra Pradesh",
    "districtCode": "S0119",
    "districtName": "Kurnool",
    "acNumber": 147,
    "acName": "Alur",
    "partNumber": 69,
    "partName": "bilehalu",
    "lat": 15.54788035,
    "lon": 77.55425904309928
  },
  {
    "partId": 32352,
    "stateCode": "S01",
    "stateName": "Andhra Pradesh",
    "districtCode": "S0119",
    "districtName": "Kurnool",
    "acNumber": 147,
    "acName": "Alur",
    "partNumber": 70,
    "partName": "BILEHAL",
    "lat": 15.3871114,
    "lon": 77.1602086
  },
  {
    "partId": 20688,
    "stateCode": "S01",
    "stateName": "Andhra Pradesh",
    "districtCode": "S0119",
    "districtName": "Kurnool",
    "acNumber": 147,
    "acName": "Alur",
    "partNumber": 71,
    "partName": "Halharvi",
    "lat": 15.54788035,
    "lon": 77.55425904309928
  },
  {
    "partId": 32347,
    "stateCode": "S01",
    "stateName": "Andhra Pradesh",
    "districtCode": "S0119",
    "districtName": "Kurnool",
    "acNumber": 147,
    "acName": "Alur",
    "partNumber": 72,
    "partName": "HALAHARVI",
    "lat": 15.28303895,
    "lon": 77.18217983912359
  },
  {
    "partId": 20687,
    "stateCode": "S01",
    "stateName": "Andhra Pradesh",
    "districtCode": "S0119",
    "districtName": "Kurnool",
    "acNumber": 147,
    "acName": "Alur",
    "partNumber": 73,
    "partName": "Halharvi",
    "lat": 15.54788035,
    "lon": 77.55425904309928
  },
  {
    "partId": 27800,
    "stateCode": "S01",
    "stateName": "Andhra Pradesh",
    "districtCode": "S0119",
    "districtName": "Kurnool",
    "acNumber": 147,
    "acName": "Alur",
    "partNumber": 74,
    "partName": "Halharvi",
    "lat": 15.54788035,
    "lon": 77.55425904309928
  },
  {
    "partId": 20686,
    "stateCode": "S01",
    "stateName": "Andhra Pradesh",
    "districtCode": "S0119",
    "districtName": "Kurnool",
    "acNumber": 147,
    "acName": "Alur",
    "partNumber": 75,
    "partName": "Machnooru",
    "lat": 15.54788035,
    "lon": 77.55425904309928
  },
  {
    "partId": 20685,
    "stateCode": "S01",
    "stateName": "Andhra Pradesh",
    "districtCode": "S0119",
    "districtName": "Kurnool",
    "acNumber": 147,
    "acName": "Alur",
    "partNumber": 76,
    "partName": "HARDAGERI",
    "lat": 15.54788035,
    "lon": 77.55425904309928
  },
  {
    "partId": 32351,
    "stateCode": "S01",
    "stateName": "Andhra Pradesh",
    "districtCode": "S0119",
    "districtName": "Kurnool",
    "acNumber": 147,
    "acName": "Alur",
    "partNumber": 77,
    "partName": "HARDAGERI",
    "lat": 15.54788035,
    "lon": 77.55425904309928
  },
  {
    "partId": 20684,
    "stateCode": "S01",
    "stateName": "Andhra Pradesh",
    "districtCode": "S0119",
    "districtName": "Kurnool",
    "acNumber": 147,
    "acName": "Alur",
    "partNumber": 78,
    "partName": "Medehal",
    "lat": 15.2787052,
    "lon": 77.169931
  },
  {
    "partId": 20683,
    "stateCode": "S01",
    "stateName": "Andhra Pradesh",
    "districtCode": "S0119",
    "districtName": "Kurnool",
    "acNumber": 147,
    "acName": "Alur",
    "partNumber": 79,
    "partName": "Kaminhal",
    "lat": 15.54788035,
    "lon": 77.55425904309928
  },
  {
    "partId": 27799,
    "stateCode": "S01",
    "stateName": "Andhra Pradesh",
    "districtCode": "S0119",
    "districtName": "Kurnool",
    "acNumber": 147,
    "acName": "Alur",
    "partNumber": 80,
    "partName": "Kaminhal",
    "lat": 15.54788035,
    "lon": 77.55425904309928
  },
  {
    "partId": 20682,
    "stateCode": "S01",
    "stateName": "Andhra Pradesh",
    "districtCode": "S0119",
    "districtName": "Kurnool",
    "acNumber": 147,
    "acName": "Alur",
    "partNumber": 81,
    "partName": "Chintakunta",
    "lat": 15.8486482,
    "lon": 77.2816445
  },
  {
    "partId": 32350,
    "stateCode": "S01",
    "stateName": "Andhra Pradesh",
    "districtCode": "S0119",
    "districtName": "Kurnool",
    "acNumber": 147,
    "acName": "Alur",
    "partNumber": 82,
    "partName": "CHINTHAKUNTA",
    "lat": 15.2391896,
    "lon": 77.1563638
  },
  {
    "partId": 20681,
    "stateCode": "S01",
    "stateName": "Andhra Pradesh",
    "districtCode": "S0119",
    "districtName": "Kurnool",
    "acNumber": 147,
    "acName": "Alur",
    "partNumber": 83,
    "partName": "Chintakunta",
    "lat": 15.8486482,
    "lon": 77.2816445
  },
  {
    "partId": 20680,
    "stateCode": "S01",
    "stateName": "Andhra Pradesh",
    "districtCode": "S0119",
    "districtName": "Kurnool",
    "acNumber": 147,
    "acName": "Alur",
    "partNumber": 84,
    "partName": "Chintakunta",
    "lat": 15.8486482,
    "lon": 77.2816445
  },
  {
    "partId": 20679,
    "stateCode": "S01",
    "stateName": "Andhra Pradesh",
    "districtCode": "S0119",
    "districtName": "Kurnool",
    "acNumber": 147,
    "acName": "Alur",
    "partNumber": 85,
    "partName": "Mallikarjunhalli",
    "lat": 15.54788035,
    "lon": 77.55425904309928
  },