[
  {
    "partId": 33155,
    "stateCode": "S01",
    "stateName": "Andhra Pradesh",
    "districtCode": "S0101",
    "districtName": "Srikakulam",
    "acNumber": 6,
    "acName": "Amadalavalasa",
    "partNumber": 1,
    "partName": "GARIMELLAKOTTAVALASA",
    "lat": 18.3999053,
    "lon": 83.86063712402112
  },
  {
    "partId": 1830,
    "stateCode": "S01",
    "stateName": "Andhra Pradesh",
    "districtCode": "S0101",
    "districtName": "Srikakulam",
    "acNumber": 6,
    "acName": "Amadalavalasa",
    "partNumber": 2,
    "partName": "NELLIPARTI",
    "lat": 18.4546465,
    "lon": 83.8345461
  },
  {
    "partId": 33171,
    "stateCode": "S01",
    "stateName": "Andhra Pradesh",
    "districtCode": "S0101",
    "districtName": "Srikakulam",
    "acNumber": 6,
    "acName": "Amadalavalasa",
    "partNumber": 3,
    "partName": "Srisimpeta H/o Nelliparthi",
    "lat": 18.3999053,
    "lon": 83.86063712402112
  },
  {
    "partId": 36461,
    "stateCode": "S01",
    "stateName": "Andhra Pradesh",
    "districtCode": "S0101",
    "districtName": "Srikakulam",
    "acNumber": 6,
    "acName": "Amadalavalasa",
    "partNumber": 4,
    "partName": "RAMACHANDRAPURAM",
    "lat": 18.7649046,
    "lon": 84.4387744
  },
  {
    "partId": 33201,
    "stateCode": "S01",
    "stateName": "Andhra Pradesh",
    "districtCode": "S0101",
    "districtName": "Srikakulam",
    "acNumber": 6,
    "acName": "Amadalavalasa",
    "partNumber": 5,
    "partName": "PONNAMPETA",
    "lat": 18.3999053,
    "lon": 83.86063712402112
  },
  {
    "partId": 33200,
    "stateCode": "S01",
    "stateName": "Andhra Pradesh",
    "districtCode": "S0101",
    "districtName": "Srikakulam",
    "acNumber": 6,
    "acName": "Amadalavalasa",
    "partNumber": 6,
    "partName": "CHITTIVALASA",
    "lat": 18.4430634,
    "lon": 84.1201161
  },
  {
    "partId": 2579,
    "stateCode": "S01",
    "stateName": "Andhra Pradesh",
    "districtCode": "S0101",
    "districtName": "Srikakulam",
    "acNumber": 6,
    "acName": "Amadalavalasa",
    "partNumber": 7,
    "partName": "Kummaripeta H/o Sailada",
    "lat": 18.3999053,
    "lon": 83.86063712402112
  },
  {
    "partId": 33199,
    "stateCode": "S01",
    "stateName": "Andhra Pradesh",
    "districtCode": "S0101",
    "districtName": "Srikakulam",
    "acNumber": 6,
    "acName": "Amadalavalasa",
    "partNumber": 8,
    "partName": "PEDDAJONNAVALASA",
    "lat": 18.3999053,
    "lon": 83.86063712402112
  },
  {
    "partId": 2578,
    "stateCode": "S01",
    "stateName": "Andhra Pradesh",
    "districtCode": "S0101",
    "districtName": "Srikakulam",
    "acNumber": 6,
    "acName": "Amadalavalasa",
    "partNumber": 9,
    "partName": "Kollivalasa",
    "lat": 18.3679464,
    "lon": 84.0669965
  },
  {
    "partId": 33170,
    "stateCode": "S01",
    "stateName": "Andhra Pradesh",
    "districtCode": "S0101",
    "districtName": "Srikakulam",
    "acNumber": 6,
    "acName": "Amadalavalasa",
    "partNumber": 10,
    "partName": "Kollivalasa R&R",
    "lat": 18.3999053,
    "lon": 83.86063712402112
  },
  {
    "partId": 2576,
    "stateCode": "S01",
    "stateName": "Andhra Pradesh",
    "districtCode": "S0101",
    "districtName": "Srikakulam",
    "acNumber": 6,
    "acName": "Amadalavalasa",
    "partNumber": 11,
    "partName": "DANNANAPETA",
    "lat": 18.3999053,
    "lon": 83.86063712402112
  },
  {
    "partId": 33198,
    "stateCode": "S01",
    "stateName": "Andhra Pradesh",
    "districtCode": "S0101",
    "districtName": "Srikakulam",
    "acNumber": 6,
    "acName": "Amadalavalasa",
    "partNumber": 12,
    "partName": "MUNAGAVALASA",
    "lat": 18.4651497,
    "lon": 83.9090786
  },
  {
    "partId": 2575,
    "stateCode": "S01",
    "stateName": "Andhra Pradesh",
    "districtCode": "S0101",
    "districtName": "Srikakulam",
    "acNumber": 6,
    "acName": "Amadalavalasa",
    "partNumber": 13,
    "partName": "TALLAVALASA",
    "lat": 18.4449283,
    "lon": 83.8860126
  },
  {
    "partId": 1862,
    "stateCode": "S01",
    "stateName": "Andhra Pradesh",
    "districtCode": "S0101",
    "districtName": "Srikakulam",
    "acNumber": 6,
    "acName": "Amadalavalasa",
    "partNumber": 14,
    "partName": "CHINNAJONNAVALASA",
    "lat": 18.3999053,
    "lon": 83.86063712402112
  },
  {
    "partId": 19611,
    "stateCode": "S01",
    "stateName": "Andhra Pradesh",
    "districtCode": "S0101",
    "districtName": "Srikakulam",
    "acNumber": 6,
    "acName": "Amadalavalasa",
    "partNumber": 15,
    "partName": "Akkulapeta",
    "lat": 18.4498663,
    "lon": 83.8733796
  },
  {
    "partId": 1847,
    "stateCode": "S01",
    "stateName": "Andhra Pradesh",
    "districtCode": "S0101",
    "districtName": "Srikakulam",
    "acNumber": 6,
    "acName": "Amadalavalasa",
    "partNumber": 16,
    "partName": "MANDADHI",
    "lat": 18.3999053,
    "lon": 83.86063712402112
  },
  {
    "partId": 1839,
    "stateCode": "S01",
    "stateName": "Andhra Pradesh",
    "districtCode": "S0101",
    "districtName": "Srikakulam",
    "acNumber": 6,
    "acName": "Amadalavalasa",
    "partNumber": 17,
    "partName": "SREENIVASACHARYULA PET",
    "lat": 18.3999053,
    "lon": 83.86063712402112
  },
  {
    "partId": 33164,
    "stateCode": "S01",
    "stateName": "Andhra Pradesh",
    "districtCode": "S0101",
    "districtName": "Srikakulam",
    "acNumber": 6,
    "acName": "Amadalavalasa",
    "partNumber": 18,
    "partName": "Srinivasacharyulapeta",
    "lat": 18.3999053,
    "lon": 83.86063712402112
  },
  {
    "partId": 19610,
    "stateCode": "S01",
    "stateName": "Andhra Pradesh",
    "districtCode": "S0101",
    "districtName": "Srikakulam",
    "acNumber": 6,
    "acName": "Amadalavalasa",
    "partNumber": 19,
    "partName": "CHINTALAPETA",
    "lat": 18.4529376,
    "lon": 83.8569458
  },
  {
    "partId": 1838,
    "stateCode": "S01",
    "stateName": "Andhra Pradesh",
    "districtCode": "S0101",
    "districtName": "Srikakulam",
    "acNumber": 6,
    "acName": "Amadalavalasa",
    "partNumber": 20,
    "partName": "DANDEM VALASA",
    "lat": 18.3999053,
    "lon": 83.86063712402112
  },
  {
    "partId": 19609,
    "stateCode": "S01",
    "stateName": "Andhra Pradesh",
    "districtCode": "S0101",
    "districtName": "Srikakulam",
    "acNumber": 6,
    "acName": "Amadalavalasa",
    "partNumber": 21,
    "partName": "VEDULLAVALASA",
    "lat": 18.4350822,
    "lon": 83.8535796
  },
  {
    "partId": 1812,
    "stateCode": "S01",
    "stateName": "Andhra Pradesh",
    "districtCode": "S0101",
    "districtName": "Srikakulam",
    "acNumber": 6,
    "acName": "Amadalavalasa",
    "partNumber": 22,
    "partName": "TURAKAPETA",
    "lat": 18.3886299,
    "lon": 83.916341
  },
  {
    "partId": 19608,
    "stateCode": "S01",
    "stateName": "Andhra Pradesh",
    "districtCode": "S0101",
    "districtName": "Srikakulam",
    "acNumber": 6,
    "acName": "Amadalavalasa",
    "partNumber": 23,
    "partName": "MARRIKOTTAVALASA",
    "lat": 18.3999053,
    "lon": 83.86063712402112
  },
  {
    "partId": 19607,
    "stateCode": "S01",
    "stateName": "Andhra Pradesh",
    "districtCode": "S0101",
    "districtName": "Srikakulam",
    "acNumber": 6,
    "acName": "Amadalavalasa",
    "partNumber": 24,
    "partName": "korapaam",
    "lat": 18.3999053,
    "lon": 83.86063712402112
  },
  {
    "partId": 19606,
    "stateCode": "S01",
    "stateName": "Andhra Pradesh",
    "districtCode": "S0101",
    "districtName": "Srikakulam",
    "acNumber": 6,
    "acName": "Amadalavalasa",
    "partNumber": 25,
    "partName": "NIMMATHORLAVADA",
    "lat": 18.4324375,
    "lon": 83.8258886
  },
  {
    "partId": 19605,
    "stateCode": "S01",
    "stateName": "Andhra Pradesh",
    "districtCode": "S0101",
    "districtName": "Srikakulam",
    "acNumber": 6,
    "acName": "Amadalavalasa",
    "partNumber": 26,
    "partName": "KATYACHARYULAPETA",
    "lat": 18.3999053,
    "lon": 83.86063712402112
  },
  {
    "partId": 33197,
    "stateCode": "S01",
    "stateName": "Andhra Pradesh",
    "districtCode": "S0101",
    "districtName": "Srikakulam",
    "acNumber": 6,
    "acName": "Amadalavalasa",
    "partNumber": 27,
    "partName": "HANUMANTHAPURAM",
    "lat": 18.4583405,
    "lon": 84.2042472
  },
  {
    "partId": 19604,
    "stateCode": "S01",
    "stateName": "Andhra Pradesh",
    "districtCode": "S0101",
    "districtName": "Srikakulam",
    "acNumber": 6,
    "acName": "Amadalavalasa",
    "partNumber": 28,
    "partName": "BOBBILI PETA",
    "lat": 18.3999053,
    "lon": 83.86063712402112
  },
  {
    "partId": 19603,
    "stateCode": "S01",
    "stateName": "Andhra Pradesh",
    "districtCode": "S0101",
    "districtName": "Srikakulam",
    "acNumber": 6,
    "acName": "Amadalavalasa",
    "partNumber": 29,
    "partName": "TIMMAPURAM",
    "lat": 18.4341041,
    "lon": 83.8839239
  },
  {
    "partId": 33196,
    "stateCode": "S01",
    "stateName": "Andhra Pradesh",
    "districtCode": "S0101",
    "districtName": "Srikakulam",
    "acNumber": 6,
    "acName": "Amadalavalasa",
    "partNumber": 30,
    "partName": "JAGGUSASTRULUPETA",
    "lat": 18.3999053,
    "lon": 83.86063712402112
  },
  {
    "partId": 33288,
    "stateCode": "S01",
    "stateName": "Andhra Pradesh",
    "districtCode": "S0101",
    "districtName": "Srikakulam",
    "acNumber": 6,
    "acName": "Amadalavalasa",
    "partNumber": 31,
    "partName": "PARVATEESWARUNIPETA",
    "lat": 18.3999053,
    "lon": 83.86063712402112
  },
  {
    "partId": 19602,
    "stateCode": "S01",
    "stateName": "Andhra Pradesh",
    "districtCode": "S0101",
    "districtName": "Srikakulam",
    "acNumber": 6,
    "acName": "Amadalavalasa",
    "partNumber": 32,
    "partName": "AMADALAVALASA",
    "lat": 18.3999053,
    "lon": 83.86063712402112
  },
  {
    "partId": 28936,
    "stateCode": "S01",
    "stateName": "Andhra Pradesh",
    "districtCode": "S0101",
    "districtName": "Srikakulam",
    "acNumber": 6,
    "acName": "Amadalavalasa",
    "partNumber": 33,
    "partName": "AMADALAVALASA",
    "lat": 18.3999053,
    "lon": 83.86063712402112
  },
  {
    "partId": 28935,
    "stateCode": "S01",
    "stateName": "Andhra Pradesh",
    "districtCode": "S0101",
    "districtName": "Srikakulam",
    "acNumber": 6,
    "acName": "Amadalavalasa",
    "partNumber": 34,
    "partName": "AMADALAVALASA",
    "lat": 18.3999053,
    "lon": 83.86063712402112
  },
  {
    "partId": 28934,
    "stateCode": "S01",
    "stateName": "Andhra Pradesh",
    "districtCode": "S0101",
    "districtName": "Srikakulam",
    "acNumber": 6,
    "acName": "Amadalavalasa",
    "partNumber": 35,
    "partName": "AMADALAVALASA",
    "lat": 18.3999053,
    "lon": 83.86063712402112
  },
  {
    "partId": 28933,
    "stateCode": "S01",
    "stateName": "Andhra Pradesh",
    "districtCode": "S0101",
    "districtName": "Srikakulam",
    "acNumber": 6,
    "acName": "Amadalavalasa",
    "partNumber": 36,
    "partName": "KRISHNAPURAM",
    "lat": 18.3352908,
    "lon": 83.9761644
  },
  {
    "partId": 28932,
    "stateCode": "S01",
    "stateName": "Andhra Pradesh",
    "districtCode": "S0101",
    "districtName": "Srikakulam",
    "acNumber": 6,
    "acName": "Amadalavalasa",
    "partNumber": 37,
    "partName": "LAXMI NAGAR",
    "lat": 18.3999053,
    "lon": 83.86063712402112
  },
  {
    "partId": 28931,
    "stateCode": "S01",
    "stateName": "Andhra Pradesh",
    "districtCode": "S0101",
    "districtName": "Srikakulam",
    "acNumber": 6,
    "acName": "Amadalavalasa",
    "partNumber": 38,
    "partName": "LAXMI NAGAR",
    "lat": 18.3999053,
    "lon": 83.86063712402112
  },
  {
    "partId": 28930,
    "stateCode": "S01",
    "stateName": "Andhra Pradesh",
    "districtCode": "S0101",
    "districtName": "Srikakulam",
    "acNumber": 6,
    "acName": "Amadalavalasa",
    "partNumber": 39,
    "partName": "AMADALAVALASA",
    "lat": 18.3999053,
    "lon": 83.86063712402112
  },
  {
    "partId": 28929,
    "stateCode": "S01",
    "stateName": "Andhra Pradesh",
    "districtCode": "S0101",
    "districtName": "Srikakulam",
    "acNumber": 6,
    "acName": "Amadalavalasa",
    "partNumber": 40,
    "partName": "AMADALAVALASA",
    "lat": 18.3999053,
    "lon": 83.86063712402112
  },
  {
    "partId": 28928,
    "stateCode": "S01",
    "stateName": "Andhra Pradesh",
    "districtCode": "S0101",
    "districtName": "Srikakulam",
    "acNumber": 6,
    "acName": "Amadalavalasa",
    "partNumber": 41,
    "partName": "Amadalavalasa",
    "lat": 18.3999053,
    "lon": 83.86063712402112
  },
  {
    "partId": 33173,
    "stateCode": "S01",
    "stateName": "Andhra Pradesh",
    "districtCode": "S0101",
    "districtName": "Srikakulam",
    "acNumber": 6,
    "acName": "Amadalavalasa",
    "partNumber": 42,
    "partName": "Amadalavalasa",
    "lat": 18.3999053,
    "lon": 83.86063712402112
  },
  {
    "partId": 28927,
    "stateCode": "S01",
    "stateName": "Andhra Pradesh",
    "districtCode": "S0101",
    "districtName": "Srikakulam",
    "acNumber": 6,
    "acName": "Amadalavalasa",
    "partNumber": 43,
    "partName": "Boddepallipeta",
    "lat": 18.3999053,
    "lon": 83.86063712402112
  },
  {
    "partId": 33163,
    "stateCode": "S01",
    "stateName": "Andhra Pradesh",
    "districtCode": "S0101",
    "districtName": "Srikakulam",
    "acNumber": 6,
    "acName": "Amadalavalasa",
    "partNumber": 44,
    "partName": "Poojaripeta",
    "lat": 18.3999053,
    "lon": 83.86063712402112
  },
  {
    "partId": 36467,
    "stateCode": "S01",
    "stateName": "Andhra Pradesh",
    "districtCode": "S0101",
    "districtName": "Srikakulam",
    "acNumber": 6,
    "acName": "Amadalavalasa",
    "partNumber": 45,
    "partName": "mettakkivalasa",
    "lat": 18.4114442,
    "lon": 83.9031646
  },
  {
    "partId": 33162,
    "stateCode": "S01",
    "stateName": "Andhra Pradesh",
    "districtCode": "S0101",
    "districtName": "Srikakulam",
    "acNumber": 6,
    "acName": "Amadalavalasa",
    "partNumber": 46,
    "partName": "Mettakkivalasa",
    "lat": 18.4114442,
    "lon": 83.9031646
  },
  {
    "partId": 36466,
    "stateCode": "S01",
    "stateName": "Andhra Pradesh",
    "districtCode": "S0101",
    "districtName": "Srikakulam",
    "acNumber": 6,
    "acName": "Amadalavalasa",
    "partNumber": 47,
    "partName": "mettakkivalasa",
    "lat": 18.4114442,
    "lon": 83.9031646
  },
  {
    "partId": 33215,
    "stateCode": "S01",
    "stateName": "Andhra Pradesh",
    "districtCode": "S0101",
    "districtName": "Srikakulam",
    "acNumber": 6,
    "acName": "Amadalavalasa",
    "partNumber": 48,
    "partName": "KASIMIVALASA PETA",
    "lat": 18.3999053,
    "lon": 83.86063712402112
  },
  {
    "partId": 2580,
    "stateCode": "S01",
    "stateName": "Andhra Pradesh",
    "districtCode": "S0101",
    "districtName": "Srikakulam",
    "acNumber": 6,
    "acName": "Amadalavalasa",
    "partNumber": 49,
    "partName": "Hudco Colony, Mettakkivalasa",
    "lat": 18.3999053,
    "lon": 83.86063712402112
  },
  {
    "partId": 33161,
    "stateCode": "S01",
    "stateName": "Andhra Pradesh",
    "districtCode": "S0101",
    "districtName": "Srikakulam",
    "acNumber": 6,
    "acName": "Amadalavalasa",
    "partNumber": 50,
    "partName": "Hudco Colony, Mettakkivalasa",
    "lat": 18.3999053,
    "lon": 83.86063712402112
  },
  {
    "partId": 28924,
    "stateCode": "S01",
    "stateName": "Andhra Pradesh",
    "districtCode": "S0101",
    "districtName": "Srikakulam",
    "acNumber": 6,
    "acName": "Amadalavalasa",
    "partNumber": 51,
    "partName": "AKKI VALASA",
    "lat": 18.3999053,
    "lon": 83.86063712402112
  },
  {
    "partId": 33174,
    "stateCode": "S01",
    "stateName": "Andhra Pradesh",
    "districtCode": "S0101",
    "districtName": "Srikakulam",
    "acNumber": 6,
    "acName": "Amadalavalasa",
    "partNumber": 52,
    "partName": "Sottavanipeta",
    "lat": 18.3999053,
    "lon": 83.86063712402112
  },
  {
    "partId": 36465,
    "stateCode": "S01",
    "stateName": "Andhra Pradesh",
    "districtCode": "S0101",
    "districtName": "Srikakulam",
    "acNumber": 6,
    "acName": "Amadalavalasa",
    "partNumber": 53,
    "partName": "Kuddiram",
    "lat": 18.3961166,
    "lon": 83.8839552
  },
  {
    "partId": 36464,
    "stateCode": "S01",
    "stateName": "Andhra Pradesh",
    "districtCode": "S0101",
    "districtName": "Srikakulam",
    "acNumber": 6,
    "acName": "Amadalavalasa",
    "partNumber": 54,
    "partName": "Vengalarao Colony, Amadalavalasa",
    "lat": 18.3999053,
    "lon": 83.86063712402112
  },
  {
    "partId": 33287,
    "stateCode": "S01",
    "stateName": "Andhra Pradesh",
    "districtCode": "S0101",
    "districtName": "Srikakulam",
    "acNumber": 6,
    "acName": "Amadalavalasa",
    "partNumber": 55,
    "partName": "RAVIKANTIPETA",
    "lat": 18.4113059,
    "lon": 83.8859669
  },
  {
    "partId": 33278,
    "stateCode": "S01",
    "stateName": "Andhra Pradesh",
    "districtCode": "S0101",
    "districtName": "Srikakulam",
    "acNumber": 6,
    "acName": "Amadalavalasa",
    "partNumber": 56,
    "partName": "Vanjangi",
    "lat": 18.3715159,
    "lon": 83.8882988
  },
  {
    "partId": 33277,
    "stateCode": "S01",
    "stateName": "Andhra Pradesh",
    "districtCode": "S0101",
    "districtName": "Srikakulam",
    "acNumber": 6,
    "acName": "Amadalavalasa",
    "partNumber": 57,
    "partName": "Vanjangi",
    "lat": 18.3715159,
    "lon": 83.8882988
  },
  {
    "partId": 33275,
    "stateCode": "S01",
    "stateName": "Andhra Pradesh",
    "districtCode": "S0101",
    "districtName": "Srikakulam",
    "acNumber": 6,
    "acName": "Amadalavalasa",
    "partNumber": 58,
    "partName": "Vanjangipeta",
    "lat": 18.3667978,
    "lon": 83.8838139
  },
  {
    "partId": 33273,
    "stateCode": "S01",
    "stateName": "Andhra Pradesh",
    "districtCode": "S0101",
    "districtName": "Srikakulam",
    "acNumber": 6,
    "acName": "Amadalavalasa",
    "partNumber": 59,
    "partName": "Totada",
    "lat": 18.3444569,
    "lon": 83.8759924
  },
  {
    "partId": 1832,
    "stateCode": "S01",
    "stateName": "Andhra Pradesh",
    "districtCode": "S0101",
    "districtName": "Srikakulam",
    "acNumber": 6,
    "acName": "Amadalavalasa",
    "partNumber": 60,
    "partName": "AKKIVARAM",
    "lat": 18.3414226,
    "lon": 83.8764627
  },
  {
    "partId": 36463,
    "stateCode": "S01",
    "stateName": "Andhra Pradesh",
    "districtCode": "S0101",
    "districtName": "Srikakulam",
    "acNumber": 6,
    "acName": "Amadalavalasa",
    "partNumber": 61,
    "partName": "Kanugulavalsa",
    "lat": 18.39037845,
    "lon": 83.88214451327676
  },
  {
    "partId": 36462,
    "stateCode": "S01",
    "stateName": "Andhra Pradesh",
    "districtCode": "S0101",
    "districtName": "Srikakulam",
    "acNumber": 6,
    "acName": "Amadalavalasa",
    "partNumber": 62,
    "partName": "Kanugulavalasa",
    "lat": 18.3876776,
    "lon": 83.8807097
  },
  {
    "partId": 28919,
    "stateCode": "S01",
    "stateName": "Andhra Pradesh",
    "districtCode": "S0101",
    "districtName": "Srikakulam",
    "acNumber": 6,
    "acName": "Amadalavalasa",
    "partNumber": 63,
    "partName": "Korlakota",
    "lat": 18.4096376,
    "lon": 83.8714073
  },
  {
    "partId": 28918,
    "stateCode": "S01",
    "stateName": "Andhra Pradesh",
    "districtCode": "S0101",
    "districtName": "Srikakulam",
    "acNumber": 6,
    "acName": "Amadalavalasa",
    "partNumber": 64,
    "partName": "Korlakota",
    "lat": 18.4096376,
    "lon": 83.8714073
  },
  {
    "partId": 33282,
    "stateCode": "S01",
    "stateName": "Andhra Pradesh",
    "districtCode": "S0101",
    "districtName": "Srikakulam",
    "acNumber": 6,
    "acName": "Amadalavalasa",
    "partNumber": 65,
    "partName": "Korlakota",
    "lat": 18.4096376,
    "lon": 83.8714073
  },
  {
    "partId": 33281,
    "stateCode": "S01",
    "stateName": "Andhra Pradesh",
    "districtCode": "S0101",
    "districtName": "Srikakulam",
    "acNumber": 6,
    "acName": "Amadalavalasa",
    "partNumber": 66,
    "partName": "Venkayyapeta",
    "lat": 18.4204711,
    "lon": 83.8793133
  },
  {
    "partId": 33280,
    "stateCode": "S01",
    "stateName": "Andhra Pradesh",
    "districtCode": "S0101",
    "districtName": "Srikakulam",
    "acNumber": 6,
    "acName": "Amadalavalasa",
    "partNumber": 67,
    "partName": "Lakshmudupeta",
    "lat": 18.296597,
    "lon": 83.8471395
  },
  {
    "partId": 33279,
    "stateCode": "S01",
    "stateName": "Andhra Pradesh",
    "districtCode": "S0101",
    "districtName": "Srikakulam",
    "acNumber": 6,
    "acName": "Amadalavalasa",
    "partNumber": 68,
    "partName": "Chimalavalsa",
    "lat": 18.3999053,
    "lon": 83.86063712402112
  },
  {
    "partId": 33223,
    "stateCode": "S01",
    "stateName": "Andhra Pradesh",
    "districtCode": "S0101",
    "districtName": "Srikakulam",
    "acNumber": 6,
    "acName": "Amadalavalasa",
    "partNumber": 69,
    "partName": "Chimalavalasa",
    "lat": 18.4096376,
    "lon": 83.8714073
  },
  {
    "partId": 33222,
    "stateCode": "S01",
    "stateName": "Andhra Pradesh",
    "districtCode": "S0101",
    "districtName": "Srikakulam",
    "acNumber": 6,
    "acName": "Amadalavalasa",
    "partNumber": 70,
    "partName": "Kottavalasa",
    "lat": 18.411525,
    "lon": 83.8392827
  },
  {
    "partId": 33160,
    "stateCode": "S01",
    "stateName": "Andhra Pradesh",
    "districtCode": "S0101",
    "districtName": "Srikakulam",
    "acNumber": 6,
    "acName": "Amadalavalasa",
    "partNumber": 71,
    "partName": "Kottavalasa",
    "lat": 18.411525,
    "lon": 83.8392827
  },
  {
    "partId": 33290,
    "stateCode": "S01",
    "stateName": "Andhra Pradesh",
    "districtCode": "S0101",
    "districtName": "Srikakulam",
    "acNumber": 6,
    "acName": "Amadalavalasa",
    "partNumber": 72,
    "partName": "Togaram",
    "lat": 18.3966634,
    "lon": 83.8469691
  },
  {
    "partId": 33289,
    "stateCode": "S01",
    "stateName": "Andhra Pradesh",
    "districtCode": "S0101",
    "districtName": "Srikakulam",
    "acNumber": 6,
    "acName": "Amadalavalasa",
    "partNumber": 73,
    "partName": "Isakalapeta",
    "lat": 18.3999053,
    "lon": 83.86063712402112
  },
  {
    "partId": 1837,
    "stateCode": "S01",
    "stateName": "Andhra Pradesh",
    "districtCode": "S0101",
    "districtName": "Srikakulam",
    "acNumber": 6,
    "acName": "Amadalavalasa",
    "partNumber": 74,
    "partName": "Kalivaram",
    "lat": 18.3956162,
    "lon": 83.8514561
  },
  {
    "partId": 1836,
    "stateCode": "S01",
    "stateName": "Andhra Pradesh",
    "districtCode": "S0101",
    "districtName": "Srikakulam",
    "acNumber": 6,
    "acName": "Amadalavalasa",
    "partNumber": 75,
    "partName": "Muddada peta",
    "lat": 18.3999053,
    "lon": 83.86063712402112
  },
  {
    "partId": 33206,
    "stateCode": "S01",
    "stateName": "Andhra Pradesh",
    "districtCode": "S0101",
    "districtName": "Srikakulam",
    "acNumber": 6,
    "acName": "Amadalavalasa",
    "partNumber": 76,
    "partName": "Peerusaheb peta",
    "lat": 18.3999053,
    "lon": 83.86063712402112
  },
  {
    "partId": 33205,
    "stateCode": "S01",
    "stateName": "Andhra Pradesh",
    "districtCode": "S0101",
    "districtName": "Srikakulam",
    "acNumber": 6,
    "acName": "Amadalavalasa",
    "partNumber": 77,
    "partName": "BELAMAM",
    "lat": 18.3999053,
    "lon": 83.86063712402112
  },
  {
    "partId": 33204,
    "stateCode": "S01",
    "stateName": "Andhra Pradesh",
    "districtCode": "S0101",
    "districtName": "Srikakulam",
    "acNumber": 6,
    "acName": "Amadalavalasa",
    "partNumber": 78,
    "partName": "Loddalapeta",
    "lat": 18.3829045,
    "lon": 83.8358407
  },
  {
    "partId": 33203,
    "stateCode": "S01",
    "stateName": "Andhra Pradesh",
    "districtCode": "S0101",
    "districtName": "Srikakulam",
    "acNumber": 6,
    "acName": "Amadalavalasa",
    "partNumber": 79,
    "partName": "Dusi",
    "lat": 18.3702824,
    "lon": 83.8615515
  },
  {
    "partId": 33214,
    "stateCode": "S01",
    "stateName": "Andhra Pradesh",
    "districtCode": "S0101",
    "districtName": "Srikakulam",
    "acNumber": 6,
    "acName": "Amadalavalasa",
    "partNumber": 80,
    "partName": "NELLIMETTA",
    "lat": 18.3518066,
    "lon": 83.8598388
  },
  {
    "partId": 33202,
    "stateCode": "S01",
    "stateName": "Andhra Pradesh",
    "districtCode": "S0101",
    "districtName": "Srikakulam",
    "acNumber": 6,
    "acName": "Amadalavalasa",
    "partNumber": 81,
    "partName": "Dusi peta",
    "lat": 18.3999053,
    "lon": 83.86063712402112
  },
  {
    "partId": 33159,
    "stateCode": "S01",
    "stateName": "Andhra Pradesh",
    "districtCode": "S0101",
    "districtName": "Srikakulam",
    "acNumber": 6,
    "acName": "Amadalavalasa",
    "partNumber": 82,
    "partName": "Dusi peta",
    "lat": 18.3999053,
    "lon": 83.86063712402112
  },
  {
    "partId": 33271,
    "stateCode": "S01",
    "stateName": "Andhra Pradesh",
    "districtCode": "S0101",
    "districtName": "Srikakulam",
    "acNumber": 6,
    "acName": "Amadalavalasa",
    "partNumber": 83,
    "partName": "Malakam",
    "lat": 18.338586,
    "lon": 83.7168625
  },
  {
    "partId": 33158,
    "stateCode": "S01",
    "stateName": "Andhra Pradesh",
    "districtCode": "S0101",
    "districtName": "Srikakulam",
    "acNumber": 6,
    "acName": "Amadalavalasa",
    "partNumber": 84,
    "partName": "Malakam",
    "lat": 18.338586,
    "lon": 83.7168625
  },
  {
    "partId": 33212,
    "stateCode": "S01",
    "stateName": "Andhra Pradesh",
    "districtCode": "S0101",
    "districtName": "Srikakulam",
    "acNumber": 6,
    "acName": "Amadalavalasa",
    "partNumber": 85,
    "partName": "Thandyam",
    "lat": 18.3999053,
    "lon": 83.86063712402112
  },
  {
    "partId": 33269,
    "stateCode": "S01",
    "stateName": "Andhra Pradesh",
    "districtCode": "S0101",
    "districtName": "Srikakulam",
    "acNumber": 6,
    "acName": "Amadalavalasa",
    "partNumber": 86,
    "partName": "Thandyam",
    "lat": 18.3999053,
    "lon": 83.86063712402112
  },
  {
    "partId": 33157,
    "stateCode": "S01",
    "stateName": "Andhra Pradesh",
    "districtCode": "S0101",
    "districtName": "Srikakulam",
    "acNumber": 6,
    "acName": "Amadalavalasa",
    "partNumber": 87,
    "partName": "Thandyam",
    "lat": 18.3999053,
    "lon": 83.86063712402112
  },
  {
    "partId": 33268,
    "stateCode": "S01",
    "stateName": "Andhra Pradesh",
    "districtCode": "S0101",
    "districtName": "Srikakulam",
    "acNumber": 6,
    "acName": "Amadalavalasa",
    "partNumber": 88,
    "partName": "Thaanem",
    "lat": 18.3999053,
    "lon": 83.86063712402112
  },
  {
    "partId": 33267,
    "stateCode": "S01",
    "stateName": "Andhra Pradesh",
    "districtCode": "S0101",
    "districtName": "Srikakulam",
    "acNumber": 6,
    "acName": "Amadalavalasa",
    "partNumber": 89,
    "partName": "Banam",
    "lat": 18.3099813,
    "lon": 83.7479617
  },
  {
    "partId": 33266,
    "stateCode": "S01",
    "stateName": "Andhra Pradesh",
    "districtCode": "S0101",
    "districtName": "Srikakulam",
    "acNumber": 6,
    "acName": "Amadalavalasa",
    "partNumber": 90,
    "partName": "Lolugu",
    "lat": 18.3073356,
    "lon": 83.7813695
  },
  {
    "partId": 28923,
    "stateCode": "S01",
    "stateName": "Andhra Pradesh",
    "districtCode": "S0101",
    "districtName": "Srikakulam",
    "acNumber": 6,
    "acName": "Amadalavalasa",
    "partNumber": 91,
    "partName": "Lolugu",
    "lat": 18.3073356,
    "lon": 83.7813695
  },
  {
    "partId": 33156,
    "stateCode": "S01",
    "stateName": "Andhra Pradesh",
    "districtCode": "S0101",
    "districtName": "Srikakulam",
    "acNumber": 6,
    "acName": "Amadalavalasa",
    "partNumber": 92,
    "partName": "Lolugu",
    "lat": 18.3073356,
    "lon": 83.7813695
  },
  {
    "partId": 33265,
    "stateCode": "S01",
    "stateName": "Andhra Pradesh",
    "districtCode": "S0101",
    "districtName": "Srikakulam",
    "acNumber": 6,
    "acName": "Amadalavalasa",
    "partNumber": 93,
    "partName": "Lolugu",
    "lat": 18.3999053,
    "lon": 83.86063712402112
  },
  {
    "partId": 33264,
    "stateCode": "S01",
    "stateName": "Andhra Pradesh",
    "districtCode": "S0101",
    "districtName": "Srikakulam",
    "acNumber": 6,
    "acName": "Amadalavalasa",
    "partNumber": 94,
    "partName": "Dallipeta",
    "lat": 18.3999053,
    "lon": 83.86063712402112
  },
  {
    "partId": 1827,
    "stateCode": "S01",
    "stateName": "Andhra Pradesh",
    "districtCode": "S0101",
    "districtName": "Srikakulam",
    "acNumber": 6,
    "acName": "Amadalavalasa",
    "partNumber": 95,
    "partName": "Pullajipeta",
    "lat": 18.3999053,
    "lon": 83.86063712402112
  },
  {
    "partId": 1817,
    "stateCode": "S01",
    "stateName": "Andhra Pradesh",
    "districtCode": "S0101",
    "districtName": "Srikakulam",
    "acNumber": 6,
    "acName": "Amadalavalasa",
    "partNumber": 96,
    "partName": "Ponduru",
    "lat": 18.3999053,
    "lon": 83.86063712402112
  },
  {
    "partId": 33195,
    "stateCode": "S01",
    "stateName": "Andhra Pradesh",
    "districtCode": "S0101",
    "districtName": "Srikakulam",
    "acNumber": 6,
    "acName": "Amadalavalasa",
    "partNumber": 97,
    "partName": "Ponduru",
    "lat": 18.4186619714876,
    "lon": 83.88475497916689
  },
  {
    "partId": 27535,
    "stateCode": "S01",
    "stateName": "Andhra Pradesh",
    "districtCode": "S0101",
    "districtName": "Srikakulam",
    "acNumber": 6,
    "acName": "Amadalavalasa",
    "partNumber": 98,
    "partName": "Ponduru",
    "lat": 18.33571645,
    "lon": 83.78796307610503
  },
  {
    "partId": 1820,
    "stateCode": "S01",
    "stateName": "Andhra Pradesh",
    "districtCode": "S0101",
    "districtName": "Srikakulam",
    "acNumber": 6,
    "acName": "Amadalavalasa",
    "partNumber": 99,
    "partName": "Ponduru",
    "lat": 18.3999053,
    "lon": 83.86063712402112
  },
  {
    "partId": 33194,
    "stateCode": "S01",
    "stateName": "Andhra Pradesh",
    "districtCode": "S0101",
    "districtName": "Srikakulam",
    "acNumber": 6,
    "acName": "Amadalavalasa",
    "partNumber": 100,
    "partName": "Ponduru",
    "lat": 18.4186619714876,
    "lon": 83.88475497916689
  },
  {
    "partId": 1834,
    "stateCode": "S01",
    "stateName": "Andhra Pradesh",
    "districtCode": "S0101",
    "districtName": "Srikakulam",
    "acNumber": 6,
    "acName": "Amadalavalasa",
    "partNumber": 101,
    "partName": "PONDURU",
    "lat": 18.33571645,
    "lon": 83.78796307610503
  },
  {
    "partId": 1818,
    "stateCode": "S01",
    "stateName": "Andhra Pradesh",
    "districtCode": "S0101",
    "districtName": "Srikakulam",
    "acNumber": 6,
    "acName": "Amadalavalasa",
    "partNumber": 102,
    "partName": "Ponduru",
    "lat": 18.33571645,
    "lon": 83.78796307610503
  },
  {
    "partId": 28922,
    "stateCode": "S01",
    "stateName": "Andhra Pradesh",
    "districtCode": "S0101",
    "districtName": "Srikakulam",
    "acNumber": 6,
    "acName": "Amadalavalasa",
    "partNumber": 103,
    "partName": "Ponduru",
    "lat": 18.33571645,
    "lon": 83.78796307610503
  },
  {
    "partId": 28921,
    "stateCode": "S01",
    "stateName": "Andhra Pradesh",
    "districtCode": "S0101",
    "districtName": "Srikakulam",
    "acNumber": 6,
    "acName": "Amadalavalasa",
    "partNumber": 104,
    "partName": "Ponduru",
    "lat": 18.33571645,
    "lon": 83.78796307610503
  },
  {
    "partId": 1803,
    "stateCode": "S01",
    "stateName": "Andhra Pradesh",
    "districtCode": "S0101",
    "districtName": "Srikakulam",
    "acNumber": 6,
    "acName": "Amadalavalasa",
    "partNumber": 105,
    "partName": "Ponduru",
    "lat": 18.33571645,
    "lon": 83.78796307610503
  },
  {
    "partId": 28920,
    "stateCode": "S01",
    "stateName": "Andhra Pradesh",
    "districtCode": "S0101",
    "districtName": "Srikakulam",
    "acNumber": 6,
    "acName": "Amadalavalasa",
    "partNumber": 106,
    "partName": "Ponduru",
    "lat": 18.33571645,
    "lon": 83.78796307610503
  },
  {
    "partId": 1816,
    "stateCode": "S01",
    "stateName": "Andhra Pradesh",
    "districtCode": "S0101",
    "districtName": "Srikakulam",
    "acNumber": 6,
    "acName": "Amadalavalasa",
    "partNumber": 107,
    "partName": "Krishanapuram Agrahaaram",
    "lat": 18.3999053,
    "lon": 83.86063712402112
  },
  {
    "partId": 33211,
    "stateCode": "S01",
    "stateName": "Andhra Pradesh",
    "districtCode": "S0101",
    "districtName": "Srikakulam",
    "acNumber": 6,
    "acName": "Amadalavalasa",
    "partNumber": 108,
    "partName": "Krishnapuram",
    "lat": 18.3352908,
    "lon": 83.9761644
  },
  {
    "partId": 1815,
    "stateCode": "S01",
    "stateName": "Andhra Pradesh",
    "districtCode": "S0101",
    "districtName": "Srikakulam",
    "acNumber": 6,
    "acName": "Amadalavalasa",
    "partNumber": 109,
    "partName": "Konchada",
    "lat": 18.3573234,
    "lon": 83.7771276
  },
  {
    "partId": 33285,
    "stateCode": "S01",
    "stateName": "Andhra Pradesh",
    "districtCode": "S0101",
    "districtName": "Srikakulam",
    "acNumber": 6,
    "acName": "Amadalavalasa",
    "partNumber": 110,
    "partName": "KONCHADA",
    "lat": 18.3573234,
    "lon": 83.7771276
  },
  {
    "partId": 33193,
    "stateCode": "S01",
    "stateName": "Andhra Pradesh",
    "districtCode": "S0101",
    "districtName": "Srikakulam",
    "acNumber": 6,
    "acName": "Amadalavalasa",
    "partNumber": 111,
    "partName": "Laidam",
    "lat": 18.3999053,
    "lon": 83.86063712402112
  },
  {
    "partId": 1835,
    "stateCode": "S01",
    "stateName": "Andhra Pradesh",
    "districtCode": "S0101",
    "districtName": "Srikakulam",
    "acNumber": 6,
    "acName": "Amadalavalasa",
    "partNumber": 112,
    "partName": "KOLLIPETA",
    "lat": 18.3999053,
    "lon": 83.86063712402112
  },
  {
    "partId": 33192,
    "stateCode": "S01",
    "stateName": "Andhra Pradesh",
    "districtCode": "S0101",
    "districtName": "Srikakulam",
    "acNumber": 6,
    "acName": "Amadalavalasa",
    "partNumber": 113,
    "partName": "Rapaka",
    "lat": 18.349007,
    "lon": 83.7777181
  },
  {
    "partId": 33191,
    "stateCode": "S01",
    "stateName": "Andhra Pradesh",
    "districtCode": "S0101",
    "districtName": "Srikakulam",
    "acNumber": 6,
    "acName": "Amadalavalasa",
    "partNumber": 114,
    "partName": "Rapaka",
    "lat": 18.349007,
    "lon": 83.7777181
  },
  {
    "partId": 33186,
    "stateCode": "S01",
    "stateName": "Andhra Pradesh",
    "districtCode": "S0101",
    "districtName": "Srikakulam",
    "acNumber": 6,
    "acName": "Amadalavalasa",
    "partNumber": 115,
    "partName": "RAPAKA",
    "lat": 18.349007,
    "lon": 83.7777181
  },
  {
    "partId": 33190,
    "stateCode": "S01",
    "stateName": "Andhra Pradesh",
    "districtCode": "S0101",
    "districtName": "Srikakulam",
    "acNumber": 6,
    "acName": "Amadalavalasa",
    "partNumber": 116,
    "partName": "Rapaka",
    "lat": 18.349007,
    "lon": 83.7777181
  },
  {
    "partId": 1802,
    "stateCode": "S01",
    "stateName": "Andhra Pradesh",
    "districtCode": "S0101",
    "districtName": "Srikakulam",
    "acNumber": 6,
    "acName": "Amadalavalasa",
    "partNumber": 117,
    "partName": "Illayyagaripeta",
    "lat": 18.3999053,
    "lon": 83.86063712402112
  },
  {
    "partId": 1807,
    "stateCode": "S01",
    "stateName": "Andhra Pradesh",
    "districtCode": "S0101",
    "districtName": "Srikakulam",
    "acNumber": 6,
    "acName": "Amadalavalasa",
    "partNumber": 118,
    "partName": "Tungapeta",
    "lat": 18.3710908,
    "lon": 83.7976343
  },
  {
    "partId": 33257,
    "stateCode": "S01",
    "stateName": "Andhra Pradesh",
    "districtCode": "S0101",
    "districtName": "Srikakulam",
    "acNumber": 6,
    "acName": "Amadalavalasa",
    "partNumber": 119,
    "partName": "Vavillupallipeta",
    "lat": 18.3999053,
    "lon": 83.86063712402112
  },
  {
    "partId": 33256,
    "stateCode": "S01",
    "stateName": "Andhra Pradesh",
    "districtCode": "S0101",
    "districtName": "Srikakulam",
    "acNumber": 6,
    "acName": "Amadalavalasa",
    "partNumber": 120,
    "partName": "Venkatrayunigudem",
    "lat": 18.3999053,
    "lon": 83.86063712402112
  },
  {
    "partId": 33213,
    "stateCode": "S01",
    "stateName": "Andhra Pradesh",
    "districtCode": "S0101",
    "districtName": "Srikakulam",
    "acNumber": 6,
    "acName": "Amadalavalasa",
    "partNumber": 121,
    "partName": "V R GUDEM",
    "lat": 18.3999053,
    "lon": 83.86063712402112
  },
  {
    "partId": 33255,
    "stateCode": "S01",
    "stateName": "Andhra Pradesh",
    "districtCode": "S0101",
    "districtName": "Srikakulam",
    "acNumber": 6,
    "acName": "Amadalavalasa",
    "partNumber": 122,
    "partName": "Dharmapuram",
    "lat": 18.7608683,
    "lon": 84.4541579
  },
  {
    "partId": 33284,
    "stateCode": "S01",
    "stateName": "Andhra Pradesh",
    "districtCode": "S0101",
    "districtName": "Srikakulam",
    "acNumber": 6,
    "acName": "Amadalavalasa",
    "partNumber": 123,
    "partName": "Dharamapuram",
    "lat": 19.0697454,
    "lon": 84.6804857
  },
  {
    "partId": 33283,
    "stateCode": "S01",
    "stateName": "Andhra Pradesh",
    "districtCode": "S0101",
    "districtName": "Srikakulam",
    "acNumber": 6,
    "acName": "Amadalavalasa",
    "partNumber": 124,
    "partName": "Pillalavalasa",
    "lat": 18.3999053,
    "lon": 83.86063712402112
  },
  {
    "partId": 33252,
    "stateCode": "S01",
    "stateName": "Andhra Pradesh",
    "districtCode": "S0101",
    "districtName": "Srikakulam",
    "acNumber": 6,
    "acName": "Amadalavalasa",
    "partNumber": 125,
    "partName": "Kotipalli",
    "lat": 18.3466544,
    "lon": 83.8028181
  },
  {
    "partId": 27536,
    "stateCode": "S01",
    "stateName": "Andhra Pradesh",
    "districtCode": "S0101",
    "districtName": "Srikakulam",
    "acNumber": 6,
    "acName": "Amadalavalasa",
    "partNumber": 126,
    "partName": "Kotipalli",
    "lat": 18.3466544,
    "lon": 83.8028181
  },
  {
    "partId": 1806,
    "stateCode": "S01",
    "stateName": "Andhra Pradesh",
    "districtCode": "S0101",
    "districtName": "Srikakulam",
    "acNumber": 6,
    "acName": "Amadalavalasa",
    "partNumber": 127,
    "partName": "Dallavalasa",
    "lat": 18.3417379,
    "lon": 83.8186873
  },
  {
    "partId": 33210,
    "stateCode": "S01",
    "stateName": "Andhra Pradesh",
    "districtCode": "S0101",
    "districtName": "Srikakulam",
    "acNumber": 6,
    "acName": "Amadalavalasa",
    "partNumber": 128,
    "partName": "Dallavalasa",
    "lat": 18.3417379,
    "lon": 83.8186873
  },
  {
    "partId": 33250,
    "stateCode": "S01",
    "stateName": "Andhra Pradesh",
    "districtCode": "S0101",
    "districtName": "Srikakulam",
    "acNumber": 6,
    "acName": "Amadalavalasa",
    "partNumber": 129,
    "partName": "Gorinta",
    "lat": 18.3673313,
    "lon": 83.8097971
  },
  {
    "partId": 33249,
    "stateCode": "S01",
    "stateName": "Andhra Pradesh",
    "districtCode": "S0101",
    "districtName": "Srikakulam",
    "acNumber": 6,
    "acName": "Amadalavalasa",
    "partNumber": 130,
    "partName": "Penubarthi",
    "lat": 18.3999053,
    "lon": 83.86063712402112
  },
  {
    "partId": 33247,
    "stateCode": "S01",
    "stateName": "Andhra Pradesh",
    "districtCode": "S0101",
    "districtName": "Srikakulam",
    "acNumber": 6,
    "acName": "Amadalavalasa",
    "partNumber": 131,
    "partName": "Almajipeta",
    "lat": 18.4527425,
    "lon": 83.9455537
  },
  {
    "partId": 33260,
    "stateCode": "S01",
    "stateName": "Andhra Pradesh",
    "districtCode": "S0101",
    "districtName": "Srikakulam",
    "acNumber": 6,
    "acName": "Amadalavalasa",
    "partNumber": 132,
    "partName": "Tadivalasa",
    "lat": 18.3745949,
    "lon": 83.8290936
  },
  {
    "partId": 2572,
    "stateCode": "S01",
    "stateName": "Andhra Pradesh",
    "districtCode": "S0101",
    "districtName": "Srikakulam",
    "acNumber": 6,
    "acName": "Amadalavalasa",
    "partNumber": 133,
    "partName": "Tadivalasa",
    "lat": 18.3999053,
    "lon": 83.86063712402112
  },
  {
    "partId": 33261,
    "stateCode": "S01",
    "stateName": "Andhra Pradesh",
    "districtCode": "S0101",
    "districtName": "Srikakulam",
    "acNumber": 6,
    "acName": "Amadalavalasa",
    "partNumber": 134,
    "partName": "Gandredu",
    "lat": 18.3999053,
    "lon": 83.86063712402112
  },
  {
    "partId": 33245,
    "stateCode": "S01",
    "stateName": "Andhra Pradesh",
    "districtCode": "S0101",
    "districtName": "Srikakulam",
    "acNumber": 6,
    "acName": "Amadalavalasa",
    "partNumber": 135,
    "partName": "Boddepalli",
    "lat": 18.3082081,
    "lon": 83.8928967
  },
  {
    "partId": 33241,
    "stateCode": "S01",
    "stateName": "Andhra Pradesh",
    "districtCode": "S0101",
    "districtName": "Srikakulam",
    "acNumber": 6,
    "acName": "Amadalavalasa",
    "partNumber": 136,
    "partName": "Modallavalasa",
    "lat": 18.3999053,
    "lon": 83.86063712402112
  },
  {
    "partId": 33240,
    "stateCode": "S01",
    "stateName": "Andhra Pradesh",
    "districtCode": "S0101",
    "districtName": "Srikakulam",
    "acNumber": 6,
    "acName": "Amadalavalasa",
    "partNumber": 137,
    "partName": "Singuru",
    "lat": 18.3999053,
    "lon": 83.86063712402112
  },
  {
    "partId": 33239,
    "stateCode": "S01",
    "stateName": "Andhra Pradesh",
    "districtCode": "S0101",
    "districtName": "Srikakulam",
    "acNumber": 6,
    "acName": "Amadalavalasa",
    "partNumber": 138,
    "partName": "Tolaapi",
    "lat": 18.3999053,
    "lon": 83.86063712402112
  },
  {
    "partId": 33209,
    "stateCode": "S01",
    "stateName": "Andhra Pradesh",
    "districtCode": "S0101",
    "districtName": "Srikakulam",
    "acNumber": 6,
    "acName": "Amadalavalasa",
    "partNumber": 139,
    "partName": "Tholapi",
    "lat": 18.3999053,
    "lon": 83.86063712402112
  },
  {
    "partId": 33238,
    "stateCode": "S01",
    "stateName": "Andhra Pradesh",
    "districtCode": "S0101",
    "districtName": "Srikakulam",
    "acNumber": 6,
    "acName": "Amadalavalasa",
    "partNumber": 140,
    "partName": "Tolaapi",
    "lat": 18.4186619714876,
    "lon": 83.88475497916689
  },
  {
    "partId": 33229,
    "stateCode": "S01",
    "stateName": "Andhra Pradesh",
    "districtCode": "S0101",
    "districtName": "Srikakulam",
    "acNumber": 6,
    "acName": "Amadalavalasa",
    "partNumber": 141,
    "partName": "Achchipolavalasa",
    "lat": 18.4186619714876,
    "lon": 83.88475497916689
  },
  {
    "partId": 33237,
    "stateCode": "S01",
    "stateName": "Andhra Pradesh",
    "districtCode": "S0101",
    "districtName": "Srikakulam",
    "acNumber": 6,
    "acName": "Amadalavalasa",
    "partNumber": 142,
    "partName": "Kinthali",
    "lat": 18.3308032,
    "lon": 83.8535392
  },
  {
    "partId": 2591,
    "stateCode": "S01",
    "stateName": "Andhra Pradesh",
    "districtCode": "S0101",
    "districtName": "Srikakulam",
    "acNumber": 6,
    "acName": "Amadalavalasa",
    "partNumber": 143,
    "partName": "Kinthali",
    "lat": 18.3308032,
    "lon": 83.8535392
  },
  {
    "partId": 33236,
    "stateCode": "S01",
    "stateName": "Andhra Pradesh",
    "districtCode": "S0101",
    "districtName": "Srikakulam",
    "acNumber": 6,
    "acName": "Amadalavalasa",
    "partNumber": 144,
    "partName": "Kinthali",
    "lat": 18.3308032,
    "lon": 83.8535392
  },
  {
    "partId": 33235,
    "stateCode": "S01",
    "stateName": "Andhra Pradesh",
    "districtCode": "S0101",
    "districtName": "Srikakulam",
    "acNumber": 6,
    "acName": "Amadalavalasa",
    "partNumber": 145,
    "partName": "Khajipeta  Kinthali Dari",
    "lat": 18.3999053,
    "lon": 83.86063712402112
  },
  {
    "partId": 33234,
    "stateCode": "S01",
    "stateName": "Andhra Pradesh",
    "districtCode": "S0101",
    "districtName": "Srikakulam",
    "acNumber": 6,
    "acName": "Amadalavalasa",
    "partNumber": 146,
    "partName": "Kanimetta",
    "lat": 18.3261466,
    "lon": 83.8475472
  },
  {
    "partId": 2587,
    "stateCode": "S01",
    "stateName": "Andhra Pradesh",
    "districtCode": "S0101",
    "districtName": "Srikakulam",
    "acNumber": 6,
    "acName": "Amadalavalasa",
    "partNumber": 147,
    "partName": "Kanimetta",
    "lat": 18.3261466,
    "lon": 83.8475472
  },
  {
    "partId": 33233,
    "stateCode": "S01",
    "stateName": "Andhra Pradesh",
    "districtCode": "S0101",
    "districtName": "Srikakulam",
    "acNumber": 6,
    "acName": "Amadalavalasa",
    "partNumber": 148,
    "partName": "Kanimetta",
    "lat": 18.3261466,
    "lon": 83.8475472
  },
  {
    "partId": 1833,
    "stateCode": "S01",
    "stateName": "Andhra Pradesh",
    "districtCode": "S0101",
    "districtName": "Srikakulam",
    "acNumber": 6,
    "acName": "Amadalavalasa",
    "partNumber": 149,
    "partName": "RAMADASUPURAM",
    "lat": 18.3114745,
    "lon": 83.8557096
  },
  {
    "partId": 33146,
    "stateCode": "S01",
    "stateName": "Andhra Pradesh",
    "districtCode": "S0101",
    "districtName": "Srikakulam",
    "acNumber": 6,
    "acName": "Amadalavalasa",
    "partNumber": 150,
    "partName": "Kesavadasupuram",
    "lat": 18.3999053,
    "lon": 83.86063712402112
  },
  {
    "partId": 36468,
    "stateCode": "S01",
    "stateName": "Andhra Pradesh",
    "districtCode": "S0101",
    "districtName": "Srikakulam",
    "acNumber": 6,
    "acName": "Amadalavalasa",
    "partNumber": 151,
    "partName": "NANDIVADA",
    "lat": 18.2984002,
    "lon": 83.7988272
  },
  {
    "partId": 33188,
    "stateCode": "S01",
    "stateName": "Andhra Pradesh",
    "districtCode": "S0101",
    "districtName": "Srikakulam",
    "acNumber": 6,
    "acName": "Amadalavalasa",
    "partNumber": 152,
    "partName": "NARASAPURAM",
    "lat": 18.5095531,
    "lon": 84.1811405
  },
  {
    "partId": 33187,
    "stateCode": "S01",
    "stateName": "Andhra Pradesh",
    "districtCode": "S0101",
    "districtName": "Srikakulam",
    "acNumber": 6,
    "acName": "Amadalavalasa",
    "partNumber": 153,
    "partName": "BHAGAVANDASPETA",
    "lat": 18.3999053,
    "lon": 83.86063712402112
  },
  {
    "partId": 28926,
    "stateCode": "S01",
    "stateName": "Andhra Pradesh",
    "districtCode": "S0101",
    "districtName": "Srikakulam",
    "acNumber": 6,
    "acName": "Amadalavalasa",
    "partNumber": 154,
    "partName": "BURIDIKANCHARAM",
    "lat": 18.3999053,
    "lon": 83.86063712402112
  },
  {
    "partId": 33208,
    "stateCode": "S01",
    "stateName": "Andhra Pradesh",
    "districtCode": "S0101",
    "districtName": "Srikakulam",
    "acNumber": 6,
    "acName": "Amadalavalasa",
    "partNumber": 155,
    "partName": "BURIDIKANCHARAM",
    "lat": 18.3999053,
    "lon": 83.86063712402112
  },
  {
    "partId": 28925,
    "stateCode": "S01",
    "stateName": "Andhra Pradesh",
    "districtCode": "S0101",
    "districtName": "Srikakulam",
    "acNumber": 6,
    "acName": "Amadalavalasa",
    "partNumber": 156,
    "partName": "BURIDIKANCHARAM",
    "lat": 18.3999053,
    "lon": 83.86063712402112
  },
  {
    "partId": 33207,
    "stateCode": "S01",
    "stateName": "Andhra Pradesh",
    "districtCode": "S0101",
    "districtName": "Srikakulam",
    "acNumber": 6,
    "acName": "Amadalavalasa",
    "partNumber": 157,
    "partName": "BURIDIKANCHARAM",
    "lat": 18.3999053,
    "lon": 83.86063712402112
  },
  {
    "partId": 33221,
    "stateCode": "S01",
    "stateName": "Andhra Pradesh",
    "districtCode": "S0101",
    "districtName": "Srikakulam",
    "acNumber": 6,
    "acName": "Amadalavalasa",
    "partNumber": 158,
    "partName": "Gokarnapalli",
    "lat": 18.3890896,
    "lon": 83.8041013
  },
  {
    "partId": 33220,
    "stateCode": "S01",
    "stateName": "Andhra Pradesh",
    "districtCode": "S0101",
    "districtName": "Srikakulam",
    "acNumber": 6,
    "acName": "Amadalavalasa",
    "partNumber": 159,
    "partName": "Gokarnapalli",
    "lat": 18.3890896,
    "lon": 83.8041013
  },
  {
    "partId": 1831,
    "stateCode": "S01",
    "stateName": "Andhra Pradesh",
    "districtCode": "S0101",
    "districtName": "Srikakulam",
    "acNumber": 6,
    "acName": "Amadalavalasa",
    "partNumber": 160,
    "partName": "Gonepadu",
    "lat": 18.5506736,
    "lon": 83.9322451
  },
  {
    "partId": 33276,
    "stateCode": "S01",
    "stateName": "Andhra Pradesh",
    "districtCode": "S0101",
    "districtName": "Srikakulam",
    "acNumber": 6,
    "acName": "Amadalavalasa",
    "partNumber": 161,
    "partName": "BAPPADAM",
    "lat": 18.5512826,
    "lon": 83.9271176
  },
  {
    "partId": 33286,
    "stateCode": "S01",
    "stateName": "Andhra Pradesh",
    "districtCode": "S0101",
    "districtName": "Srikakulam",
    "acNumber": 6,
    "acName": "Amadalavalasa",
    "partNumber": 162,
    "partName": "A.L.NAGARAM",
    "lat": 18.3057836,
    "lon": 83.8941554
  },
  {
    "partId": 1829,
    "stateCode": "S01",
    "stateName": "Andhra Pradesh",
    "districtCode": "S0101",
    "districtName": "Srikakulam",
    "acNumber": 6,
    "acName": "Amadalavalasa",
    "partNumber": 163,
    "partName": "MATALAB PETA",
    "lat": 18.3999053,
    "lon": 83.86063712402112
  },
  {
    "partId": 33274,
    "stateCode": "S01",
    "stateName": "Andhra Pradesh",
    "districtCode": "S0101",
    "districtName": "Srikakulam",
    "acNumber": 6,
    "acName": "Amadalavalasa",
    "partNumber": 164,
    "partName": "Telikipenta",
    "lat": 18.5543406,
    "lon": 83.9731094
  },
  {
    "partId": 1828,
    "stateCode": "S01",
    "stateName": "Andhra Pradesh",
    "districtCode": "S0101",
    "districtName": "Srikakulam",
    "acNumber": 6,
    "acName": "Amadalavalasa",
    "partNumber": 165,
    "partName": "PATHAPADU",
    "lat": 18.3999053,
    "lon": 83.86063712402112
  },
  {
    "partId": 33219,
    "stateCode": "S01",
    "stateName": "Andhra Pradesh",
    "districtCode": "S0101",
    "districtName": "Srikakulam",
    "acNumber": 6,
    "acName": "Amadalavalasa",
    "partNumber": 166,
    "partName": "LPM AGRAHARAM",
    "lat": 18.3999053,
    "lon": 83.86063712402112
  },
  {
    "partId": 33218,
    "stateCode": "S01",
    "stateName": "Andhra Pradesh",
    "districtCode": "S0101",
    "districtName": "Srikakulam",
    "acNumber": 6,
    "acName": "Amadalavalasa",
    "partNumber": 167,
    "partName": "PARVATALAPETA",
    "lat": 18.3999053,
    "lon": 83.86063712402112
  },
  {
    "partId": 1826,
    "stateCode": "S01",
    "stateName": "Andhra Pradesh",
    "districtCode": "S0101",
    "districtName": "Srikakulam",
    "acNumber": 6,
    "acName": "Amadalavalasa",
    "partNumber": 168,
    "partName": "Chinnakagithapalli",
    "lat": 18.3999053,
    "lon": 83.86063712402112
  },
  {
    "partId": 33217,
    "stateCode": "S01",
    "stateName": "Andhra Pradesh",
    "districtCode": "S0101",
    "districtName": "Srikakulam",
    "acNumber": 6,
    "acName": "Amadalavalasa",
    "partNumber": 169,
    "partName": "L.K.PALLI",
    "lat": 18.3999053,
    "lon": 83.86063712402112
  },
  {
    "partId": 33216,
    "stateCode": "S01",
    "stateName": "Andhra Pradesh",
    "districtCode": "S0101",
    "districtName": "Srikakulam",
    "acNumber": 6,
    "acName": "Amadalavalasa",
    "partNumber": 170,
    "partName": "PEDDAKAGITAPALLI",
    "lat": 18.3999053,
    "lon": 83.86063712402112
  },
  {
    "partId": 33272,
    "stateCode": "S01",
    "stateName": "Andhra Pradesh",
    "districtCode": "S0101",
    "districtName": "Srikakulam",
    "acNumber": 6,
    "acName": "Amadalavalasa",
    "partNumber": 171,
    "partName": "Yaragam",
    "lat": 18.532687,
    "lon": 83.9656627
  },
  {
    "partId": 1824,
    "stateCode": "S01",
    "stateName": "Andhra Pradesh",
    "districtCode": "S0101",
    "districtName": "Srikakulam",
    "acNumber": 6,
    "acName": "Amadalavalasa",
    "partNumber": 172,
    "partName": "PEDDA SAVALAPURAM",
    "lat": 18.508831,
    "lon": 83.9428854
  },
  {
    "partId": 33270,
    "stateCode": "S01",
    "stateName": "Andhra Pradesh",
    "districtCode": "S0101",
    "districtName": "Srikakulam",
    "acNumber": 6,
    "acName": "Amadalavalasa",
    "partNumber": 173,
    "partName": "Isakalapalem",
    "lat": 18.9205666,
    "lon": 84.6275691
  },
  {
    "partId": 1823,
    "stateCode": "S01",
    "stateName": "Andhra Pradesh",
    "districtCode": "S0101",
    "districtName": "Srikakulam",
    "acNumber": 6,
    "acName": "Amadalavalasa",
    "partNumber": 174,
    "partName": "KUNAJAMMANNAPETA",
    "lat": 18.3999053,
    "lon": 83.86063712402112
  },
  {
    "partId": 27546,
    "stateCode": "S01",
    "stateName": "Andhra Pradesh",
    "districtCode": "S0101",
    "districtName": "Srikakulam",
    "acNumber": 6,
    "acName": "Amadalavalasa",
    "partNumber": 175,
    "partName": "VIJAYARAMPURAM",
    "lat": 18.5474492,
    "lon": 83.9315933
  },
  {
    "partId": 27545,
    "stateCode": "S01",
    "stateName": "Andhra Pradesh",
    "districtCode": "S0101",
    "districtName": "Srikakulam",
    "acNumber": 6,
    "acName": "Amadalavalasa",
    "partNumber": 176,
    "partName": "BUDDIVALASA",
    "lat": 18.3999053,
    "lon": 83.86063712402112
  },
  {
    "partId": 1825,
    "stateCode": "S01",
    "stateName": "Andhra Pradesh",
    "districtCode": "S0101",
    "districtName": "Srikakulam",
    "acNumber": 6,
    "acName": "Amadalavalasa",
    "partNumber": 177,
    "partName": "Mulasavalapuram",
    "lat": 18.5197624,
    "lon": 83.922978
  },
  {
    "partId": 27544,
    "stateCode": "S01",
    "stateName": "Andhra Pradesh",
    "districtCode": "S0101",
    "districtName": "Srikakulam",
    "acNumber": 6,
    "acName": "Amadalavalasa",
    "partNumber": 178,
    "partName": "TURAKAPETA",
    "lat": 18.3886299,
    "lon": 83.916341
  },
  {
    "partId": 1822,
    "stateCode": "S01",
    "stateName": "Andhra Pradesh",
    "districtCode": "S0101",
    "districtName": "Srikakulam",
    "acNumber": 6,
    "acName": "Amadalavalasa",
    "partNumber": 179,
    "partName": "Sarubujjili",
    "lat": 18.5006764,
    "lon": 83.90699901244975
  },
  {
    "partId": 27543,
    "stateCode": "S01",
    "stateName": "Andhra Pradesh",
    "districtCode": "S0101",
    "districtName": "Srikakulam",
    "acNumber": 6,
    "acName": "Amadalavalasa",
    "partNumber": 180,
    "partName": "NANDIKONDA",
    "lat": 18.4186619714876,
    "lon": 83.88475497916689
  },
  {
    "partId": 1821,
    "stateCode": "S01",
    "stateName": "Andhra Pradesh",
    "districtCode": "S0101",
    "districtName": "Srikakulam",
    "acNumber": 6,
    "acName": "Amadalavalasa",
    "partNumber": 181,
    "partName": "Sinduvada",
    "lat": 18.3999053,
    "lon": 83.86063712402112
  },
  {
    "partId": 1814,
    "stateCode": "S01",
    "stateName": "Andhra Pradesh",
    "districtCode": "S0101",
    "districtName": "Srikakulam",
    "acNumber": 6,
    "acName": "Amadalavalasa",
    "partNumber": 182,
    "partName": "Shalantri",
    "lat": 18.5090751,
    "lon": 83.9120936
  },
  {
    "partId": 27542,
    "stateCode": "S01",
    "stateName": "Andhra Pradesh",
    "districtCode": "S0101",
    "districtName": "Srikakulam",
    "acNumber": 6,
    "acName": "Amadalavalasa",
    "partNumber": 183,
    "partName": "PEDDAVENKATAPURAM",
    "lat": 18.4186619714876,
    "lon": 83.88475497916689
  },
  {
    "partId": 1813,
    "stateCode": "S01",
    "stateName": "Andhra Pradesh",
    "districtCode": "S0101",
    "districtName": "Srikakulam",
    "acNumber": 6,
    "acName": "Amadalavalasa",
    "partNumber": 184,
    "partName": "Buridivalasa colony",
    "lat": 18.3999053,
    "lon": 83.86063712402112
  },
  {
    "partId": 27541,
    "stateCode": "S01",
    "stateName": "Andhra Pradesh",
    "districtCode": "S0101",
    "districtName": "Srikakulam",
    "acNumber": 6,
    "acName": "Amadalavalasa",
    "partNumber": 185,
    "partName": "MARRIPADU",
    "lat": 18.3999053,
    "lon": 83.86063712402112
  },
  {
    "partId": 1819,
    "stateCode": "S01",
    "stateName": "Andhra Pradesh",
    "districtCode": "S0101",
    "districtName": "Srikakulam",
    "acNumber": 6,
    "acName": "Amadalavalasa",
    "partNumber": 186,
    "partName": "Chiguruvalasa",
    "lat": 18.3999053,
    "lon": 83.86063712402112
  },
  {
    "partId": 27540,
    "stateCode": "S01",
    "stateName": "Andhra Pradesh",
    "districtCode": "S0101",
    "districtName": "Srikakulam",
    "acNumber": 6,
    "acName": "Amadalavalasa",
    "partNumber": 187,
    "partName": "VENNALAVALASA",
    "lat": 18.3999053,
    "lon": 83.86063712402112
  },
  {
    "partId": 33185,
    "stateCode": "S01",
    "stateName": "Andhra Pradesh",
    "districtCode": "S0101",
    "districtName": "Srikakulam",
    "acNumber": 6,
    "acName": "Amadalavalasa",
    "partNumber": 188,
    "partName": "KOTTAKOTA",
    "lat": 18.503752,
    "lon": 83.9008918
  },
  {
    "partId": 33232,
    "stateCode": "S01",
    "stateName": "Andhra Pradesh",
    "districtCode": "S0101",
    "districtName": "Srikakulam",
    "acNumber": 6,
    "acName": "Amadalavalasa",
    "partNumber": 189,
    "partName": "KOTHAKOTA",
    "lat": 18.4186619714876,
    "lon": 83.88475497916689
  },
  {
    "partId": 33231,
    "stateCode": "S01",
    "stateName": "Andhra Pradesh",
    "districtCode": "S0101",
    "districtName": "Srikakulam",
    "acNumber": 6,
    "acName": "Amadalavalasa",
    "partNumber": 190,
    "partName": "KONDRAGUDA",
    "lat": 18.3999053,
    "lon": 83.86063712402112
  },
  {
    "partId": 33148,
    "stateCode": "S01",
    "stateName": "Andhra Pradesh",
    "districtCode": "S0101",
    "districtName": "Srikakulam",
    "acNumber": 6,
    "acName": "Amadalavalasa",
    "partNumber": 191,
    "partName": "Subhadrapuram",
    "lat": 18.6694736,
    "lon": 84.3154376
  },
  {
    "partId": 33230,
    "stateCode": "S01",
    "stateName": "Andhra Pradesh",
    "districtCode": "S0101",
    "districtName": "Srikakulam",
    "acNumber": 6,
    "acName": "Amadalavalasa",
    "partNumber": 192,
    "partName": "THAMMINAIDUPETA",
    "lat": 18.3999053,
    "lon": 83.86063712402112
  },
  {
    "partId": 2586,
    "stateCode": "S01",
    "stateName": "Andhra Pradesh",
    "districtCode": "S0101",
    "districtName": "Srikakulam",
    "acNumber": 6,
    "acName": "Amadalavalasa",
    "partNumber": 193,
    "partName": "Dakaravalasa",
    "lat": 18.4982194,
    "lon": 83.8898492
  },
  {
    "partId": 1805,
    "stateCode": "S01",
    "stateName": "Andhra Pradesh",
    "districtCode": "S0101",
    "districtName": "Srikakulam",
    "acNumber": 6,
    "acName": "Amadalavalasa",
    "partNumber": 194,
    "partName": "KATAKAMAYYAPETA",
    "lat": 18.3999053,
    "lon": 83.86063712402112
  },
  {
    "partId": 33147,
    "stateCode": "S01",
    "stateName": "Andhra Pradesh",
    "districtCode": "S0101",
    "districtName": "Srikakulam",
    "acNumber": 6,
    "acName": "Amadalavalasa",
    "partNumber": 195,
    "partName": "Rottavalasaq",
    "lat": 18.3999053,
    "lon": 83.86063712402112
  },
  {
    "partId": 33175,
    "stateCode": "S01",
    "stateName": "Andhra Pradesh",
    "districtCode": "S0101",
    "districtName": "Srikakulam",
    "acNumber": 6,
    "acName": "Amadalavalasa",
    "partNumber": 196,
    "partName": "Rottavalasa",
    "lat": 18.4186619714876,
    "lon": 83.88475497916689
  },
  {
    "partId": 1804,
    "stateCode": "S01",
    "stateName": "Andhra Pradesh",
    "districtCode": "S0101",
    "districtName": "Srikakulam",
    "acNumber": 6,
    "acName": "Amadalavalasa",
    "partNumber": 197,
    "partName": "AVATARABAD",
    "lat": 18.3999053,
    "lon": 83.86063712402112
  },
  {
    "partId": 33145,
    "stateCode": "S01",
    "stateName": "Andhra Pradesh",
    "districtCode": "S0101",
    "districtName": "Srikakulam",
    "acNumber": 6,
    "acName": "Amadalavalasa",
    "partNumber": 198,
    "partName": "PALAVALASA",
    "lat": 18.8875212,
    "lon": 84.5431795
  },
  {
    "partId": 33144,
    "stateCode": "S01",
    "stateName": "Andhra Pradesh",
    "districtCode": "S0101",
    "districtName": "Srikakulam",
    "acNumber": 6,
    "acName": "Amadalavalasa",
    "partNumber": 199,
    "partName": "Ravivalasa",
    "lat": 18.5796086,
    "lon": 84.2461051
  },
  {
    "partId": 33143,
    "stateCode": "S01",
    "stateName": "Andhra Pradesh",
    "districtCode": "S0101",
    "districtName": "Srikakulam",
    "acNumber": 6,
    "acName": "Amadalavalasa",
    "partNumber": 200,
    "partName": "Purushottapuram",
    "lat": 18.4660825,
    "lon": 83.9481604
  },
  {
    "partId": 33259,
    "stateCode": "S01",
    "stateName": "Andhra Pradesh",
    "districtCode": "S0101",
    "districtName": "Srikakulam",
    "acNumber": 6,
    "acName": "Amadalavalasa",
    "partNumber": 201,
    "partName": "Purushottapuram",
    "lat": 18.4660825,
    "lon": 83.9481604
  },
  {
    "partId": 2574,
    "stateCode": "S01",
    "stateName": "Andhra Pradesh",
    "districtCode": "S0101",
    "districtName": "Srikakulam",
    "acNumber": 6,
    "acName": "Amadalavalasa",
    "partNumber": 202,
    "partName": "Purushottapuram",
    "lat": 18.4186619714876,
    "lon": 83.88475497916689
  },
  {
    "partId": 2573,
    "stateCode": "S01",
    "stateName": "Andhra Pradesh",
    "districtCode": "S0101",
    "districtName": "Srikakulam",
    "acNumber": 6,
    "acName": "Amadalavalasa",
    "partNumber": 203,
    "partName": "Peddapalem",
    "lat": 18.472832,
    "lon": 83.9241743
  },
  {
    "partId": 2577,
    "stateCode": "S01",
    "stateName": "Andhra Pradesh",
    "districtCode": "S0101",
    "districtName": "Srikakulam",
    "acNumber": 6,
    "acName": "Amadalavalasa",
    "partNumber": 204,
    "partName": "Kondavalasa",
    "lat": 18.4650449,
    "lon": 83.9139022
  },
  {
    "partId": 33184,
    "stateCode": "S01",
    "stateName": "Andhra Pradesh",
    "districtCode": "S0101",
    "districtName": "Srikakulam",
    "acNumber": 6,
    "acName": "Amadalavalasa",
    "partNumber": 205,
    "partName": "Singannapalem",
    "lat": 18.4186619714876,
    "lon": 83.88475497916689
  },
  {
    "partId": 33183,
    "stateCode": "S01",
    "stateName": "Andhra Pradesh",
    "districtCode": "S0101",
    "districtName": "Srikakulam",
    "acNumber": 6,
    "acName": "Amadalavalasa",
    "partNumber": 206,
    "partName": "THOTAVADA",
    "lat": 18.3999053,
    "lon": 83.86063712402112
  },
  {
    "partId": 1811,
    "stateCode": "S01",
    "stateName": "Andhra Pradesh",
    "districtCode": "S0101",
    "districtName": "Srikakulam",
    "acNumber": 6,
    "acName": "Amadalavalasa",
    "partNumber": 207,
    "partName": "Thotawada",
    "lat": 18.3999053,
    "lon": 83.86063712402112
  },
  {
    "partId": 2585,
    "stateCode": "S01",
    "stateName": "Andhra Pradesh",
    "districtCode": "S0101",
    "districtName": "Srikakulam",
    "acNumber": 6,
    "acName": "Amadalavalasa",
    "partNumber": 208,
    "partName": "Kommuvalasa",
    "lat": 18.6438649,
    "lon": 83.9169592
  },
  {
    "partId": 1801,
    "stateCode": "S01",
    "stateName": "Andhra Pradesh",
    "districtCode": "S0101",
    "districtName": "Srikakulam",
    "acNumber": 6,
    "acName": "Amadalavalasa",
    "partNumber": 209,
    "partName": "T.R.RAJUPETA",
    "lat": 18.3999053,
    "lon": 83.86063712402112
  },
  {
    "partId": 1810,
    "stateCode": "S01",
    "stateName": "Andhra Pradesh",
    "districtCode": "S0101",
    "districtName": "Srikakulam",
    "acNumber": 6,
    "acName": "Amadalavalasa",
    "partNumber": 210,
    "partName": "Ayyavaripeta",
    "lat": 18.4186619714876,
    "lon": 83.88475497916689
  },
  {
    "partId": 1809,
    "stateCode": "S01",
    "stateName": "Andhra Pradesh",
    "districtCode": "S0101",
    "districtName": "Srikakulam",
    "acNumber": 6,
    "acName": "Amadalavalasa",
    "partNumber": 211,
    "partName": "ANNAMPETA",
    "lat": 18.5220426,
    "lon": 83.8598792
  },
  {
    "partId": 2596,
    "stateCode": "S01",
    "stateName": "Andhra Pradesh",
    "districtCode": "S0101",
    "districtName": "Srikakulam",
    "acNumber": 6,
    "acName": "Amadalavalasa",
    "partNumber": 212,
    "partName": "MASANAPUTTI",
    "lat": 18.3999053,
    "lon": 83.86063712402112
  },
  {
    "partId": 2595,
    "stateCode": "S01",
    "stateName": "Andhra Pradesh",
    "districtCode": "S0101",
    "districtName": "Srikakulam",
    "acNumber": 6,
    "acName": "Amadalavalasa",
    "partNumber": 213,
    "partName": "TIMADAM",
    "lat": 18.5145871,
    "lon": 83.9749495
  },
  {
    "partId": 1808,
    "stateCode": "S01",
    "stateName": "Andhra Pradesh",
    "districtCode": "S0101",
    "districtName": "Srikakulam",
    "acNumber": 6,
    "acName": "Amadalavalasa",
    "partNumber": 214,
    "partName": "Appalapatnaikunipeta",
    "lat": 18.3999053,
    "lon": 83.86063712402112
  },
  {
    "partId": 33182,
    "stateCode": "S01",
    "stateName": "Andhra Pradesh",
    "districtCode": "S0101",
    "districtName": "Srikakulam",
    "acNumber": 6,
    "acName": "Amadalavalasa",
    "partNumber": 215,
    "partName": "Peddapeta",
    "lat": 18.5586983,
    "lon": 83.8077141
  },
  {
    "partId": 2594,
    "stateCode": "S01",
    "stateName": "Andhra Pradesh",
    "districtCode": "S0101",
    "districtName": "Srikakulam",
    "acNumber": 6,
    "acName": "Amadalavalasa",
    "partNumber": 216,
    "partName": "KONDAPETA",
    "lat": 18.4186619714876,
    "lon": 83.88475497916689
  },
  {
    "partId": 2593,
    "stateCode": "S01",
    "stateName": "Andhra Pradesh",
    "districtCode": "S0101",
    "districtName": "Srikakulam",
    "acNumber": 6,
    "acName": "Amadalavalasa",
    "partNumber": 217,
    "partName": "JAGANNADHAPURAM",
    "lat": 18.8213751,
    "lon": 84.5131315
  },
  {
    "partId": 2592,
    "stateCode": "S01",
    "stateName": "Andhra Pradesh",
    "districtCode": "S0101",
    "districtName": "Srikakulam",
    "acNumber": 6,
    "acName": "Amadalavalasa",
    "partNumber": 218,
    "partName": "NEELAPURAM",
    "lat": 18.3999053,
    "lon": 83.86063712402112
  },
  {
    "partId": 33181,
    "stateCode": "S01",
    "stateName": "Andhra Pradesh",
    "districtCode": "S0101",
    "districtName": "Srikakulam",
    "acNumber": 6,
    "acName": "Amadalavalasa",
    "partNumber": 219,
    "partName": "Palavalasa",
    "lat": 18.4186619714876,
    "lon": 83.88475497916689
  },
  {
    "partId": 33180,
    "stateCode": "S01",
    "stateName": "Andhra Pradesh",
    "districtCode": "S0101",
    "districtName": "Srikakulam",
    "acNumber": 6,
    "acName": "Amadalavalasa",
    "partNumber": 220,
    "partName": "P.Ramannapeta",
    "lat": 18.4186619714876,
    "lon": 83.88475497916689
  },
  {
    "partId": 33254,
    "stateCode": "S01",
    "stateName": "Andhra Pradesh",
    "districtCode": "S0101",
    "districtName": "Srikakulam",
    "acNumber": 6,
    "acName": "Amadalavalasa",
    "partNumber": 221,
    "partName": "Donkalapartha",
    "lat": 18.4186619714876,
    "lon": 83.88475497916689
  },
  {
    "partId": 33263,
    "stateCode": "S01",
    "stateName": "Andhra Pradesh",
    "districtCode": "S0101",
    "districtName": "Srikakulam",
    "acNumber": 6,
    "acName": "Amadalavalasa",
    "partNumber": 222,
    "partName": "TUDDALI",
    "lat": 18.5845094,
    "lon": 83.7845953
  },
  {
    "partId": 33253,
    "stateCode": "S01",
    "stateName": "Andhra Pradesh",
    "districtCode": "S0101",
    "districtName": "Srikakulam",
    "acNumber": 6,
    "acName": "Amadalavalasa",
    "partNumber": 223,
    "partName": "Lakkupuram",
    "lat": 18.5689211,
    "lon": 83.7892604
  },
  {
    "partId": 33172,
    "stateCode": "S01",
    "stateName": "Andhra Pradesh",
    "districtCode": "S0101",
    "districtName": "Srikakulam",
    "acNumber": 6,
    "acName": "Amadalavalasa",
    "partNumber": 224,
    "partName": "Lakkupuram",
    "lat": 18.5689211,
    "lon": 83.7892604
  },
  {
    "partId": 33251,
    "stateCode": "S01",
    "stateName": "Andhra Pradesh",
    "districtCode": "S0101",
    "districtName": "Srikakulam",
    "acNumber": 6,
    "acName": "Amadalavalasa",
    "partNumber": 225,
    "partName": "Allina",
    "lat": 18.3999053,
    "lon": 83.86063712402112
  },
  {
    "partId": 33262,
    "stateCode": "S01",
    "stateName": "Andhra Pradesh",
    "districtCode": "S0101",
    "districtName": "Srikakulam",
    "acNumber": 6,
    "acName": "Amadalavalasa",
    "partNumber": 226,
    "partName": "KILANTRA",
    "lat": 18.5573423,
    "lon": 83.7809961
  },
  {
    "partId": 27538,
    "stateCode": "S01",
    "stateName": "Andhra Pradesh",
    "districtCode": "S0101",
    "districtName": "Srikakulam",
    "acNumber": 6,
    "acName": "Amadalavalasa",
    "partNumber": 227,
    "partName": "G.B.PURAM",
    "lat": 18.3999053,
    "lon": 83.86063712402112
  },
  {
    "partId": 33179,
    "stateCode": "S01",
    "stateName": "Andhra Pradesh",
    "districtCode": "S0101",
    "districtName": "Srikakulam",
    "acNumber": 6,
    "acName": "Amadalavalasa",
    "partNumber": 228,
    "partName": "Burja",
    "lat": 18.52181745,
    "lon": 83.83629414668569
  },
  {
    "partId": 33248,
    "stateCode": "S01",
    "stateName": "Andhra Pradesh",
    "districtCode": "S0101",
    "districtName": "Srikakulam",
    "acNumber": 6,
    "acName": "Amadalavalasa",
    "partNumber": 229,
    "partName": "Burja",
    "lat": 18.52181745,
    "lon": 83.83629414668569
  },
  {
    "partId": 33178,
    "stateCode": "S01",
    "stateName": "Andhra Pradesh",
    "districtCode": "S0101",
    "districtName": "Srikakulam",
    "acNumber": 6,
    "acName": "Amadalavalasa",
    "partNumber": 230,
    "partName": "VAVAM",
    "lat": 18.5272979,
    "lon": 83.7983076
  },
  {
    "partId": 33246,
    "stateCode": "S01",
    "stateName": "Andhra Pradesh",
    "districtCode": "S0101",
    "districtName": "Srikakulam",
    "acNumber": 6,
    "acName": "Amadalavalasa",
    "partNumber": 231,
    "partName": "K.K.Rajapuram",
    "lat": 18.4186619714876,
    "lon": 83.88475497916689
  },
  {
    "partId": 33177,
    "stateCode": "S01",
    "stateName": "Andhra Pradesh",
    "districtCode": "S0101",
    "districtName": "Srikakulam",
    "acNumber": 6,
    "acName": "Amadalavalasa",
    "partNumber": 232,
    "partName": "P.L.Devipeta",
    "lat": 18.3999053,
    "lon": 83.86063712402112
  },
  {
    "partId": 33244,
    "stateCode": "S01",
    "stateName": "Andhra Pradesh",
    "districtCode": "S0101",
    "districtName": "Srikakulam",
    "acNumber": 6,
    "acName": "Amadalavalasa",
    "partNumber": 233,
    "partName": "Neeladevipuram",
    "lat": 18.5163816,
    "lon": 83.8103096
  },
  {
    "partId": 2584,
    "stateCode": "S01",
    "stateName": "Andhra Pradesh",
    "districtCode": "S0101",
    "districtName": "Srikakulam",
    "acNumber": 6,
    "acName": "Amadalavalasa",
    "partNumber": 234,
    "partName": "Nealadevipuram",
    "lat": 18.3999053,
    "lon": 83.86063712402112
  },
  {
    "partId": 33243,
    "stateCode": "S01",
    "stateName": "Andhra Pradesh",
    "districtCode": "S0101",
    "districtName": "Srikakulam",
    "acNumber": 6,
    "acName": "Amadalavalasa",
    "partNumber": 235,
    "partName": "Mamidivalasa",
    "lat": 18.3359729,
    "lon": 83.9684022
  },
  {
    "partId": 33242,
    "stateCode": "S01",
    "stateName": "Andhra Pradesh",
    "districtCode": "S0101",
    "districtName": "Srikakulam",
    "acNumber": 6,
    "acName": "Amadalavalasa",
    "partNumber": 236,
    "partName": "Lankam",
    "lat": 18.3690004,
    "lon": 83.9038125
  },
  {
    "partId": 2583,
    "stateCode": "S01",
    "stateName": "Andhra Pradesh",
    "districtCode": "S0101",
    "districtName": "Srikakulam",
    "acNumber": 6,
    "acName": "Amadalavalasa",
    "partNumber": 237,
    "partName": "Pedda Lankam",
    "lat": 18.3999053,
    "lon": 83.86063712402112
  },
  {
    "partId": 27537,
    "stateCode": "S01",
    "stateName": "Andhra Pradesh",
    "districtCode": "S0101",
    "districtName": "Srikakulam",
    "acNumber": 6,
    "acName": "Amadalavalasa",
    "partNumber": 238,
    "partName": "KAKANDYAM",
    "lat": 18.3999053,
    "lon": 83.86063712402112
  },
  {
    "partId": 33258,
    "stateCode": "S01",
    "stateName": "Andhra Pradesh",
    "districtCode": "S0101",
    "districtName": "Srikakulam",
    "acNumber": 6,
    "acName": "Amadalavalasa",
    "partNumber": 239,
    "partName": "Kollivalasa",
    "lat": 18.3679464,
    "lon": 84.0669965
  },
  {
    "partId": 27539,
    "stateCode": "S01",
    "stateName": "Andhra Pradesh",
    "districtCode": "S0101",
    "districtName": "Srikakulam",
    "acNumber": 6,
    "acName": "Amadalavalasa",
    "partNumber": 240,
    "partName": "GANGAMPETA",
    "lat": 18.3999053,
    "lon": 83.86063712402112
  },
  {
    "partId": 33228,
    "stateCode": "S01",
    "stateName": "Andhra Pradesh",
    "districtCode": "S0101",
    "districtName": "Srikakulam",
    "acNumber": 6,
    "acName": "Amadalavalasa",
    "partNumber": 241,
    "partName": "Chidivalasa",
    "lat": 18.4127847,
    "lon": 84.0760661
  },
  {
    "partId": 33227,
    "stateCode": "S01",
    "stateName": "Andhra Pradesh",
    "districtCode": "S0101",
    "districtName": "Srikakulam",
    "acNumber": 6,
    "acName": "Amadalavalasa",
    "partNumber": 242,
    "partName": "LATCHAIAHPETA",
    "lat": 18.3999053,
    "lon": 83.86063712402112
  },
  {
    "partId": 12473,
    "stateCode": "S01",
    "stateName": "Andhra Pradesh",
    "districtCode": "S0101",
    "districtName": "Srikakulam",
    "acNumber": 6,
    "acName": "Amadalavalasa",
    "partNumber": 243,
    "partName": "KANTLAM",
    "lat": 18.3999053,
    "lon": 83.86063712402112
  },
  {
    "partId": 33226,
    "stateCode": "S01",
    "stateName": "Andhra Pradesh",
    "districtCode": "S0101",
    "districtName": "Srikakulam",
    "acNumber": 6,
    "acName": "Amadalavalasa",
    "partNumber": 244,
    "partName": "Labam",
    "lat": 18.3999053,
    "lon": 83.86063712402112
  },
  {
    "partId": 2582,
    "stateCode": "S01",
    "stateName": "Andhra Pradesh",
    "districtCode": "S0101",
    "districtName": "Srikakulam",
    "acNumber": 6,
    "acName": "Amadalavalasa",
    "partNumber": 245,
    "partName": "Labam",
    "lat": 18.3999053,
    "lon": 83.86063712402112
  },
  {
    "partId": 33225,
    "stateCode": "S01",
    "stateName": "Andhra Pradesh",
    "districtCode": "S0101",
    "districtName": "Srikakulam",
    "acNumber": 6,
    "acName": "Amadalavalasa",
    "partNumber": 246,
    "partName": "Guttavilli",
    "lat": 18.4711238,
    "lon": 83.823871
  },
  {
    "partId": 33224,
    "stateCode": "S01",
    "stateName": "Andhra Pradesh",
    "districtCode": "S0101",
    "districtName": "Srikakulam",
    "acNumber": 6,
    "acName": "Amadalavalasa",
    "partNumber": 247,
    "partName": "Guttavilli",
    "lat": 18.4711238,
    "lon": 83.823871
  },
  {
    "partId": 33154,
    "stateCode": "S01",
    "stateName": "Andhra Pradesh",
    "districtCode": "S0101",
    "districtName": "Srikakulam",
    "acNumber": 6,
    "acName": "Amadalavalasa",
    "partNumber": 248,
    "partName": "Kalaparthi",
    "lat": 18.3999053,
    "lon": 83.86063712402112
  },
  {
    "partId": 12472,
    "stateCode": "S01",
    "stateName": "Andhra Pradesh",
    "districtCode": "S0101",
    "districtName": "Srikakulam",
    "acNumber": 6,
    "acName": "Amadalavalasa",
    "partNumber": 249,
    "partName": "G.K.R.PURAM",
    "lat": 18.3999053,
    "lon": 83.86063712402112
  },
  {
    "partId": 36470,
    "stateCode": "S01",
    "stateName": "Andhra Pradesh",
    "districtCode": "S0101",
    "districtName": "Srikakulam",
    "acNumber": 6,
    "acName": "Amadalavalasa",
    "partNumber": 250,
    "partName": "CHALIKAM",
    "lat": 18.3999053,
    "lon": 83.86063712402112
  },
  {
    "partId": 33153,
    "stateCode": "S01",
    "stateName": "Andhra Pradesh",
    "districtCode": "S0101",
    "districtName": "Srikakulam",
    "acNumber": 6,
    "acName": "Amadalavalasa",
    "partNumber": 251,
    "partName": "Venkumpeta",
    "lat": 18.3999053,
    "lon": 83.86063712402112
  },
  {
    "partId": 33152,
    "stateCode": "S01",
    "stateName": "Andhra Pradesh",
    "districtCode": "S0101",
    "districtName": "Srikakulam",
    "acNumber": 6,
    "acName": "Amadalavalasa",
    "partNumber": 252,
    "partName": "Opiwada",
    "lat": 18.3999053,
    "lon": 83.86063712402112
  },
  {
    "partId": 2581,
    "stateCode": "S01",
    "stateName": "Andhra Pradesh",
    "districtCode": "S0101",
    "districtName": "Srikakulam",
    "acNumber": 6,
    "acName": "Amadalavalasa",
    "partNumber": 253,
    "partName": "Hanumayapeta",
    "lat": 18.3999053,
    "lon": 83.86063712402112
  },
  {
    "partId": 33151,
    "stateCode": "S01",
    "stateName": "Andhra Pradesh",
    "districtCode": "S0101",
    "districtName": "Srikakulam",
    "acNumber": 6,
    "acName": "Amadalavalasa",
    "partNumber": 254,
    "partName": "Uppinivalasa",
    "lat": 18.3999053,
    "lon": 83.86063712402112
  },
  {
    "partId": 33150,
    "stateCode": "S01",
    "stateName": "Andhra Pradesh",
    "districtCode": "S0101",
    "districtName": "Srikakulam",
    "acNumber": 6,
    "acName": "Amadalavalasa",
    "partNumber": 255,
    "partName": "A. B. C. PETA",
    "lat": 18.3999053,
    "lon": 83.86063712402112
  },
  {
    "partId": 33149,
    "stateCode": "S01",
    "stateName": "Andhra Pradesh",
    "districtCode": "S0101",
    "districtName": "Srikakulam",
    "acNumber": 6,
    "acName": "Amadalavalasa",
    "partNumber": 256,
    "partName": "Boragavalasa",
    "lat": 18.3999053,
    "lon": 83.86063712402112
  },
  {
    "partId": 36469,
    "stateCode": "S01",
    "stateName": "Andhra Pradesh",
    "districtCode": "S0101",
    "districtName": "Srikakulam",
    "acNumber": 6,
    "acName": "Amadalavalasa",
    "partNumber": 257,
    "partName": "KORAGAM",
    "lat": 18.3999053,
    "lon": 83.86063712402112
  },
  {
    "partId": 33176,
    "stateCode": "S01",
    "stateName": "Andhra Pradesh",
    "districtCode": "S0101",
    "districtName": "Srikakulam",
    "acNumber": 6,
    "acName": "Amadalavalasa",
    "partNumber": 258,
    "partName": "Vykuntapuram",
    "lat": 18.4186619714876,
    "lon": 83.88475497916689
  },
  {
    "partId": 33189,
    "stateCode": "S01",
    "stateName": "Andhra Pradesh",
    "districtCode": "S0101",
    "districtName": "Srikakulam",
    "acNumber": 6,
    "acName": "Amadalavalasa",
    "partNumber": 259,
    "partName": "BODDAPADU",
    "lat": 18.3999053,
    "lon": 83.86063712402112
  },
  {
    "partId": 44161,
    "stateCode": "S01",
    "stateName": "Andhra Pradesh",
    "districtCode": "S0101",
    "districtName": "Srikakulam",
    "acNumber": 7,
    "acName": "Etcherla",
    "partNumber": 1,
    "partName": "Penta",
    "lat": 18.424426,
    "lon": 83.7098253
  },
  {
    "partId": 43562,
    "stateCode": "S01",
    "stateName": "Andhra Pradesh",
    "districtCode": "S0101",
    "districtName": "Srikakulam",
    "acNumber": 7,
    "acName": "Etcherla",
    "partNumber": 2,
    "partName": "Penta",
    "lat": 18.424426,
    "lon": 83.7098253
  },
  {
    "partId": 43533,
    "stateCode": "S01",
    "stateName": "Andhra Pradesh",
    "districtCode": "S0101",
    "districtName": "Srikakulam",
    "acNumber": 7,
    "acName": "Etcherla",
    "partNumber": 3,
    "partName": "NAGULAVALASA",
    "lat": 18.4309634,
    "lon": 83.7076628
  },
  {
    "partId": 43559,
    "stateCode": "S01",
    "stateName": "Andhra Pradesh",
    "districtCode": "S0101",
    "districtName": "Srikakulam",
    "acNumber": 7,
    "acName": "Etcherla",
    "partNumber": 4,
    "partName": "Marrivalasa",
    "lat": 18.4109422,
    "lon": 83.7038685
  },
  {
    "partId": 1882,
    "stateCode": "S01",
    "stateName": "Andhra Pradesh",
    "districtCode": "S0101",
    "districtName": "Srikakulam",
    "acNumber": 7,
    "acName": "Etcherla",
    "partNumber": 5,
    "partName": "GEDALAPETA",
    "lat": 18.4058167,
    "lon": 83.7190993
  },
  {
    "partId": 1846,
    "stateCode": "S01",
    "stateName": "Andhra Pradesh",
    "districtCode": "S0101",
    "districtName": "Srikakulam",
    "acNumber": 7,
    "acName": "Etcherla",
    "partNumber": 6,
    "partName": "Seethampeta",
    "lat": 18.695397,
    "lon": 83.816622
  },
  {
    "partId": 44160,
    "stateCode": "S01",
    "stateName": "Andhra Pradesh",
    "districtCode": "S0101",
    "districtName": "Srikakulam",
    "acNumber": 7,
    "acName": "Etcherla",
    "partNumber": 7,
    "partName": "NAKKAPETA",
    "lat": 18.3791972,
    "lon": 83.9325849
  },
  {
    "partId": 33134,
    "stateCode": "S01",
    "stateName": "Andhra Pradesh",
    "districtCode": "S0101",
    "districtName": "Srikakulam",
    "acNumber": 7,
    "acName": "Etcherla",
    "partNumber": 8,
    "partName": "G Sigadam",
    "lat": 18.2434441,
    "lon": 83.86439800106295
  },
  {
    "partId": 43478,
    "stateCode": "S01",
    "stateName": "Andhra Pradesh",
    "districtCode": "S0101",
    "districtName": "Srikakulam",
    "acNumber": 7,
    "acName": "Etcherla",
    "partNumber": 9,
    "partName": "G.Sigadam",
    "lat": 18.2434441,
    "lon": 83.86439800106295
  },
  {
    "partId": 44834,
    "stateCode": "S01",
    "stateName": "Andhra Pradesh",
    "districtCode": "S0101",
    "districtName": "Srikakulam",
    "acNumber": 7,
    "acName": "Etcherla",
    "partNumber": 10,
    "partName": "G Sigadaamu",
    "lat": 18.2434441,
    "lon": 83.86439800106295
  },
  {
    "partId": 44833,
    "stateCode": "S01",
    "stateName": "Andhra Pradesh",
    "districtCode": "S0101",
    "districtName": "Srikakulam",
    "acNumber": 7,
    "acName": "Etcherla",
    "partNumber": 11,
    "partName": "G Sigaadaamu",
    "lat": 18.2434441,
    "lon": 83.86439800106295
  },
  {
    "partId": 1898,
    "stateCode": "S01",
    "stateName": "Andhra Pradesh",
    "districtCode": "S0101",
    "districtName": "Srikakulam",
    "acNumber": 7,
    "acName": "Etcherla",
    "partNumber": 12,
    "partName": "G.Sigadam",
    "lat": 18.270423171771217,
    "lon": 83.83601865161383
  },
  {
    "partId": 33132,
    "stateCode": "S01",
    "stateName": "Andhra Pradesh",
    "districtCode": "S0101",
    "districtName": "Srikakulam",
    "acNumber": 7,
    "acName": "Etcherla",
    "partNumber": 13,
    "partName": "Enduva",
    "lat": 18.3522187,
    "lon": 83.6603613
  },
  {
    "partId": 1884,
    "stateCode": "S01",
    "stateName": "Andhra Pradesh",
    "districtCode": "S0101",
    "districtName": "Srikakulam",
    "acNumber": 7,
    "acName": "Etcherla",
    "partNumber": 14,
    "partName": "NARISIMHAPURAM",
    "lat": 18.2434441,
    "lon": 83.86439800106295
  },
  {
    "partId": 33131,
    "stateCode": "S01",
    "stateName": "Andhra Pradesh",
    "districtCode": "S0101",
    "districtName": "Srikakulam",
    "acNumber": 7,
    "acName": "Etcherla",
    "partNumber": 15,
    "partName": "Venkayyapeta",
    "lat": 18.4204711,
    "lon": 83.8793133
  },
  {
    "partId": 43500,
    "stateCode": "S01",
    "stateName": "Andhra Pradesh",
    "districtCode": "S0101",
    "districtName": "Srikakulam",
    "acNumber": 7,
    "acName": "Etcherla",
    "partNumber": 16,
    "partName": "YENDUVAPETA",
    "lat": 18.3727077,
    "lon": 83.6613242
  },
  {
    "partId": 33130,
    "stateCode": "S01",
    "stateName": "Andhra Pradesh",
    "districtCode": "S0101",
    "districtName": "Srikakulam",
    "acNumber": 7,
    "acName": "Etcherla",
    "partNumber": 17,
    "partName": "Jagannadhavalasata",
    "lat": 18.270423171771217,
    "lon": 83.83601865161383
  },
  {
    "partId": 33169,
    "stateCode": "S01",
    "stateName": "Andhra Pradesh",
    "districtCode": "S0101",
    "districtName": "Srikakulam",
    "acNumber": 7,
    "acName": "Etcherla",
    "partNumber": 18,
    "partName": "Jada",
    "lat": 18.3698978,
    "lon": 83.6377343
  },
  {
    "partId": 28547,
    "stateCode": "S01",
    "stateName": "Andhra Pradesh",
    "districtCode": "S0101",
    "districtName": "Srikakulam",
    "acNumber": 7,
    "acName": "Etcherla",
    "partNumber": 19,
    "partName": "Jada Mukkupeta",
    "lat": 18.2434441,
    "lon": 83.86439800106295
  },
  {
    "partId": 43564,
    "stateCode": "S01",
    "stateName": "Andhra Pradesh",
    "districtCode": "S0101",
    "districtName": "Srikakulam",
    "acNumber": 7,
    "acName": "Etcherla",
    "partNumber": 20,
    "partName": "Daalemrajavalasa",
    "lat": 18.2434441,
    "lon": 83.86439800106295
  },
  {
    "partId": 33133,
    "stateCode": "S01",
    "stateName": "Andhra Pradesh",
    "districtCode": "S0101",
    "districtName": "Srikakulam",
    "acNumber": 7,
    "acName": "Etcherla",
    "partNumber": 21,
    "partName": "D.R.VALASA",
    "lat": 18.2434441,
    "lon": 83.86439800106295
  },
  {
    "partId": 43563,
    "stateCode": "S01",
    "stateName": "Andhra Pradesh",
    "districtCode": "S0101",
    "districtName": "Srikakulam",
    "acNumber": 7,
    "acName": "Etcherla",
    "partNumber": 22,
    "partName": "PUNNAM",
    "lat": 18.3496889,
    "lon": 83.6127575
  },
  {
    "partId": 43499,
    "stateCode": "S01",
    "stateName": "Andhra Pradesh",
    "districtCode": "S0101",
    "districtName": "Srikakulam",
    "acNumber": 7,
    "acName": "Etcherla",
    "partNumber": 23,
    "partName": "VULLIVALASA",
    "lat": 18.2434441,
    "lon": 83.86439800106295
  },
  {
    "partId": 33166,
    "stateCode": "S01",
    "stateName": "Andhra Pradesh",
    "districtCode": "S0101",
    "districtName": "Srikakulam",
    "acNumber": 7,
    "acName": "Etcherla",
    "partNumber": 24,
    "partName": "Mushinivalasa",
    "lat": 18.3766069,
    "lon": 83.6135083
  },
  {
    "partId": 1883,
    "stateCode": "S01",
    "stateName": "Andhra Pradesh",
    "districtCode": "S0101",
    "districtName": "Srikakulam",
    "acNumber": 7,
    "acName": "Etcherla",
    "partNumber": 25,
    "partName": "SARVESWARAPURAM",
    "lat": 18.2434441,
    "lon": 83.86439800106295
  },
  {
    "partId": 44832,
    "stateCode": "S01",
    "stateName": "Andhra Pradesh",
    "districtCode": "S0101",
    "districtName": "Srikakulam",
    "acNumber": 7,
    "acName": "Etcherla",
    "partNumber": 26,
    "partName": "BATHUVA",
    "lat": 18.2434441,
    "lon": 83.86439800106295
  },
  {
    "partId": 44831,
    "stateCode": "S01",
    "stateName": "Andhra Pradesh",
    "districtCode": "S0101",
    "districtName": "Srikakulam",
    "acNumber": 7,
    "acName": "Etcherla",
    "partNumber": 27,
    "partName": "BATHUVA",
    "lat": 18.2434441,
    "lon": 83.86439800106295
  },
  {
    "partId": 1845,
    "stateCode": "S01",
    "stateName": "Andhra Pradesh",
    "districtCode": "S0101",
    "districtName": "Srikakulam",
    "acNumber": 7,
    "acName": "Etcherla",
    "partNumber": 28,
    "partName": "BATUVA",
    "lat": 18.3419261,
    "lon": 83.6259033
  },
  {
    "partId": 43561,
    "stateCode": "S01",
    "stateName": "Andhra Pradesh",
    "districtCode": "S0101",
    "districtName": "Srikakulam",
    "acNumber": 7,
    "acName": "Etcherla",
    "partNumber": 29,
    "partName": "GEDDAKANCHARAM",
    "lat": 18.2434441,
    "lon": 83.86439800106295
  },
  {
    "partId": 43560,
    "stateCode": "S01",
    "stateName": "Andhra Pradesh",
    "districtCode": "S0101",
    "districtName": "Srikakulam",
    "acNumber": 7,
    "acName": "Etcherla",
    "partNumber": 30,
    "partName": "Geddakancharam",
    "lat": 18.2434441,
    "lon": 83.86439800106295
  },
  {
    "partId": 1897,
    "stateCode": "S01",
    "stateName": "Andhra Pradesh",
    "districtCode": "S0101",
    "districtName": "Srikakulam",
    "acNumber": 7,
    "acName": "Etcherla",
    "partNumber": 31,
    "partName": "Gedda Kancharam",
    "lat": 18.3377977,
    "lon": 83.6512609
  },
  {
    "partId": 33127,
    "stateCode": "S01",
    "stateName": "Andhra Pradesh",
    "districtCode": "S0101",
    "districtName": "Srikakulam",
    "acNumber": 7,
    "acName": "Etcherla",
    "partNumber": 32,
    "partName": "Sethu Bhimavaram",
    "lat": 18.2434441,
    "lon": 83.86439800106295
  },
  {
    "partId": 33126,
    "stateCode": "S01",
    "stateName": "Andhra Pradesh",
    "districtCode": "S0101",
    "districtName": "Srikakulam",
    "acNumber": 7,
    "acName": "Etcherla",
    "partNumber": 33,
    "partName": "PENASAM",
    "lat": 18.3252224,
    "lon": 83.6778771
  },
  {
    "partId": 43498,
    "stateCode": "S01",
    "stateName": "Andhra Pradesh",
    "districtCode": "S0101",
    "districtName": "Srikakulam",
    "acNumber": 7,
    "acName": "Etcherla",
    "partNumber": 34,
    "partName": "GANGANNADHORAPALEM",
    "lat": 18.2434441,
    "lon": 83.86439800106295
  },
  {
    "partId": 44169,
    "stateCode": "S01",
    "stateName": "Andhra Pradesh",
    "districtCode": "S0101",
    "districtName": "Srikakulam",
    "acNumber": 7,
    "acName": "Etcherla",
    "partNumber": 35,
    "partName": "Devaravalasa",
    "lat": 18.3294931,
    "lon": 83.7026306
  },
  {
    "partId": 43558,
    "stateCode": "S01",
    "stateName": "Andhra Pradesh",
    "districtCode": "S0101",
    "districtName": "Srikakulam",
    "acNumber": 7,
    "acName": "Etcherla",
    "partNumber": 36,
    "partName": "DEVARAVALASA",
    "lat": 18.3294931,
    "lon": 83.7026306
  },
  {
    "partId": 1863,
    "stateCode": "S01",
    "stateName": "Andhra Pradesh",
    "districtCode": "S0101",
    "districtName": "Srikakulam",
    "acNumber": 7,
    "acName": "Etcherla",
    "partNumber": 37,
    "partName": "Chandrayyapeta",
    "lat": 18.5928302,
    "lon": 84.1209472
  },
  {
    "partId": 1859,
    "stateCode": "S01",
    "stateName": "Andhra Pradesh",
    "districtCode": "S0101",
    "districtName": "Srikakulam",
    "acNumber": 7,
    "acName": "Etcherla",
    "partNumber": 38,
    "partName": "Velagaad",
    "lat": 18.2434441,
    "lon": 83.86439800106295
  },
  {
    "partId": 43497,
    "stateCode": "S01",
    "stateName": "Andhra Pradesh",
    "districtCode": "S0101",
    "districtName": "Srikakulam",
    "acNumber": 7,
    "acName": "Etcherla",
    "partNumber": 39,
    "partName": "KAPPARAM",
    "lat": 18.270423171771217,
    "lon": 83.83601865161383
  },
  {
    "partId": 43496,
    "stateCode": "S01",
    "stateName": "Andhra Pradesh",
    "districtCode": "S0101",
    "districtName": "Srikakulam",
    "acNumber": 7,
    "acName": "Etcherla",
    "partNumber": 40,
    "partName": "Nadimivalasa",
    "lat": 18.3500569,
    "lon": 83.6746022
  },
  {
    "partId": 1896,
    "stateCode": "S01",
    "stateName": "Andhra Pradesh",
    "districtCode": "S0101",
    "districtName": "Srikakulam",
    "acNumber": 7,
    "acName": "Etcherla",
    "partNumber": 41,
    "partName": "Nadimivalasa",
    "lat": 18.3500569,
    "lon": 83.6746022
  },
  {
    "partId": 43495,
    "stateCode": "S01",
    "stateName": "Andhra Pradesh",
    "districtCode": "S0101",
    "districtName": "Srikakulam",
    "acNumber": 7,
    "acName": "Etcherla",
    "partNumber": 42,
    "partName": "S.P.R. PURAM",
    "lat": 18.2434441,
    "lon": 83.86439800106295
  },
  {
    "partId": 1856,
    "stateCode": "S01",
    "stateName": "Andhra Pradesh",
    "districtCode": "S0101",
    "districtName": "Srikakulam",
    "acNumber": 7,
    "acName": "Etcherla",
    "partNumber": 43,
    "partName": "Chettupodilaamu",
    "lat": 18.2434441,
    "lon": 83.86439800106295
  },
  {
    "partId": 44812,
    "stateCode": "S01",
    "stateName": "Andhra Pradesh",
    "districtCode": "S0101",
    "districtName": "Srikakulam",
    "acNumber": 7,
    "acName": "Etcherla",
    "partNumber": 44,
    "partName": "Niddaamu",
    "lat": 18.2434441,
    "lon": 83.86439800106295
  },
  {
    "partId": 43557,
    "stateCode": "S01",
    "stateName": "Andhra Pradesh",
    "districtCode": "S0101",
    "districtName": "Srikakulam",
    "acNumber": 7,
    "acName": "Etcherla",
    "partNumber": 45,
    "partName": "Niddaamu",
    "lat": 18.2434441,
    "lon": 83.86439800106295
  },
  {
    "partId": 1895,
    "stateCode": "S01",
    "stateName": "Andhra Pradesh",
    "districtCode": "S0101",
    "districtName": "Srikakulam",
    "acNumber": 7,
    "acName": "Etcherla",
    "partNumber": 46,
    "partName": "Niddam",
    "lat": 18.3692369,
    "lon": 83.7122433
  },
  {
    "partId": 43494,
    "stateCode": "S01",
    "stateName": "Andhra Pradesh",
    "districtCode": "S0101",
    "districtName": "Srikakulam",
    "acNumber": 7,
    "acName": "Etcherla",
    "partNumber": 47,
    "partName": "Madhupam",
    "lat": 18.3492891,
    "lon": 83.7156463
  },
  {
    "partId": 44810,
    "stateCode": "S01",
    "stateName": "Andhra Pradesh",
    "districtCode": "S0101",
    "districtName": "Srikakulam",
    "acNumber": 7,
    "acName": "Etcherla",
    "partNumber": 48,
    "partName": "Mettavalasa",
    "lat": 18.2082514,
    "lon": 83.7369671
  },
  {
    "partId": 28546,
    "stateCode": "S01",
    "stateName": "Andhra Pradesh",
    "districtCode": "S0101",
    "districtName": "Srikakulam",
    "acNumber": 7,
    "acName": "Etcherla",
    "partNumber": 49,
    "partName": "Mettavalasa",
    "lat": 18.2082514,
    "lon": 83.7369671
  },
  {
    "partId": 44809,
    "stateCode": "S01",
    "stateName": "Andhra Pradesh",
    "districtCode": "S0101",
    "districtName": "Srikakulam",
    "acNumber": 7,
    "acName": "Etcherla",
    "partNumber": 50,
    "partName": "Gobburu",
    "lat": 18.381271,
    "lon": 83.6964775
  },
  {
    "partId": 43493,
    "stateCode": "S01",
    "stateName": "Andhra Pradesh",
    "districtCode": "S0101",
    "districtName": "Srikakulam",
    "acNumber": 7,
    "acName": "Etcherla",
    "partNumber": 51,
    "partName": "PALAKHANDIYAM",
    "lat": 18.2434441,
    "lon": 83.86439800106295
  },
  {
    "partId": 43492,
    "stateCode": "S01",
    "stateName": "Andhra Pradesh",
    "districtCode": "S0101",
    "districtName": "Srikakulam",
    "acNumber": 7,
    "acName": "Etcherla",
    "partNumber": 52,
    "partName": "JAGANNADAPURAM",
    "lat": 18.2434441,
    "lon": 83.86439800106295
  },
  {
    "partId": 43491,
    "stateCode": "S01",
    "stateName": "Andhra Pradesh",
    "districtCode": "S0101",
    "districtName": "Srikakulam",
    "acNumber": 7,
    "acName": "Etcherla",
    "partNumber": 53,
    "partName": "Tankala  Duggivalasa",
    "lat": 18.4062265,
    "lon": 83.7314838
  },
  {
    "partId": 43490,
    "stateCode": "S01",
    "stateName": "Andhra Pradesh",
    "districtCode": "S0101",
    "districtName": "Srikakulam",
    "acNumber": 7,
    "acName": "Etcherla",
    "partNumber": 54,
    "partName": "Santha vuriti",
    "lat": 18.2434441,
    "lon": 83.86439800106295
  },
  {
    "partId": 43489,
    "stateCode": "S01",
    "stateName": "Andhra Pradesh",
    "districtCode": "S0101",
    "districtName": "Srikakulam",
    "acNumber": 7,
    "acName": "Etcherla",
    "partNumber": 55,
    "partName": "DAVALAPETA",
    "lat": 18.270423171771217,
    "lon": 83.83601865161383
  },
  {
    "partId": 1843,
    "stateCode": "S01",
    "stateName": "Andhra Pradesh",
    "districtCode": "S0101",
    "districtName": "Srikakulam",
    "acNumber": 7,
    "acName": "Etcherla",
    "partNumber": 56,
    "partName": "VIJAYARAMAPURAM",
    "lat": 18.2434441,
    "lon": 83.86439800106295
  },
  {
    "partId": 1844,
    "stateCode": "S01",
    "stateName": "Andhra Pradesh",
    "districtCode": "S0101",
    "districtName": "Srikakulam",
    "acNumber": 7,
    "acName": "Etcherla",
    "partNumber": 57,
    "partName": "Santha vuriti",
    "lat": 18.2434441,
    "lon": 83.86439800106295
  },
  {
    "partId": 33168,
    "stateCode": "S01",
    "stateName": "Andhra Pradesh",
    "districtCode": "S0101",
    "districtName": "Srikakulam",
    "acNumber": 7,
    "acName": "Etcherla",
    "partNumber": 58,
    "partName": "SEETHARAMAPURAM",
    "lat": 18.5148131,
    "lon": 84.1009292
  },
  {
    "partId": 44183,
    "stateCode": "S01",
    "stateName": "Andhra Pradesh",
    "districtCode": "S0101",
    "districtName": "Srikakulam",
    "acNumber": 7,
    "acName": "Etcherla",
    "partNumber": 59,
    "partName": "ANANDAPURAM",
    "lat": 18.6935351,
    "lon": 84.3665907
  },
  {
    "partId": 43556,
    "stateCode": "S01",
    "stateName": "Andhra Pradesh",
    "districtCode": "S0101",
    "districtName": "Srikakulam",
    "acNumber": 7,
    "acName": "Etcherla",
    "partNumber": 60,
    "partName": "ANANDAPURAM",
    "lat": 18.6935351,
    "lon": 84.3665907
  },
  {
    "partId": 33167,
    "stateCode": "S01",
    "stateName": "Andhra Pradesh",
    "districtCode": "S0101",
    "districtName": "Srikakulam",
    "acNumber": 7,
    "acName": "Etcherla",
    "partNumber": 61,
    "partName": "ABHOTULAPETA",
    "lat": 18.2434441,
    "lon": 83.86439800106295
  },
  {
    "partId": 44182,
    "stateCode": "S01",
    "stateName": "Andhra Pradesh",
    "districtCode": "S0101",
    "districtName": "Srikakulam",
    "acNumber": 7,
    "acName": "Etcherla",
    "partNumber": 62,
    "partName": "Vandrangi",
    "lat": 18.3581299,
    "lon": 83.7451081
  },
  {
    "partId": 43555,
    "stateCode": "S01",
    "stateName": "Andhra Pradesh",
    "districtCode": "S0101",
    "districtName": "Srikakulam",
    "acNumber": 7,
    "acName": "Etcherla",
    "partNumber": 63,
    "partName": "Vandrangi",
    "lat": 18.270423171771217,
    "lon": 83.83601865161383
  },
  {
    "partId": 1873,
    "stateCode": "S01",
    "stateName": "Andhra Pradesh",
    "districtCode": "S0101",
    "districtName": "Srikakulam",
    "acNumber": 7,
    "acName": "Etcherla",
    "partNumber": 64,
    "partName": "KottaKunkam",
    "lat": 18.2434441,
    "lon": 83.86439800106295
  },
  {
    "partId": 44827,
    "stateCode": "S01",
    "stateName": "Andhra Pradesh",
    "districtCode": "S0101",
    "districtName": "Srikakulam",
    "acNumber": 7,
    "acName": "Etcherla",
    "partNumber": 65,
    "partName": "Kondakunkam",
    "lat": 18.2434441,
    "lon": 83.86439800106295
  },
  {
    "partId": 1872,
    "stateCode": "S01",
    "stateName": "Andhra Pradesh",
    "districtCode": "S0101",
    "districtName": "Srikakulam",
    "acNumber": 7,
    "acName": "Etcherla",
    "partNumber": 66,
    "partName": "Paidaivalasa",
    "lat": 18.2434441,
    "lon": 83.86439800106295
  },
  {
    "partId": 1871,
    "stateCode": "S01",
    "stateName": "Andhra Pradesh",
    "districtCode": "S0101",
    "districtName": "Srikakulam",
    "acNumber": 7,
    "acName": "Etcherla",
    "partNumber": 67,
    "partName": "PathaKunkam",
    "lat": 18.2434441,
    "lon": 83.86439800106295
  },
  {
    "partId": 44851,
    "stateCode": "S01",
    "stateName": "Andhra Pradesh",
    "districtCode": "S0101",
    "districtName": "Srikakulam",
    "acNumber": 7,
    "acName": "Etcherla",
    "partNumber": 68,
    "partName": "Pedda kothakota",
    "lat": 18.2744144,
    "lon": 83.7208142
  },
  {
    "partId": 27237,
    "stateCode": "S01",
    "stateName": "Andhra Pradesh",
    "districtCode": "S0101",
    "districtName": "Srikakulam",
    "acNumber": 7,
    "acName": "Etcherla",
    "partNumber": 69,
    "partName": "China Kothakota",
    "lat": 18.2434441,
    "lon": 83.86439800106295
  },
  {
    "partId": 27236,
    "stateCode": "S01",
    "stateName": "Andhra Pradesh",
    "districtCode": "S0101",
    "districtName": "Srikakulam",
    "acNumber": 7,
    "acName": "Etcherla",
    "partNumber": 70,
    "partName": "Pedda Lingalavalasa",
    "lat": 18.49776515,
    "lon": 84.05434918812448
  },