[
  {
    "partId": 52440,
    "stateCode": "S01",
    "stateName": "Andhra Pradesh",
    "districtCode": "S0105",
    "districtName": "Visakhapatnam",
    "acNumber": 20,
    "acName": "Bhimili",
    "partNumber": 1,
    "partName": "Potnuru",
    "lat": 18.0198759,
    "lon": 83.3205066
  },
  {
    "partId": 52431,
    "stateCode": "S01",
    "stateName": "Andhra Pradesh",
    "districtCode": "S0105",
    "districtName": "Visakhapatnam",
    "acNumber": 20,
    "acName": "Bhimili",
    "partNumber": 2,
    "partName": "Potnuru",
    "lat": 18.0198759,
    "lon": 83.3205066
  },
  {
    "partId": 52397,
    "stateCode": "S01",
    "stateName": "Andhra Pradesh",
    "districtCode": "S0105",
    "districtName": "Visakhapatnam",
    "acNumber": 20,
    "acName": "Bhimili",
    "partNumber": 3,
    "partName": "CHERIKHANDAM",
    "lat": 17.80532215,
    "lon": 83.28276772667053
  },
  {
    "partId": 52517,
    "stateCode": "S01",
    "stateName": "Andhra Pradesh",
    "districtCode": "S0105",
    "districtName": "Visakhapatnam",
    "acNumber": 20,
    "acName": "Bhimili",
    "partNumber": 4,
    "partName": "Tunivalasa",
    "lat": 17.80532215,
    "lon": 83.28276772667053
  },
  {
    "partId": 52497,
    "stateCode": "S01",
    "stateName": "Andhra Pradesh",
    "districtCode": "S0105",
    "districtName": "Visakhapatnam",
    "acNumber": 20,
    "acName": "Bhimili",
    "partNumber": 5,
    "partName": "Narsapuram",
    "lat": 17.80532215,
    "lon": 83.28276772667053
  },
  {
    "partId": 52606,
    "stateCode": "S01",
    "stateName": "Andhra Pradesh",
    "districtCode": "S0105",
    "districtName": "Visakhapatnam",
    "acNumber": 20,
    "acName": "Bhimili",
    "partNumber": 6,
    "partName": "Koyyapeta",
    "lat": 18.0423671,
    "lon": 83.3676552
  },
  {
    "partId": 52373,
    "stateCode": "S01",
    "stateName": "Andhra Pradesh",
    "districtCode": "S0105",
    "districtName": "Visakhapatnam",
    "acNumber": 20,
    "acName": "Bhimili",
    "partNumber": 7,
    "partName": "Chinnapuram",
    "lat": 18.0456209,
    "lon": 83.3718685
  },
  {
    "partId": 52562,
    "stateCode": "S01",
    "stateName": "Andhra Pradesh",
    "districtCode": "S0105",
    "districtName": "Visakhapatnam",
    "acNumber": 20,
    "acName": "Bhimili",
    "partNumber": 8,
    "partName": "Ayinada",
    "lat": 18.045436,
    "lon": 83.3974039
  },
  {
    "partId": 52313,
    "stateCode": "S01",
    "stateName": "Andhra Pradesh",
    "districtCode": "S0105",
    "districtName": "Visakhapatnam",
    "acNumber": 20,
    "acName": "Bhimili",
    "partNumber": 9,
    "partName": "Ayinada",
    "lat": 18.045436,
    "lon": 83.3974039
  },
  {
    "partId": 52327,
    "stateCode": "S01",
    "stateName": "Andhra Pradesh",
    "districtCode": "S0105",
    "districtName": "Visakhapatnam",
    "acNumber": 20,
    "acName": "Bhimili",
    "partNumber": 10,
    "partName": "B.Tallavalasa",
    "lat": 17.9110237,
    "lon": 83.411374
  },
  {
    "partId": 52581,
    "stateCode": "S01",
    "stateName": "Andhra Pradesh",
    "districtCode": "S0105",
    "districtName": "Visakhapatnam",
    "acNumber": 20,
    "acName": "Bhimili",
    "partNumber": 11,
    "partName": "B.Tallavalasa",
    "lat": 17.9110237,
    "lon": 83.411374
  },
  {
    "partId": 52339,
    "stateCode": "S01",
    "stateName": "Andhra Pradesh",
    "districtCode": "S0105",
    "districtName": "Visakhapatnam",
    "acNumber": 20,
    "acName": "Bhimili",
    "partNumber": 12,
    "partName": "Lingannapeta",
    "lat": 18.0196001,
    "lon": 83.3839706
  },
  {
    "partId": 52338,
    "stateCode": "S01",
    "stateName": "Andhra Pradesh",
    "districtCode": "S0105",
    "districtName": "Visakhapatnam",
    "acNumber": 20,
    "acName": "Bhimili",
    "partNumber": 13,
    "partName": "Buddivalasa Agraharam",
    "lat": 17.80532215,
    "lon": 83.28276772667053
  },
  {
    "partId": 52411,
    "stateCode": "S01",
    "stateName": "Andhra Pradesh",
    "districtCode": "S0105",
    "districtName": "Visakhapatnam",
    "acNumber": 20,
    "acName": "Bhimili",
    "partNumber": 14,
    "partName": "Korada",
    "lat": 17.9976377,
    "lon": 83.3802324
  },
  {
    "partId": 52450,
    "stateCode": "S01",
    "stateName": "Andhra Pradesh",
    "districtCode": "S0105",
    "districtName": "Visakhapatnam",
    "acNumber": 20,
    "acName": "Bhimili",
    "partNumber": 15,
    "partName": "Geddapeta",
    "lat": 17.9990428,
    "lon": 83.3942427
  },
  {
    "partId": 52289,
    "stateCode": "S01",
    "stateName": "Andhra Pradesh",
    "districtCode": "S0105",
    "districtName": "Visakhapatnam",
    "acNumber": 20,
    "acName": "Bhimili",
    "partNumber": 16,
    "partName": "Reddipalli Agrahram",
    "lat": 17.80532215,
    "lon": 83.28276772667053
  },
  {
    "partId": 52317,
    "stateCode": "S01",
    "stateName": "Andhra Pradesh",
    "districtCode": "S0105",
    "districtName": "Visakhapatnam",
    "acNumber": 20,
    "acName": "Bhimili",
    "partNumber": 17,
    "partName": "Reddipalli Agrahram",
    "lat": 17.80532215,
    "lon": 83.28276772667053
  },
  {
    "partId": 52356,
    "stateCode": "S01",
    "stateName": "Andhra Pradesh",
    "districtCode": "S0105",
    "districtName": "Visakhapatnam",
    "acNumber": 20,
    "acName": "Bhimili",
    "partNumber": 18,
    "partName": "Reddipalli Agrahram",
    "lat": 17.80532215,
    "lon": 83.28276772667053
  },
  {
    "partId": 52519,
    "stateCode": "S01",
    "stateName": "Andhra Pradesh",
    "districtCode": "S0105",
    "districtName": "Visakhapatnam",
    "acNumber": 20,
    "acName": "Bhimili",
    "partNumber": 19,
    "partName": "Reddipalli Agrahram",
    "lat": 17.80532215,
    "lon": 83.28276772667053
  },
  {
    "partId": 52549,
    "stateCode": "S01",
    "stateName": "Andhra Pradesh",
    "districtCode": "S0105",
    "districtName": "Visakhapatnam",
    "acNumber": 20,
    "acName": "Bhimili",
    "partNumber": 20,
    "partName": "Venkatapuram",
    "lat": 17.9221307,
    "lon": 83.3583001
  },
  {
    "partId": 52472,
    "stateCode": "S01",
    "stateName": "Andhra Pradesh",
    "districtCode": "S0105",
    "districtName": "Visakhapatnam",
    "acNumber": 20,
    "acName": "Bhimili",
    "partNumber": 21,
    "partName": "Revidi",
    "lat": 17.9641784,
    "lon": 83.3728604
  },
  {
    "partId": 52331,
    "stateCode": "S01",
    "stateName": "Andhra Pradesh",
    "districtCode": "S0105",
    "districtName": "Visakhapatnam",
    "acNumber": 20,
    "acName": "Bhimili",
    "partNumber": 22,
    "partName": "Revidi",
    "lat": 17.9641784,
    "lon": 83.3728604
  },
  {
    "partId": 52604,
    "stateCode": "S01",
    "stateName": "Andhra Pradesh",
    "districtCode": "S0105",
    "districtName": "Visakhapatnam",
    "acNumber": 20,
    "acName": "Bhimili",
    "partNumber": 23,
    "partName": "Kurapalli",
    "lat": 17.80532215,
    "lon": 83.28276772667053
  },
  {
    "partId": 52322,
    "stateCode": "S01",
    "stateName": "Andhra Pradesh",
    "districtCode": "S0105",
    "districtName": "Visakhapatnam",
    "acNumber": 20,
    "acName": "Bhimili",
    "partNumber": 24,
    "partName": "Pandrangi",
    "lat": 17.9631019,
    "lon": 83.3664451
  },
  {
    "partId": 52332,
    "stateCode": "S01",
    "stateName": "Andhra Pradesh",
    "districtCode": "S0105",
    "districtName": "Visakhapatnam",
    "acNumber": 20,
    "acName": "Bhimili",
    "partNumber": 25,
    "partName": "Pandrangi",
    "lat": 17.9631019,
    "lon": 83.3664451
  },
  {
    "partId": 52548,
    "stateCode": "S01",
    "stateName": "Andhra Pradesh",
    "districtCode": "S0105",
    "districtName": "Visakhapatnam",
    "acNumber": 20,
    "acName": "Bhimili",
    "partNumber": 26,
    "partName": "Samayyavalasa",
    "lat": 17.80532215,
    "lon": 83.28276772667053
  },
  {
    "partId": 52469,
    "stateCode": "S01",
    "stateName": "Andhra Pradesh",
    "districtCode": "S0105",
    "districtName": "Visakhapatnam",
    "acNumber": 20,
    "acName": "Bhimili",
    "partNumber": 27,
    "partName": "Yenugulapalem",
    "lat": 17.80532215,
    "lon": 83.28276772667053
  },
  {
    "partId": 52311,
    "stateCode": "S01",
    "stateName": "Andhra Pradesh",
    "districtCode": "S0105",
    "districtName": "Visakhapatnam",
    "acNumber": 20,
    "acName": "Bhimili",
    "partNumber": 28,
    "partName": "Krishnapuram",
    "lat": 17.9802757,
    "lon": 83.3397612
  },
  {
    "partId": 52480,
    "stateCode": "S01",
    "stateName": "Andhra Pradesh",
    "districtCode": "S0105",
    "districtName": "Visakhapatnam",
    "acNumber": 20,
    "acName": "Bhimili",
    "partNumber": 29,
    "partName": "Krishnapuram",
    "lat": 17.9802757,
    "lon": 83.3397612
  },
  {
    "partId": 52608,
    "stateCode": "S01",
    "stateName": "Andhra Pradesh",
    "districtCode": "S0105",
    "districtName": "Visakhapatnam",
    "acNumber": 20,
    "acName": "Bhimili",
    "partNumber": 30,
    "partName": "Padmanabham",
    "lat": 17.99525415,
    "lon": 83.32988504419225
  },
  {
    "partId": 52324,
    "stateCode": "S01",
    "stateName": "Andhra Pradesh",
    "districtCode": "S0105",
    "districtName": "Visakhapatnam",
    "acNumber": 20,
    "acName": "Bhimili",
    "partNumber": 31,
    "partName": "Padmanabham",
    "lat": 17.99525415,
    "lon": 83.32988504419225
  },
  {
    "partId": 52364,
    "stateCode": "S01",
    "stateName": "Andhra Pradesh",
    "districtCode": "S0105",
    "districtName": "Visakhapatnam",
    "acNumber": 20,
    "acName": "Bhimili",
    "partNumber": 32,
    "partName": "Maddi",
    "lat": 17.9808418,
    "lon": 83.3241221
  },
  {
    "partId": 52510,
    "stateCode": "S01",
    "stateName": "Andhra Pradesh",
    "districtCode": "S0105",
    "districtName": "Visakhapatnam",
    "acNumber": 20,
    "acName": "Bhimili",
    "partNumber": 33,
    "partName": "Maddi",
    "lat": 17.9808418,
    "lon": 83.3241221
  },
  {
    "partId": 52309,
    "stateCode": "S01",
    "stateName": "Andhra Pradesh",
    "districtCode": "S0105",
    "districtName": "Visakhapatnam",
    "acNumber": 20,
    "acName": "Bhimili",
    "partNumber": 34,
    "partName": "Tunipalam",
    "lat": 17.9806222,
    "lon": 83.303052
  },
  {
    "partId": 52476,
    "stateCode": "S01",
    "stateName": "Andhra Pradesh",
    "districtCode": "S0105",
    "districtName": "Visakhapatnam",
    "acNumber": 20,
    "acName": "Bhimili",
    "partNumber": 35,
    "partName": "Bandevupuram",
    "lat": 17.9971272,
    "lon": 83.2965812
  },
  {
    "partId": 52328,
    "stateCode": "S01",
    "stateName": "Andhra Pradesh",
    "districtCode": "S0105",
    "districtName": "Visakhapatnam",
    "acNumber": 20,
    "acName": "Bhimili",
    "partNumber": 36,
    "partName": "Vijayarampuram",
    "lat": 17.80532215,
    "lon": 83.28276772667053
  },
  {
    "partId": 52533,
    "stateCode": "S01",
    "stateName": "Andhra Pradesh",
    "districtCode": "S0105",
    "districtName": "Visakhapatnam",
    "acNumber": 20,
    "acName": "Bhimili",
    "partNumber": 37,
    "partName": "Vilaskhanpalem",
    "lat": 17.80532215,
    "lon": 83.28276772667053
  },
  {
    "partId": 52446,
    "stateCode": "S01",
    "stateName": "Andhra Pradesh",
    "districtCode": "S0105",
    "districtName": "Visakhapatnam",
    "acNumber": 20,
    "acName": "Bhimili",
    "partNumber": 38,
    "partName": "Gandavaram",
    "lat": 17.80532215,
    "lon": 83.28276772667053
  },
  {
    "partId": 52505,
    "stateCode": "S01",
    "stateName": "Andhra Pradesh",
    "districtCode": "S0105",
    "districtName": "Visakhapatnam",
    "acNumber": 20,
    "acName": "Bhimili",
    "partNumber": 39,
    "partName": "Gandavaram",
    "lat": 17.80532215,
    "lon": 83.28276772667053
  },
  {
    "partId": 52471,
    "stateCode": "S01",
    "stateName": "Andhra Pradesh",
    "districtCode": "S0105",
    "districtName": "Visakhapatnam",
    "acNumber": 20,
    "acName": "Bhimili",
    "partNumber": 40,
    "partName": "Kotha Kovvada",
    "lat": 17.80532215,
    "lon": 83.28276772667053
  },
  {
    "partId": 52427,
    "stateCode": "S01",
    "stateName": "Andhra Pradesh",
    "districtCode": "S0105",
    "districtName": "Visakhapatnam",
    "acNumber": 20,
    "acName": "Bhimili",
    "partNumber": 41,
    "partName": "Patha Kovvada",
    "lat": 17.80532215,
    "lon": 83.28276772667053
  },
  {
    "partId": 52358,
    "stateCode": "S01",
    "stateName": "Andhra Pradesh",
    "districtCode": "S0105",
    "districtName": "Visakhapatnam",
    "acNumber": 20,
    "acName": "Bhimili",
    "partNumber": 42,
    "partName": "Penta",
    "lat": 17.9621379,
    "lon": 83.2781282
  },
  {
    "partId": 52436,
    "stateCode": "S01",
    "stateName": "Andhra Pradesh",
    "districtCode": "S0105",
    "districtName": "Visakhapatnam",
    "acNumber": 20,
    "acName": "Bhimili",
    "partNumber": 43,
    "partName": "Ananthavaram",
    "lat": 17.80532215,
    "lon": 83.28276772667053
  },
  {
    "partId": 52571,
    "stateCode": "S01",
    "stateName": "Andhra Pradesh",
    "districtCode": "S0105",
    "districtName": "Visakhapatnam",
    "acNumber": 20,
    "acName": "Bhimili",
    "partNumber": 44,
    "partName": "Ananthavaram",
    "lat": 17.80532215,
    "lon": 83.28276772667053
  },
  {
    "partId": 52445,
    "stateCode": "S01",
    "stateName": "Andhra Pradesh",
    "districtCode": "S0105",
    "districtName": "Visakhapatnam",
    "acNumber": 20,
    "acName": "Bhimili",
    "partNumber": 45,
    "partName": "Gollalapalem",
    "lat": 17.9560542,
    "lon": 83.2982257
  },
  {
    "partId": 52467,
    "stateCode": "S01",
    "stateName": "Andhra Pradesh",
    "districtCode": "S0105",
    "districtName": "Visakhapatnam",
    "acNumber": 20,
    "acName": "Bhimili",
    "partNumber": 46,
    "partName": "Sirlapalem",
    "lat": 17.9591936,
    "lon": 83.3206607
  },
  {
    "partId": 52419,
    "stateCode": "S01",
    "stateName": "Andhra Pradesh",
    "districtCode": "S0105",
    "districtName": "Visakhapatnam",
    "acNumber": 20,
    "acName": "Bhimili",
    "partNumber": 47,
    "partName": "Mukundapuram",
    "lat": 17.9523718,
    "lon": 83.3280048
  },
  {
    "partId": 52432,
    "stateCode": "S01",
    "stateName": "Andhra Pradesh",
    "districtCode": "S0105",
    "districtName": "Visakhapatnam",
    "acNumber": 20,
    "acName": "Bhimili",
    "partNumber": 48,
    "partName": "Pekeru",
    "lat": 17.9596576,
    "lon": 83.3095816
  },
  {
    "partId": 52534,
    "stateCode": "S01",
    "stateName": "Andhra Pradesh",
    "districtCode": "S0105",
    "districtName": "Visakhapatnam",
    "acNumber": 20,
    "acName": "Bhimili",
    "partNumber": 49,
    "partName": "Boni",
    "lat": 17.964018,
    "lon": 83.3430685
  },
  {
    "partId": 52569,
    "stateCode": "S01",
    "stateName": "Andhra Pradesh",
    "districtCode": "S0105",
    "districtName": "Visakhapatnam",
    "acNumber": 20,
    "acName": "Bhimili",
    "partNumber": 50,
    "partName": "Kusuluvada",
    "lat": 17.80532215,
    "lon": 83.28276772667053
  },
  {
    "partId": 52395,
    "stateCode": "S01",
    "stateName": "Andhra Pradesh",
    "districtCode": "S0105",
    "districtName": "Visakhapatnam",
    "acNumber": 20,
    "acName": "Bhimili",
    "partNumber": 51,
    "partName": "Pandalapaka",
    "lat": 17.9076227,
    "lon": 83.3415495
  },
  {
    "partId": 52333,
    "stateCode": "S01",
    "stateName": "Andhra Pradesh",
    "districtCode": "S0105",
    "districtName": "Visakhapatnam",
    "acNumber": 20,
    "acName": "Bhimili",
    "partNumber": 52,
    "partName": "Bakurupalem",
    "lat": 17.9219952,
    "lon": 83.3047302
  },
  {
    "partId": 52564,
    "stateCode": "S01",
    "stateName": "Andhra Pradesh",
    "districtCode": "S0105",
    "districtName": "Visakhapatnam",
    "acNumber": 20,
    "acName": "Bhimili",
    "partNumber": 53,
    "partName": "BAKURUPALEM",
    "lat": 17.9219952,
    "lon": 83.3047302
  },
  {
    "partId": 52414,
    "stateCode": "S01",
    "stateName": "Andhra Pradesh",
    "districtCode": "S0105",
    "districtName": "Visakhapatnam",
    "acNumber": 20,
    "acName": "Bhimili",
    "partNumber": 54,
    "partName": "Gidijala",
    "lat": 17.8977936,
    "lon": 83.2591131
  },
  {
    "partId": 52424,
    "stateCode": "S01",
    "stateName": "Andhra Pradesh",
    "districtCode": "S0105",
    "districtName": "Visakhapatnam",
    "acNumber": 20,
    "acName": "Bhimili",
    "partNumber": 55,
    "partName": "Gidijala",
    "lat": 17.8977936,
    "lon": 83.2591131
  },
  {
    "partId": 52520,
    "stateCode": "S01",
    "stateName": "Andhra Pradesh",
    "districtCode": "S0105",
    "districtName": "Visakhapatnam",
    "acNumber": 20,
    "acName": "Bhimili",
    "partNumber": 56,
    "partName": "Vemagottipalem H/oGidijala",
    "lat": 17.80532215,
    "lon": 83.28276772667053
  },
  {
    "partId": 52614,
    "stateCode": "S01",
    "stateName": "Andhra Pradesh",
    "districtCode": "S0105",
    "districtName": "Visakhapatnam",
    "acNumber": 20,
    "acName": "Bhimili",
    "partNumber": 57,
    "partName": "DIBBADIPALEM",
    "lat": 17.8808963,
    "lon": 83.2916324
  },
  {
    "partId": 52410,
    "stateCode": "S01",
    "stateName": "Andhra Pradesh",
    "districtCode": "S0105",
    "districtName": "Visakhapatnam",
    "acNumber": 20,
    "acName": "Bhimili",
    "partNumber": 58,
    "partName": "Mutcherla",
    "lat": 17.80532215,
    "lon": 83.28276772667053
  },
  {
    "partId": 52591,
    "stateCode": "S01",
    "stateName": "Andhra Pradesh",
    "districtCode": "S0105",
    "districtName": "Visakhapatnam",
    "acNumber": 20,
    "acName": "Bhimili",
    "partNumber": 59,
    "partName": "MUTCHERLA",
    "lat": 17.80532215,
    "lon": 83.28276772667053
  },
  {
    "partId": 52412,
    "stateCode": "S01",
    "stateName": "Andhra Pradesh",
    "districtCode": "S0105",
    "districtName": "Visakhapatnam",
    "acNumber": 20,
    "acName": "Bhimili",
    "partNumber": 60,
    "partName": "Bheemandorpalem",
    "lat": 17.80532215,
    "lon": 83.28276772667053
  },
  {
    "partId": 52372,
    "stateCode": "S01",
    "stateName": "Andhra Pradesh",
    "districtCode": "S0105",
    "districtName": "Visakhapatnam",
    "acNumber": 20,
    "acName": "Bhimili",
    "partNumber": 61,
    "partName": "Kolavanipalem",
    "lat": 17.8893136,
    "lon": 83.2527032
  },
  {
    "partId": 52413,
    "stateCode": "S01",
    "stateName": "Andhra Pradesh",
    "districtCode": "S0105",
    "districtName": "Visakhapatnam",
    "acNumber": 20,
    "acName": "Bhimili",
    "partNumber": 62,
    "partName": "Ramavaram",
    "lat": 17.866398,
    "lon": 83.2441595
  },
  {
    "partId": 52532,
    "stateCode": "S01",
    "stateName": "Andhra Pradesh",
    "districtCode": "S0105",
    "districtName": "Visakhapatnam",
    "acNumber": 20,
    "acName": "Bhimili",
    "partNumber": 63,
    "partName": "Gorinta",
    "lat": 17.8764091,
    "lon": 83.254384
  },
  {
    "partId": 52312,
    "stateCode": "S01",
    "stateName": "Andhra Pradesh",
    "districtCode": "S0105",
    "districtName": "Visakhapatnam",
    "acNumber": 20,
    "acName": "Bhimili",
    "partNumber": 64,
    "partName": "Gandigundam",
    "lat": 17.80532215,
    "lon": 83.28276772667053
  },
  {
    "partId": 52380,
    "stateCode": "S01",
    "stateName": "Andhra Pradesh",
    "districtCode": "S0105",
    "districtName": "Visakhapatnam",
    "acNumber": 20,
    "acName": "Bhimili",
    "partNumber": 65,
    "partName": "GANDIGUNDAM",
    "lat": 17.80532215,
    "lon": 83.28276772667053
  },
  {
    "partId": 52302,
    "stateCode": "S01",
    "stateName": "Andhra Pradesh",
    "districtCode": "S0105",
    "districtName": "Visakhapatnam",
    "acNumber": 20,
    "acName": "Bhimili",
    "partNumber": 66,
    "partName": "Dabbanda",
    "lat": 17.8197594,
    "lon": 83.2740288
  },
  {
    "partId": 52416,
    "stateCode": "S01",
    "stateName": "Andhra Pradesh",
    "districtCode": "S0105",
    "districtName": "Visakhapatnam",
    "acNumber": 20,
    "acName": "Bhimili",
    "partNumber": 67,
    "partName": "Mamidilova",
    "lat": 17.8523382,
    "lon": 83.2857236
  },
  {
    "partId": 52371,
    "stateCode": "S01",
    "stateName": "Andhra Pradesh",
    "districtCode": "S0105",
    "districtName": "Visakhapatnam",
    "acNumber": 20,
    "acName": "Bhimili",
    "partNumber": 68,
    "partName": "Mamidilova",
    "lat": 17.8523382,
    "lon": 83.2857236
  },
  {
    "partId": 52529,
    "stateCode": "S01",
    "stateName": "Andhra Pradesh",
    "districtCode": "S0105",
    "districtName": "Visakhapatnam",
    "acNumber": 20,
    "acName": "Bhimili",
    "partNumber": 69,
    "partName": "Sontyam",
    "lat": 17.8660372,
    "lon": 83.2946041
  },
  {
    "partId": 52406,
    "stateCode": "S01",
    "stateName": "Andhra Pradesh",
    "districtCode": "S0105",
    "districtName": "Visakhapatnam",
    "acNumber": 20,
    "acName": "Bhimili",
    "partNumber": 70,
    "partName": "Sontyam",
    "lat": 17.8660372,
    "lon": 83.2946041
  },
  {
    "partId": 52310,
    "stateCode": "S01",
    "stateName": "Andhra Pradesh",
    "districtCode": "S0105",
    "districtName": "Visakhapatnam",
    "acNumber": 20,
    "acName": "Bhimili",
    "partNumber": 71,
    "partName": "Mindivanipalem H/o Sontyam",
    "lat": 17.80532215,
    "lon": 83.28276772667053
  },
  {
    "partId": 52297,
    "stateCode": "S01",
    "stateName": "Andhra Pradesh",
    "districtCode": "S0105",
    "districtName": "Visakhapatnam",
    "acNumber": 20,
    "acName": "Bhimili",
    "partNumber": 72,
    "partName": "Yatakanamam",
    "lat": 17.80532215,
    "lon": 83.28276772667053
  },
  {
    "partId": 52361,
    "stateCode": "S01",
    "stateName": "Andhra Pradesh",
    "districtCode": "S0105",
    "districtName": "Visakhapatnam",
    "acNumber": 20,
    "acName": "Bhimili",
    "partNumber": 73,
    "partName": "Tarluvada",
    "lat": 17.9055782,
    "lon": 83.329021
  },
  {
    "partId": 52547,
    "stateCode": "S01",
    "stateName": "Andhra Pradesh",
    "districtCode": "S0105",
    "districtName": "Visakhapatnam",
    "acNumber": 20,
    "acName": "Bhimili",
    "partNumber": 74,
    "partName": "Tarluvada",
    "lat": 17.9055782,
    "lon": 83.329021
  },
  {
    "partId": 52504,
    "stateCode": "S01",
    "stateName": "Andhra Pradesh",
    "districtCode": "S0105",
    "districtName": "Visakhapatnam",
    "acNumber": 20,
    "acName": "Bhimili",
    "partNumber": 75,
    "partName": "TARLAVADA",
    "lat": 17.80532215,
    "lon": 83.28276772667053
  },
  {
    "partId": 52527,
    "stateCode": "S01",
    "stateName": "Andhra Pradesh",
    "districtCode": "S0105",
    "districtName": "Visakhapatnam",
    "acNumber": 20,
    "acName": "Bhimili",
    "partNumber": 76,
    "partName": "Palavalasa",
    "lat": 17.5735741,
    "lon": 83.1493404
  },
  {
    "partId": 52515,
    "stateCode": "S01",
    "stateName": "Andhra Pradesh",
    "districtCode": "S0105",
    "districtName": "Visakhapatnam",
    "acNumber": 20,
    "acName": "Bhimili",
    "partNumber": 77,
    "partName": "PALAVALASA",
    "lat": 17.5735741,
    "lon": 83.1493404
  },
  {
    "partId": 52405,
    "stateCode": "S01",
    "stateName": "Andhra Pradesh",
    "districtCode": "S0105",
    "districtName": "Visakhapatnam",
    "acNumber": 20,
    "acName": "Bhimili",
    "partNumber": 78,
    "partName": "Boyapalem",
    "lat": 17.7315878,
    "lon": 83.2842431
  },
  {
    "partId": 52499,
    "stateCode": "S01",
    "stateName": "Andhra Pradesh",
    "districtCode": "S0105",
    "districtName": "Visakhapatnam",
    "acNumber": 20,
    "acName": "Bhimili",
    "partNumber": 79,
    "partName": "Dukkavanipalem",
    "lat": 17.8853355,
    "lon": 83.3517569
  },
  {
    "partId": 52369,
    "stateCode": "S01",
    "stateName": "Andhra Pradesh",
    "districtCode": "S0105",
    "districtName": "Visakhapatnam",
    "acNumber": 20,
    "acName": "Bhimili",
    "partNumber": 80,
    "partName": "Gambeeram",
    "lat": 17.80532215,
    "lon": 83.28276772667053
  },
  {
    "partId": 52360,
    "stateCode": "S01",
    "stateName": "Andhra Pradesh",
    "districtCode": "S0105",
    "districtName": "Visakhapatnam",
    "acNumber": 20,
    "acName": "Bhimili",
    "partNumber": 81,
    "partName": "Kallivanipalem",
    "lat": 17.8716366,
    "lon": 83.3822767
  },
  {
    "partId": 52536,
    "stateCode": "S01",
    "stateName": "Andhra Pradesh",
    "districtCode": "S0105",
    "districtName": "Visakhapatnam",
    "acNumber": 20,
    "acName": "Bhimili",
    "partNumber": 82,
    "partName": "Vellanki",
    "lat": 17.8943602,
    "lon": 83.3883966
  },
  {
    "partId": 52292,
    "stateCode": "S01",
    "stateName": "Andhra Pradesh",
    "districtCode": "S0105",
    "districtName": "Visakhapatnam",
    "acNumber": 20,
    "acName": "Bhimili",
    "partNumber": 83,
    "partName": "Vellanki",
    "lat": 17.8943602,
    "lon": 83.3883966
  },
  {
    "partId": 52498,
    "stateCode": "S01",
    "stateName": "Andhra Pradesh",
    "districtCode": "S0105",
    "districtName": "Visakhapatnam",
    "acNumber": 20,
    "acName": "Bhimili",
    "partNumber": 84,
    "partName": "Boddapalem H/o. Vellanki",
    "lat": 17.80532215,
    "lon": 83.28276772667053
  },
  {
    "partId": 52488,
    "stateCode": "S01",
    "stateName": "Andhra Pradesh",
    "districtCode": "S0105",
    "districtName": "Visakhapatnam",
    "acNumber": 20,
    "acName": "Bhimili",
    "partNumber": 85,
    "partName": "BODDAPALEM H/O VELLANKI",
    "lat": 17.80532215,
    "lon": 83.28276772667053
  },
  {
    "partId": 52496,
    "stateCode": "S01",
    "stateName": "Andhra Pradesh",
    "districtCode": "S0105",
    "districtName": "Visakhapatnam",
    "acNumber": 20,
    "acName": "Bhimili",
    "partNumber": 86,
    "partName": "Peddipalem",
    "lat": 17.908119,
    "lon": 83.4002829
  },
  {
    "partId": 52368,
    "stateCode": "S01",
    "stateName": "Andhra Pradesh",
    "districtCode": "S0105",
    "districtName": "Visakhapatnam",
    "acNumber": 20,
    "acName": "Bhimili",
    "partNumber": 87,
    "partName": "Peddipalem",
    "lat": 17.908119,
    "lon": 83.4002829
  },
  {
    "partId": 52551,
    "stateCode": "S01",
    "stateName": "Andhra Pradesh",
    "districtCode": "S0105",
    "districtName": "Visakhapatnam",
    "acNumber": 20,
    "acName": "Bhimili",
    "partNumber": 88,
    "partName": "Pallipeta",
    "lat": 17.915651,
    "lon": 83.3871816
  },
  {
    "partId": 52556,
    "stateCode": "S01",
    "stateName": "Andhra Pradesh",
    "districtCode": "S0105",
    "districtName": "Visakhapatnam",
    "acNumber": 20,
    "acName": "Bhimili",
    "partNumber": 89,
    "partName": "Vemulavalasa",
    "lat": 17.8950305,
    "lon": 83.3800054
  },
  {
    "partId": 52291,
    "stateCode": "S01",
    "stateName": "Andhra Pradesh",
    "districtCode": "S0105",
    "districtName": "Visakhapatnam",
    "acNumber": 20,
    "acName": "Bhimili",
    "partNumber": 90,
    "partName": "Vemulavalasa",
    "lat": 17.8950305,
    "lon": 83.3800054
  },
  {
    "partId": 52491,
    "stateCode": "S01",
    "stateName": "Andhra Pradesh",
    "districtCode": "S0105",
    "districtName": "Visakhapatnam",
    "acNumber": 20,
    "acName": "Bhimili",
    "partNumber": 91,
    "partName": "Bantupallivari Kallalu, H/o Vemu lavalasa",
    "lat": 17.80532215,
    "lon": 83.28276772667053
  },
  {
    "partId": 52408,
    "stateCode": "S01",
    "stateName": "Andhra Pradesh",
    "districtCode": "S0105",
    "districtName": "Visakhapatnam",
    "acNumber": 20,
    "acName": "Bhimili",
    "partNumber": 92,
    "partName": "Bantupallivari Kallalu, H/o.Vemulavalasa",
    "lat": 17.80532215,
    "lon": 83.28276772667053
  },
  {
    "partId": 52553,
    "stateCode": "S01",
    "stateName": "Andhra Pradesh",
    "districtCode": "S0105",
    "districtName": "Visakhapatnam",
    "acNumber": 20,
    "acName": "Bhimili",
    "partNumber": 93,
    "partName": "Anandapuram",
    "lat": 17.883255300000002,
    "lon": 83.31029956857877
  },
  {
    "partId": 52550,
    "stateCode": "S01",
    "stateName": "Andhra Pradesh",
    "districtCode": "S0105",
    "districtName": "Visakhapatnam",
    "acNumber": 20,
    "acName": "Bhimili",
    "partNumber": 94,
    "partName": "Anandapuram",
    "lat": 17.883255300000002,
    "lon": 83.31029956857877
  },
  {
    "partId": 52555,
    "stateCode": "S01",
    "stateName": "Andhra Pradesh",
    "districtCode": "S0105",
    "districtName": "Visakhapatnam",
    "acNumber": 20,
    "acName": "Bhimili",
    "partNumber": 95,
    "partName": "Anandapuram",
    "lat": 17.883255300000002,
    "lon": 83.31029956857877
  },
  {
    "partId": 52528,
    "stateCode": "S01",
    "stateName": "Andhra Pradesh",
    "districtCode": "S0105",
    "districtName": "Visakhapatnam",
    "acNumber": 20,
    "acName": "Bhimili",
    "partNumber": 96,
    "partName": "Lodagalavanipalem",
    "lat": 17.80532215,
    "lon": 83.28276772667053
  },
  {
    "partId": 52307,
    "stateCode": "S01",
    "stateName": "Andhra Pradesh",
    "districtCode": "S0105",
    "districtName": "Visakhapatnam",
    "acNumber": 20,
    "acName": "Bhimili",
    "partNumber": 97,
    "partName": "Lodagalavanipalem",
    "lat": 17.80532215,
    "lon": 83.28276772667053
  },
  {
    "partId": 52407,
    "stateCode": "S01",
    "stateName": "Andhra Pradesh",
    "districtCode": "S0105",
    "districtName": "Visakhapatnam",
    "acNumber": 20,
    "acName": "Bhimili",
    "partNumber": 98,
    "partName": "Podugupalem, H/o. Anandapuram",
    "lat": 17.80532215,
    "lon": 83.28276772667053
  },
  {
    "partId": 52552,
    "stateCode": "S01",
    "stateName": "Andhra Pradesh",
    "districtCode": "S0105",
    "districtName": "Visakhapatnam",
    "acNumber": 20,
    "acName": "Bhimili",
    "partNumber": 99,
    "partName": "Chandaka",
    "lat": 17.80532215,
    "lon": 83.28276772667053
  },
  {
    "partId": 52379,
    "stateCode": "S01",
    "stateName": "Andhra Pradesh",
    "districtCode": "S0105",
    "districtName": "Visakhapatnam",
    "acNumber": 20,
    "acName": "Bhimili",
    "partNumber": 100,
    "partName": "CHANDAKA",
    "lat": 17.80532215,
    "lon": 83.28276772667053
  },
  {
    "partId": 52535,
    "stateCode": "S01",
    "stateName": "Andhra Pradesh",
    "districtCode": "S0105",
    "districtName": "Visakhapatnam",
    "acNumber": 20,
    "acName": "Bhimili",
    "partNumber": 101,
    "partName": "Gottipalli",
    "lat": 17.9363706,
    "lon": 83.3556192
  },
  {
    "partId": 52283,
    "stateCode": "S01",
    "stateName": "Andhra Pradesh",
    "districtCode": "S0105",
    "districtName": "Visakhapatnam",
    "acNumber": 20,
    "acName": "Bhimili",
    "partNumber": 102,
    "partName": "Gottipalli",
    "lat": 17.9363706,
    "lon": 83.3556192
  },
  {
    "partId": 52525,
    "stateCode": "S01",
    "stateName": "Andhra Pradesh",
    "districtCode": "S0105",
    "districtName": "Visakhapatnam",
    "acNumber": 20,
    "acName": "Bhimili",
    "partNumber": 103,
    "partName": "Thatituru",
    "lat": 17.80532215,
    "lon": 83.28276772667053
  },
  {
    "partId": 52584,
    "stateCode": "S01",
    "stateName": "Andhra Pradesh",
    "districtCode": "S0105",
    "districtName": "Visakhapatnam",
    "acNumber": 20,
    "acName": "Bhimili",
    "partNumber": 104,
    "partName": "THATITURU",
    "lat": 17.80532215,
    "lon": 83.28276772667053
  },
  {
    "partId": 52304,
    "stateCode": "S01",
    "stateName": "Andhra Pradesh",
    "districtCode": "S0105",
    "districtName": "Visakhapatnam",
    "acNumber": 20,
    "acName": "Bhimili",
    "partNumber": 105,
    "partName": "Thatituru",
    "lat": 17.80532215,
    "lon": 83.28276772667053
  },
  {
    "partId": 52363,
    "stateCode": "S01",
    "stateName": "Andhra Pradesh",
    "districtCode": "S0105",
    "districtName": "Visakhapatnam",
    "acNumber": 20,
    "acName": "Bhimili",
    "partNumber": 106,
    "partName": "Majjivalasa",
    "lat": 17.9492962,
    "lon": 83.3927994
  },
  {
    "partId": 52305,
    "stateCode": "S01",
    "stateName": "Andhra Pradesh",
    "districtCode": "S0105",
    "districtName": "Visakhapatnam",
    "acNumber": 20,
    "acName": "Bhimili",
    "partNumber": 107,
    "partName": "Laxmipuram",
    "lat": 17.80532215,
    "lon": 83.28276772667053
  },
  {
    "partId": 52400,
    "stateCode": "S01",
    "stateName": "Andhra Pradesh",
    "districtCode": "S0105",
    "districtName": "Visakhapatnam",
    "acNumber": 20,
    "acName": "Bhimili",
    "partNumber": 108,
    "partName": "Laxmipuram",
    "lat": 17.80532215,
    "lon": 83.28276772667053
  },
  {
    "partId": 52282,
    "stateCode": "S01",
    "stateName": "Andhra Pradesh",
    "districtCode": "S0105",
    "districtName": "Visakhapatnam",
    "acNumber": 20,
    "acName": "Bhimili",
    "partNumber": 109,
    "partName": "Singannabanda",
    "lat": 17.80532215,
    "lon": 83.28276772667053
  },
  {
    "partId": 52516,
    "stateCode": "S01",
    "stateName": "Andhra Pradesh",
    "districtCode": "S0105",
    "districtName": "Visakhapatnam",
    "acNumber": 20,
    "acName": "Bhimili",
    "partNumber": 110,
    "partName": "Narayanaraju Peta",
    "lat": 17.80532215,
    "lon": 83.28276772667053
  },
  {
    "partId": 52524,
    "stateCode": "S01",
    "stateName": "Andhra Pradesh",
    "districtCode": "S0105",
    "districtName": "Visakhapatnam",
    "acNumber": 20,
    "acName": "Bhimili",
    "partNumber": 111,
    "partName": "Krishnamrajupeta",
    "lat": 17.80532215,
    "lon": 83.28276772667053
  },
  {
    "partId": 52362,
    "stateCode": "S01",
    "stateName": "Andhra Pradesh",
    "districtCode": "S0105",
    "districtName": "Visakhapatnam",
    "acNumber": 20,
    "acName": "Bhimili",
    "partNumber": 112,
    "partName": "Dakamarri",
    "lat": 17.9889945,
    "lon": 83.4009707
  },
  {
    "partId": 52336,
    "stateCode": "S01",
    "stateName": "Andhra Pradesh",
    "districtCode": "S0105",
    "districtName": "Visakhapatnam",
    "acNumber": 20,
    "acName": "Bhimili",
    "partNumber": 113,
    "partName": "Dakamarri",
    "lat": 17.9889945,
    "lon": 83.4009707
  },
  {
    "partId": 52359,
    "stateCode": "S01",
    "stateName": "Andhra Pradesh",
    "districtCode": "S0105",
    "districtName": "Visakhapatnam",
    "acNumber": 20,
    "acName": "Bhimili",
    "partNumber": 114,
    "partName": "Majjipeta",
    "lat": 17.9883798,
    "lon": 83.3783211
  },
  {
    "partId": 52495,
    "stateCode": "S01",
    "stateName": "Andhra Pradesh",
    "districtCode": "S0105",
    "districtName": "Visakhapatnam",
    "acNumber": 20,
    "acName": "Bhimili",
    "partNumber": 115,
    "partName": "Majjipeta",
    "lat": 17.9883798,
    "lon": 83.3783211
  },
  {
    "partId": 52295,
    "stateCode": "S01",
    "stateName": "Andhra Pradesh",
    "districtCode": "S0105",
    "districtName": "Visakhapatnam",
    "acNumber": 20,
    "acName": "Bhimili",
    "partNumber": 116,
    "partName": "Bodamettapalem",
    "lat": 17.80532215,
    "lon": 83.28276772667053
  },
  {
    "partId": 52522,
    "stateCode": "S01",
    "stateName": "Andhra Pradesh",
    "districtCode": "S0105",
    "districtName": "Visakhapatnam",
    "acNumber": 20,
    "acName": "Bhimili",
    "partNumber": 117,
    "partName": "Muddadapeta",
    "lat": 18.0026878,
    "lon": 83.4127491
  },
  {
    "partId": 52298,
    "stateCode": "S01",
    "stateName": "Andhra Pradesh",
    "districtCode": "S0105",
    "districtName": "Visakhapatnam",
    "acNumber": 20,
    "acName": "Bhimili",
    "partNumber": 118,
    "partName": "Amanam",
    "lat": 17.958669,
    "lon": 83.4569762
  },
  {
    "partId": 52523,
    "stateCode": "S01",
    "stateName": "Andhra Pradesh",
    "districtCode": "S0105",
    "districtName": "Visakhapatnam",
    "acNumber": 20,
    "acName": "Bhimili",
    "partNumber": 119,
    "partName": "AMANAM",
    "lat": 17.958669,
    "lon": 83.4569762
  },
  {
    "partId": 52417,
    "stateCode": "S01",
    "stateName": "Andhra Pradesh",
    "districtCode": "S0105",
    "districtName": "Visakhapatnam",
    "acNumber": 20,
    "acName": "Bhimili",
    "partNumber": 120,
    "partName": "Amanam",
    "lat": 17.958669,
    "lon": 83.4569762
  },
  {
    "partId": 52404,
    "stateCode": "S01",
    "stateName": "Andhra Pradesh",
    "districtCode": "S0105",
    "districtName": "Visakhapatnam",
    "acNumber": 20,
    "acName": "Bhimili",
    "partNumber": 121,
    "partName": "Chippada",
    "lat": 17.9335011,
    "lon": 83.4567881
  },
  {
    "partId": 52348,
    "stateCode": "S01",
    "stateName": "Andhra Pradesh",
    "districtCode": "S0105",
    "districtName": "Visakhapatnam",
    "acNumber": 20,
    "acName": "Bhimili",
    "partNumber": 122,
    "partName": "CHIPPADA",
    "lat": 17.80532215,
    "lon": 83.28276772667053
  },
  {
    "partId": 52494,
    "stateCode": "S01",
    "stateName": "Andhra Pradesh",
    "districtCode": "S0105",
    "districtName": "Visakhapatnam",
    "acNumber": 20,
    "acName": "Bhimili",
    "partNumber": 123,
    "partName": "Citinagar H/o Chippada",
    "lat": 17.80532215,
    "lon": 83.28276772667053
  },
  {
    "partId": 52294,
    "stateCode": "S01",
    "stateName": "Andhra Pradesh",
    "districtCode": "S0105",
    "districtName": "Visakhapatnam",
    "acNumber": 20,
    "acName": "Bhimili",
    "partNumber": 124,
    "partName": "Kosanavanipalem H/oChippada",
    "lat": 17.80532215,
    "lon": 83.28276772667053
  },
  {
    "partId": 52438,
    "stateCode": "S01",
    "stateName": "Andhra Pradesh",
    "districtCode": "S0105",
    "districtName": "Visakhapatnam",
    "acNumber": 20,
    "acName": "Bhimili",
    "partNumber": 125,
    "partName": "Pathapalem H/o Pedanagamayyapalem",
    "lat": 17.80532215,
    "lon": 83.28276772667053
  },
  {
    "partId": 52423,
    "stateCode": "S01",
    "stateName": "Andhra Pradesh",
    "districtCode": "S0105",
    "districtName": "Visakhapatnam",
    "acNumber": 20,
    "acName": "Bhimili",
    "partNumber": 126,
    "partName": "Pedanagamayyapalem",
    "lat": 17.80532215,
    "lon": 83.28276772667053
  },
  {
    "partId": 52378,
    "stateCode": "S01",
    "stateName": "Andhra Pradesh",
    "districtCode": "S0105",
    "districtName": "Visakhapatnam",
    "acNumber": 20,
    "acName": "Bhimili",
    "partNumber": 127,
    "partName": "PEDANAGAMAYYAPALEM",
    "lat": 17.80532215,
    "lon": 83.28276772667053
  },
  {
    "partId": 52607,
    "stateCode": "S01",
    "stateName": "Andhra Pradesh",
    "districtCode": "S0105",
    "districtName": "Visakhapatnam",
    "acNumber": 20,
    "acName": "Bhimili",
    "partNumber": 128,
    "partName": "Ch.N.Palem H/o P.N.Palem",
    "lat": 17.80532215,
    "lon": 83.28276772667053
  },
  {
    "partId": 52612,
    "stateCode": "S01",
    "stateName": "Andhra Pradesh",
    "districtCode": "S0105",
    "districtName": "Visakhapatnam",
    "acNumber": 20,
    "acName": "Bhimili",
    "partNumber": 129,
    "partName": "UPPER PRIMARY SCHOOL (CYCLONE SHELTER), NORTH SIDE",
    "lat": 17.80532215,
    "lon": 83.28276772667053
  },
  {
    "partId": 52557,
    "stateCode": "S01",
    "stateName": "Andhra Pradesh",
    "districtCode": "S0105",
    "districtName": "Visakhapatnam",
    "acNumber": 20,
    "acName": "Bhimili",
    "partNumber": 130,
    "partName": "Annavaram",
    "lat": 17.9361838,
    "lon": 83.4948959
  },
  {
    "partId": 52492,
    "stateCode": "S01",
    "stateName": "Andhra Pradesh",
    "districtCode": "S0105",
    "districtName": "Visakhapatnam",
    "acNumber": 20,
    "acName": "Bhimili",
    "partNumber": 131,
    "partName": "Annavaram",
    "lat": 17.9361838,
    "lon": 83.4948959
  },
  {
    "partId": 52565,
    "stateCode": "S01",
    "stateName": "Andhra Pradesh",
    "districtCode": "S0105",
    "districtName": "Visakhapatnam",
    "acNumber": 20,
    "acName": "Bhimili",
    "partNumber": 132,
    "partName": "M.P.U.P.SCHOOL. EAST SIDE WING",
    "lat": 17.80532215,
    "lon": 83.28276772667053
  },
  {
    "partId": 52601,
    "stateCode": "S01",
    "stateName": "Andhra Pradesh",
    "districtCode": "S0105",
    "districtName": "Visakhapatnam",
    "acNumber": 20,
    "acName": "Bhimili",
    "partNumber": 133,
    "partName": "Nagarapalem",
    "lat": 17.8175772,
    "lon": 83.3586768
  },
  {
    "partId": 52437,
    "stateCode": "S01",
    "stateName": "Andhra Pradesh",
    "districtCode": "S0105",
    "districtName": "Visakhapatnam",
    "acNumber": 20,
    "acName": "Bhimili",
    "partNumber": 134,
    "partName": "Nagarapalem",
    "lat": 17.8175772,
    "lon": 83.3586768
  },
  {
    "partId": 52420,
    "stateCode": "S01",
    "stateName": "Andhra Pradesh",
    "districtCode": "S0105",
    "districtName": "Visakhapatnam",
    "acNumber": 20,
    "acName": "Bhimili",
    "partNumber": 135,
    "partName": "Tagarapuvalasa",
    "lat": 17.9301255,
    "lon": 83.4256586
  },
  {
    "partId": 52386,
    "stateCode": "S01",
    "stateName": "Andhra Pradesh",
    "districtCode": "S0105",
    "districtName": "Visakhapatnam",
    "acNumber": 20,
    "acName": "Bhimili",
    "partNumber": 136,
    "partName": "Tagarapuvalasa",
    "lat": 17.9301255,
    "lon": 83.4256586
  },
  {
    "partId": 52321,
    "stateCode": "S01",
    "stateName": "Andhra Pradesh",
    "districtCode": "S0105",
    "districtName": "Visakhapatnam",
    "acNumber": 20,
    "acName": "Bhimili",
    "partNumber": 137,
    "partName": "Tagarapuvalasa",
    "lat": 17.9301255,
    "lon": 83.4256586
  },
  {
    "partId": 52485,
    "stateCode": "S01",
    "stateName": "Andhra Pradesh",
    "districtCode": "S0105",
    "districtName": "Visakhapatnam",
    "acNumber": 20,
    "acName": "Bhimili",
    "partNumber": 138,
    "partName": "Tagarapuvalasa",
    "lat": 17.9301255,
    "lon": 83.4256586
  },
  {
    "partId": 52600,
    "stateCode": "S01",
    "stateName": "Andhra Pradesh",
    "districtCode": "S0105",
    "districtName": "Visakhapatnam",
    "acNumber": 20,
    "acName": "Bhimili",
    "partNumber": 139,
    "partName": "Tagarapuvalasa",
    "lat": 17.9301255,
    "lon": 83.4256586
  },
  {
    "partId": 52501,
    "stateCode": "S01",
    "stateName": "Andhra Pradesh",
    "districtCode": "S0105",
    "districtName": "Visakhapatnam",
    "acNumber": 20,
    "acName": "Bhimili",
    "partNumber": 140,
    "partName": "Tagarapuvalasa",
    "lat": 17.9301255,
    "lon": 83.4256586
  },
  {
    "partId": 52513,
    "stateCode": "S01",
    "stateName": "Andhra Pradesh",
    "districtCode": "S0105",
    "districtName": "Visakhapatnam",
    "acNumber": 20,
    "acName": "Bhimili",
    "partNumber": 141,
    "partName": "Tagarapuvalasa",
    "lat": 17.9301255,
    "lon": 83.4256586
  },
  {
    "partId": 52314,
    "stateCode": "S01",
    "stateName": "Andhra Pradesh",
    "districtCode": "S0105",
    "districtName": "Visakhapatnam",
    "acNumber": 20,
    "acName": "Bhimili",
    "partNumber": 142,
    "partName": "Tagarapuvalasa",
    "lat": 17.9301255,
    "lon": 83.4256586
  },
  {
    "partId": 52594,
    "stateCode": "S01",
    "stateName": "Andhra Pradesh",
    "districtCode": "S0105",
    "districtName": "Visakhapatnam",
    "acNumber": 20,
    "acName": "Bhimili",
    "partNumber": 143,
    "partName": "Tagarapuvalasa",
    "lat": 17.9301255,
    "lon": 83.4256586
  },
  {
    "partId": 52579,
    "stateCode": "S01",
    "stateName": "Andhra Pradesh",
    "districtCode": "S0105",
    "districtName": "Visakhapatnam",
    "acNumber": 20,
    "acName": "Bhimili",
    "partNumber": 144,
    "partName": "Chittivalasa",
    "lat": 17.9345148,
    "lon": 83.4290865
  },
  {
    "partId": 52351,
    "stateCode": "S01",
    "stateName": "Andhra Pradesh",
    "districtCode": "S0105",
    "districtName": "Visakhapatnam",
    "acNumber": 20,
    "acName": "Bhimili",
    "partNumber": 145,
    "partName": "Chittivalasa",
    "lat": 17.9345148,
    "lon": 83.4290865
  },
  {
    "partId": 52479,
    "stateCode": "S01",
    "stateName": "Andhra Pradesh",
    "districtCode": "S0105",
    "districtName": "Visakhapatnam",
    "acNumber": 20,
    "acName": "Bhimili",
    "partNumber": 146,
    "partName": "Chittivalasa",
    "lat": 17.9345148,
    "lon": 83.4290865
  },
  {
    "partId": 52473,
    "stateCode": "S01",
    "stateName": "Andhra Pradesh",
    "districtCode": "S0105",
    "districtName": "Visakhapatnam",
    "acNumber": 20,
    "acName": "Bhimili",
    "partNumber": 147,
    "partName": "Chittivalasa",
    "lat": 17.9345148,
    "lon": 83.4290865
  },
  {
    "partId": 52391,
    "stateCode": "S01",
    "stateName": "Andhra Pradesh",
    "districtCode": "S0105",
    "districtName": "Visakhapatnam",
    "acNumber": 20,
    "acName": "Bhimili",
    "partNumber": 148,
    "partName": "Santhapeta",
    "lat": 17.80532215,
    "lon": 83.28276772667053
  },
  {
    "partId": 52578,
    "stateCode": "S01",
    "stateName": "Andhra Pradesh",
    "districtCode": "S0105",
    "districtName": "Visakhapatnam",
    "acNumber": 20,
    "acName": "Bhimili",
    "partNumber": 149,
    "partName": "Santhapeta",
    "lat": 17.80532215,
    "lon": 83.28276772667053
  },
  {
    "partId": 52323,
    "stateCode": "S01",
    "stateName": "Andhra Pradesh",
    "districtCode": "S0105",
    "districtName": "Visakhapatnam",
    "acNumber": 20,
    "acName": "Bhimili",
    "partNumber": 150,
    "partName": "Santhapeta",
    "lat": 17.80532215,
    "lon": 83.28276772667053
  },
  {
    "partId": 52342,
    "stateCode": "S01",
    "stateName": "Andhra Pradesh",
    "districtCode": "S0105",
    "districtName": "Visakhapatnam",
    "acNumber": 20,
    "acName": "Bhimili",
    "partNumber": 151,
    "partName": "Santhapeta",
    "lat": 17.80532215,
    "lon": 83.28276772667053
  },
  {
    "partId": 52349,
    "stateCode": "S01",
    "stateName": "Andhra Pradesh",
    "districtCode": "S0105",
    "districtName": "Visakhapatnam",
    "acNumber": 20,
    "acName": "Bhimili",
    "partNumber": 152,
    "partName": "Chittivalasa",
    "lat": 17.9345148,
    "lon": 83.4290865
  },
  {
    "partId": 52388,
    "stateCode": "S01",
    "stateName": "Andhra Pradesh",
    "districtCode": "S0105",
    "districtName": "Visakhapatnam",
    "acNumber": 20,
    "acName": "Bhimili",
    "partNumber": 153,
    "partName": "Chittivalasa",
    "lat": 17.9345148,
    "lon": 83.4290865
  },
  {
    "partId": 52572,
    "stateCode": "S01",
    "stateName": "Andhra Pradesh",
    "districtCode": "S0105",
    "districtName": "Visakhapatnam",
    "acNumber": 20,
    "acName": "Bhimili",
    "partNumber": 154,
    "partName": "Chittivalasa",
    "lat": 17.9345148,
    "lon": 83.4290865
  },
  {
    "partId": 52316,
    "stateCode": "S01",
    "stateName": "Andhra Pradesh",
    "districtCode": "S0105",
    "districtName": "Visakhapatnam",
    "acNumber": 20,
    "acName": "Bhimili",
    "partNumber": 155,
    "partName": "Chittivalasa",
    "lat": 17.9345148,
    "lon": 83.4290865
  },
  {
    "partId": 52453,
    "stateCode": "S01",
    "stateName": "Andhra Pradesh",
    "districtCode": "S0105",
    "districtName": "Visakhapatnam",
    "acNumber": 20,
    "acName": "Bhimili",
    "partNumber": 156,
    "partName": "Chillapeta",
    "lat": 18.070471,
    "lon": 83.389433
  },
  {
    "partId": 52521,
    "stateCode": "S01",
    "stateName": "Andhra Pradesh",
    "districtCode": "S0105",
    "districtName": "Visakhapatnam",
    "acNumber": 20,
    "acName": "Bhimili",
    "partNumber": 157,
    "partName": "Chillapeta",
    "lat": 18.070471,
    "lon": 83.389433
  },
  {
    "partId": 52347,
    "stateCode": "S01",
    "stateName": "Andhra Pradesh",
    "districtCode": "S0105",
    "districtName": "Visakhapatnam",
    "acNumber": 20,
    "acName": "Bhimili",
    "partNumber": 158,
    "partName": "Kotha Mulakuddu",
    "lat": 17.80532215,
    "lon": 83.28276772667053
  },
  {
    "partId": 52570,
    "stateCode": "S01",
    "stateName": "Andhra Pradesh",
    "districtCode": "S0105",
    "districtName": "Visakhapatnam",
    "acNumber": 20,
    "acName": "Bhimili",
    "partNumber": 159,
    "partName": "Patha Mulakuddu",
    "lat": 17.80532215,
    "lon": 83.28276772667053
  },
  {
    "partId": 52468,
    "stateCode": "S01",
    "stateName": "Andhra Pradesh",
    "districtCode": "S0105",
    "districtName": "Visakhapatnam",
    "acNumber": 20,
    "acName": "Bhimili",
    "partNumber": 160,
    "partName": "Rekhavanipalem",
    "lat": 17.80532215,
    "lon": 83.28276772667053
  },
  {
    "partId": 52512,
    "stateCode": "S01",
    "stateName": "Andhra Pradesh",
    "districtCode": "S0105",
    "districtName": "Visakhapatnam",
    "acNumber": 20,
    "acName": "Bhimili",
    "partNumber": 161,
    "partName": "Rekhavanipalem",
    "lat": 17.80532215,
    "lon": 83.28276772667053
  },
  {
    "partId": 52288,
    "stateCode": "S01",
    "stateName": "Andhra Pradesh",
    "districtCode": "S0105",
    "districtName": "Visakhapatnam",
    "acNumber": 20,
    "acName": "Bhimili",
    "partNumber": 162,
    "partName": "Rekhavanipalem",
    "lat": 17.80532215,
    "lon": 83.28276772667053
  },
  {
    "partId": 52448,
    "stateCode": "S01",
    "stateName": "Andhra Pradesh",
    "districtCode": "S0105",
    "districtName": "Visakhapatnam",
    "acNumber": 20,
    "acName": "Bhimili",
    "partNumber": 163,
    "partName": "Sangivalasa",
    "lat": 17.80532215,
    "lon": 83.28276772667053
  },
  {
    "partId": 52454,
    "stateCode": "S01",
    "stateName": "Andhra Pradesh",
    "districtCode": "S0105",
    "districtName": "Visakhapatnam",
    "acNumber": 20,
    "acName": "Bhimili",
    "partNumber": 164,
    "partName": "Sangivalasa",
    "lat": 17.80532215,
    "lon": 83.28276772667053
  },
  {
    "partId": 52318,
    "stateCode": "S01",
    "stateName": "Andhra Pradesh",
    "districtCode": "S0105",
    "districtName": "Visakhapatnam",
    "acNumber": 20,
    "acName": "Bhimili",
    "partNumber": 165,
    "partName": "Valandapeta H/o Sangivalasa",
    "lat": 17.80532215,
    "lon": 83.28276772667053
  },
  {
    "partId": 52390,
    "stateCode": "S01",
    "stateName": "Andhra Pradesh",
    "districtCode": "S0105",
    "districtName": "Visakhapatnam",
    "acNumber": 20,
    "acName": "Bhimili",
    "partNumber": 166,
    "partName": "Valandapeta H/o Sangivalasa",
    "lat": 17.80532215,
    "lon": 83.28276772667053
  },
  {
    "partId": 52465,
    "stateCode": "S01",
    "stateName": "Andhra Pradesh",
    "districtCode": "S0105",
    "districtName": "Visakhapatnam",
    "acNumber": 20,
    "acName": "Bhimili",
    "partNumber": 167,
    "partName": "Dekketipalem H/o Sangivalasa",
    "lat": 17.80532215,
    "lon": 83.28276772667053
  },
  {
    "partId": 52439,
    "stateCode": "S01",
    "stateName": "Andhra Pradesh",
    "districtCode": "S0105",
    "districtName": "Visakhapatnam",
    "acNumber": 20,
    "acName": "Bhimili",
    "partNumber": 168,
    "partName": "Dekketipalem H/o Sangivalasa",
    "lat": 17.80532215,
    "lon": 83.28276772667053
  },
  {
    "partId": 52337,
    "stateCode": "S01",
    "stateName": "Andhra Pradesh",
    "districtCode": "S0105",
    "districtName": "Visakhapatnam",
    "acNumber": 20,
    "acName": "Bhimili",
    "partNumber": 169,
    "partName": "Tallavalasa",
    "lat": 17.9110237,
    "lon": 83.411374
  },
  {
    "partId": 52353,
    "stateCode": "S01",
    "stateName": "Andhra Pradesh",
    "districtCode": "S0105",
    "districtName": "Visakhapatnam",
    "acNumber": 20,
    "acName": "Bhimili",
    "partNumber": 170,
    "partName": "Tallavalasa",
    "lat": 17.9110237,
    "lon": 83.411374
  },
  {
    "partId": 52430,
    "stateCode": "S01",
    "stateName": "Andhra Pradesh",
    "districtCode": "S0105",
    "districtName": "Visakhapatnam",
    "acNumber": 20,
    "acName": "Bhimili",
    "partNumber": 171,
    "partName": "Tallavalasa",
    "lat": 17.9110237,
    "lon": 83.411374
  },
  {
    "partId": 52384,
    "stateCode": "S01",
    "stateName": "Andhra Pradesh",
    "districtCode": "S0105",
    "districtName": "Visakhapatnam",
    "acNumber": 20,
    "acName": "Bhimili",
    "partNumber": 172,
    "partName": "Yatha Kummaripalem",
    "lat": 17.80532215,
    "lon": 83.28276772667053
  },
  {
    "partId": 52398,
    "stateCode": "S01",
    "stateName": "Andhra Pradesh",
    "districtCode": "S0105",
    "districtName": "Visakhapatnam",
    "acNumber": 20,
    "acName": "Bhimili",
    "partNumber": 173,
    "partName": "Yatha Kummaripalem",
    "lat": 17.80532215,
    "lon": 83.28276772667053
  },
  {
    "partId": 52466,
    "stateCode": "S01",
    "stateName": "Andhra Pradesh",
    "districtCode": "S0105",
    "districtName": "Visakhapatnam",
    "acNumber": 20,
    "acName": "Bhimili",
    "partNumber": 174,
    "partName": "Bheemunipatnam",
    "lat": 17.91255435,
    "lon": 83.43532708053324
  },
  {
    "partId": 52443,
    "stateCode": "S01",
    "stateName": "Andhra Pradesh",
    "districtCode": "S0105",
    "districtName": "Visakhapatnam",
    "acNumber": 20,
    "acName": "Bhimili",
    "partNumber": 175,
    "partName": "Bheemunipatnam",
    "lat": 17.91255435,
    "lon": 83.43532708053324
  },
  {
    "partId": 52627,
    "stateCode": "S01",
    "stateName": "Andhra Pradesh",
    "districtCode": "S0105",
    "districtName": "Visakhapatnam",
    "acNumber": 20,
    "acName": "Bhimili",
    "partNumber": 176,
    "partName": "Bheemunipatnam",
    "lat": 17.91255435,
    "lon": 83.43532708053324
  },
  {
    "partId": 52583,
    "stateCode": "S01",
    "stateName": "Andhra Pradesh",
    "districtCode": "S0105",
    "districtName": "Visakhapatnam",
    "acNumber": 20,
    "acName": "Bhimili",
    "partNumber": 177,
    "partName": "Bheemunipatnam",
    "lat": 17.91255435,
    "lon": 83.43532708053324
  },
  {
    "partId": 52425,
    "stateCode": "S01",
    "stateName": "Andhra Pradesh",
    "districtCode": "S0105",
    "districtName": "Visakhapatnam",
    "acNumber": 20,
    "acName": "Bhimili",
    "partNumber": 178,
    "partName": "Bheemunipatnam",
    "lat": 17.91255435,
    "lon": 83.43532708053324
  },
  {
    "partId": 52567,
    "stateCode": "S01",
    "stateName": "Andhra Pradesh",
    "districtCode": "S0105",
    "districtName": "Visakhapatnam",
    "acNumber": 20,
    "acName": "Bhimili",
    "partNumber": 179,
    "partName": "Bheemunipatnam",
    "lat": 17.80532215,
    "lon": 83.28276772667053
  },
  {
    "partId": 52389,
    "stateCode": "S01",
    "stateName": "Andhra Pradesh",
    "districtCode": "S0105",
    "districtName": "Visakhapatnam",
    "acNumber": 20,
    "acName": "Bhimili",
    "partNumber": 180,
    "partName": "Bheemunipatnam",
    "lat": 17.91255435,
    "lon": 83.43532708053324
  },
  {
    "partId": 52463,
    "stateCode": "S01",
    "stateName": "Andhra Pradesh",
    "districtCode": "S0105",
    "districtName": "Visakhapatnam",
    "acNumber": 20,
    "acName": "Bhimili",
    "partNumber": 181,
    "partName": "Bheemunipatnam",
    "lat": 17.91255435,
    "lon": 83.43532708053324
  },
  {
    "partId": 52387,
    "stateCode": "S01",
    "stateName": "Andhra Pradesh",
    "districtCode": "S0105",
    "districtName": "Visakhapatnam",
    "acNumber": 20,
    "acName": "Bhimili",
    "partNumber": 182,
    "partName": "Bheemunipatnam",
    "lat": 17.91255435,
    "lon": 83.43532708053324
  },
  {
    "partId": 52281,
    "stateCode": "S01",
    "stateName": "Andhra Pradesh",
    "districtCode": "S0105",
    "districtName": "Visakhapatnam",
    "acNumber": 20,
    "acName": "Bhimili",
    "partNumber": 183,
    "partName": "Bheemunipatnam",
    "lat": 17.80532215,
    "lon": 83.28276772667053
  },
  {
    "partId": 52421,
    "stateCode": "S01",
    "stateName": "Andhra Pradesh",
    "districtCode": "S0105",
    "districtName": "Visakhapatnam",
    "acNumber": 20,
    "acName": "Bhimili",
    "partNumber": 184,
    "partName": "Bheemunipatnam",
    "lat": 17.91255435,
    "lon": 83.43532708053324
  },
  {
    "partId": 52566,
    "stateCode": "S01",
    "stateName": "Andhra Pradesh",
    "districtCode": "S0105",
    "districtName": "Visakhapatnam",
    "acNumber": 20,
    "acName": "Bhimili",
    "partNumber": 185,
    "partName": "Bheemunipatnam",
    "lat": 17.91255435,
    "lon": 83.43532708053324
  },
  {
    "partId": 52382,
    "stateCode": "S01",
    "stateName": "Andhra Pradesh",
    "districtCode": "S0105",
    "districtName": "Visakhapatnam",
    "acNumber": 20,
    "acName": "Bhimili",
    "partNumber": 186,
    "partName": "Bheemunipatnam",
    "lat": 17.91255435,
    "lon": 83.43532708053324
  },
  {
    "partId": 52287,
    "stateCode": "S01",
    "stateName": "Andhra Pradesh",
    "districtCode": "S0105",
    "districtName": "Visakhapatnam",
    "acNumber": 20,
    "acName": "Bhimili",
    "partNumber": 187,
    "partName": "Bheemunipatnam",
    "lat": 17.91255435,
    "lon": 83.43532708053324
  },
  {
    "partId": 52319,
    "stateCode": "S01",
    "stateName": "Andhra Pradesh",
    "districtCode": "S0105",
    "districtName": "Visakhapatnam",
    "acNumber": 20,
    "acName": "Bhimili",
    "partNumber": 188,
    "partName": "Bheemunipatnam",
    "lat": 17.91255435,
    "lon": 83.43532708053324
  },
  {
    "partId": 52590,
    "stateCode": "S01",
    "stateName": "Andhra Pradesh",
    "districtCode": "S0105",
    "districtName": "Visakhapatnam",
    "acNumber": 20,
    "acName": "Bhimili",
    "partNumber": 189,
    "partName": "Nerellavalasa",
    "lat": 17.80532215,
    "lon": 83.28276772667053
  },
  {
    "partId": 52330,
    "stateCode": "S01",
    "stateName": "Andhra Pradesh",
    "districtCode": "S0105",
    "districtName": "Visakhapatnam",
    "acNumber": 20,
    "acName": "Bhimili",
    "partNumber": 190,
    "partName": "J.V.Agraharam",
    "lat": 17.80532215,
    "lon": 83.28276772667053
  },
  {
    "partId": 52355,
    "stateCode": "S01",
    "stateName": "Andhra Pradesh",
    "districtCode": "S0105",
    "districtName": "Visakhapatnam",
    "acNumber": 20,
    "acName": "Bhimili",
    "partNumber": 191,
    "partName": "Kothavalasa",
    "lat": 17.8977936,
    "lon": 83.2591131
  },
  {
    "partId": 52418,
    "stateCode": "S01",
    "stateName": "Andhra Pradesh",
    "districtCode": "S0105",
    "districtName": "Visakhapatnam",
    "acNumber": 20,
    "acName": "Bhimili",
    "partNumber": 192,
    "partName": "Nidigattu",
    "lat": 17.80532215,
    "lon": 83.28276772667053
  },
  {
    "partId": 52489,
    "stateCode": "S01",
    "stateName": "Andhra Pradesh",
    "districtCode": "S0105",
    "districtName": "Visakhapatnam",
    "acNumber": 20,
    "acName": "Bhimili",
    "partNumber": 193,
    "partName": "R.Y.Agraharam",
    "lat": 17.80532215,
    "lon": 83.28276772667053
  },
  {
    "partId": 52574,
    "stateCode": "S01",
    "stateName": "Andhra Pradesh",
    "districtCode": "S0105",
    "districtName": "Visakhapatnam",
    "acNumber": 20,
    "acName": "Bhimili",
    "partNumber": 194,
    "partName": "Pedauppada",
    "lat": 17.80532215,
    "lon": 83.28276772667053
  },
  {
    "partId": 52628,
    "stateCode": "S01",
    "stateName": "Andhra Pradesh",
    "districtCode": "S0105",
    "districtName": "Visakhapatnam",
    "acNumber": 20,
    "acName": "Bhimili",
    "partNumber": 195,
    "partName": "China Uppada",
    "lat": 17.80532215,
    "lon": 83.28276772667053
  },
  {
    "partId": 52531,
    "stateCode": "S01",
    "stateName": "Andhra Pradesh",
    "districtCode": "S0105",
    "districtName": "Visakhapatnam",
    "acNumber": 20,
    "acName": "Bhimili",
    "partNumber": 196,
    "partName": "Chinauppada",
    "lat": 17.80532215,
    "lon": 83.28276772667053
  },
  {
    "partId": 52573,
    "stateCode": "S01",
    "stateName": "Andhra Pradesh",
    "districtCode": "S0105",
    "districtName": "Visakhapatnam",
    "acNumber": 20,
    "acName": "Bhimili",
    "partNumber": 197,
    "partName": "CHINA UPPADA",
    "lat": 17.80532215,
    "lon": 83.28276772667053
  },
  {
    "partId": 52308,
    "stateCode": "S01",
    "stateName": "Andhra Pradesh",
    "districtCode": "S0105",
    "districtName": "Visakhapatnam",
    "acNumber": 20,
    "acName": "Bhimili",
    "partNumber": 198,
    "partName": "Kothuru H/oChepaluppada",
    "lat": 17.80532215,
    "lon": 83.28276772667053
  },
  {
    "partId": 52429,
    "stateCode": "S01",
    "stateName": "Andhra Pradesh",
    "districtCode": "S0105",
    "districtName": "Visakhapatnam",
    "acNumber": 20,
    "acName": "Bhimili",
    "partNumber": 199,
    "partName": "KOTTURU H/O CHEPALUPPADA",
    "lat": 17.80532215,
    "lon": 83.28276772667053
  },
  {
    "partId": 52350,
    "stateCode": "S01",
    "stateName": "Andhra Pradesh",
    "districtCode": "S0105",
    "districtName": "Visakhapatnam",
    "acNumber": 20,
    "acName": "Bhimili",
    "partNumber": 200,
    "partName": "Kapuluppada",
    "lat": 17.80532215,
    "lon": 83.28276772667053
  },
  {
    "partId": 52530,
    "stateCode": "S01",
    "stateName": "Andhra Pradesh",
    "districtCode": "S0105",
    "districtName": "Visakhapatnam",
    "acNumber": 20,
    "acName": "Bhimili",
    "partNumber": 201,
    "partName": "Pathaparadesipalem",
    "lat": 17.80532215,
    "lon": 83.28276772667053
  },
  {
    "partId": 52370,
    "stateCode": "S01",
    "stateName": "Andhra Pradesh",
    "districtCode": "S0105",
    "districtName": "Visakhapatnam",
    "acNumber": 20,
    "acName": "Bhimili",
    "partNumber": 202,
    "partName": "Nagarapalem",
    "lat": 17.8175772,
    "lon": 83.3586768
  },
  {
    "partId": 52526,
    "stateCode": "S01",
    "stateName": "Andhra Pradesh",
    "districtCode": "S0105",
    "districtName": "Visakhapatnam",
    "acNumber": 20,
    "acName": "Bhimili",
    "partNumber": 203,
    "partName": "Nagarapalem",
    "lat": 17.8175772,
    "lon": 83.3586768
  },
  {
    "partId": 52435,
    "stateCode": "S01",
    "stateName": "Andhra Pradesh",
    "districtCode": "S0105",
    "districtName": "Visakhapatnam",
    "acNumber": 20,
    "acName": "Bhimili",
    "partNumber": 204,
    "partName": "Pedamangamaripeta H/oKapuluppada",
    "lat": 17.80532215,
    "lon": 83.28276772667053
  },
  {
    "partId": 52366,
    "stateCode": "S01",
    "stateName": "Andhra Pradesh",
    "districtCode": "S0105",
    "districtName": "Visakhapatnam",
    "acNumber": 20,
    "acName": "Bhimili",
    "partNumber": 205,
    "partName": "Pedamangamaripeta H/o Kapuluppada",
    "lat": 17.80532215,
    "lon": 83.28276772667053
  },
  {
    "partId": 52306,
    "stateCode": "S01",
    "stateName": "Andhra Pradesh",
    "districtCode": "S0105",
    "districtName": "Visakhapatnam",
    "acNumber": 20,
    "acName": "Bhimili",
    "partNumber": 206,
    "partName": "Chepala Thimmapuram",
    "lat": 17.80532215,
    "lon": 83.28276772667053
  },
  {
    "partId": 52296,
    "stateCode": "S01",
    "stateName": "Andhra Pradesh",
    "districtCode": "S0105",
    "districtName": "Visakhapatnam",
    "acNumber": 20,
    "acName": "Bhimili",
    "partNumber": 207,
    "partName": "Pedamangamaripeta H/oNagarapalem",
    "lat": 17.80532215,
    "lon": 83.28276772667053
  },
  {
    "partId": 52503,
    "stateCode": "S01",
    "stateName": "Andhra Pradesh",
    "districtCode": "S0105",
    "districtName": "Visakhapatnam",
    "acNumber": 20,
    "acName": "Bhimili",
    "partNumber": 208,
    "partName": "MANGAMARIPETA",
    "lat": 17.80532215,
    "lon": 83.28276772667053
  },
  {
    "partId": 52589,
    "stateCode": "S01",
    "stateName": "Andhra Pradesh",
    "districtCode": "S0105",
    "districtName": "Visakhapatnam",
    "acNumber": 20,
    "acName": "Bhimili",
    "partNumber": 209,
    "partName": "Yellapuvanipalem",
    "lat": 17.80532215,
    "lon": 83.28276772667053
  },
  {
    "partId": 52511,
    "stateCode": "S01",
    "stateName": "Andhra Pradesh",
    "districtCode": "S0105",
    "districtName": "Visakhapatnam",
    "acNumber": 20,
    "acName": "Bhimili",
    "partNumber": 210,
    "partName": "Yellapuvanipalem",
    "lat": 17.80532215,
    "lon": 83.28276772667053
  },
  {
    "partId": 52464,
    "stateCode": "S01",
    "stateName": "Andhra Pradesh",
    "districtCode": "S0105",
    "districtName": "Visakhapatnam",
    "acNumber": 20,
    "acName": "Bhimili",
    "partNumber": 211,
    "partName": "Yellapuvanipalem",
    "lat": 17.80532215,
    "lon": 83.28276772667053
  },
  {
    "partId": 52403,
    "stateCode": "S01",
    "stateName": "Andhra Pradesh",
    "districtCode": "S0105",
    "districtName": "Visakhapatnam",
    "acNumber": 20,
    "acName": "Bhimili",
    "partNumber": 212,
    "partName": "Yellapuvanipalem",
    "lat": 17.80532215,
    "lon": 83.28276772667053
  },
  {
    "partId": 52490,
    "stateCode": "S01",
    "stateName": "Andhra Pradesh",
    "districtCode": "S0105",
    "districtName": "Visakhapatnam",
    "acNumber": 20,
    "acName": "Bhimili",
    "partNumber": 213,
    "partName": "Yellapuvanipalem",
    "lat": 17.80532215,
    "lon": 83.28276772667053
  },
  {
    "partId": 52502,
    "stateCode": "S01",
    "stateName": "Andhra Pradesh",
    "districtCode": "S0105",
    "districtName": "Visakhapatnam",
    "acNumber": 20,
    "acName": "Bhimili",
    "partNumber": 214,
    "partName": "Yellapuvanipalem",
    "lat": 17.80532215,
    "lon": 83.28276772667053
  },
  {
    "partId": 52588,
    "stateCode": "S01",
    "stateName": "Andhra Pradesh",
    "districtCode": "S0105",
    "districtName": "Visakhapatnam",
    "acNumber": 20,
    "acName": "Bhimili",
    "partNumber": 215,
    "partName": "Pata Adavivaram",
    "lat": 17.80532215,
    "lon": 83.28276772667053
  },
  {
    "partId": 52615,
    "stateCode": "S01",
    "stateName": "Andhra Pradesh",
    "districtCode": "S0105",
    "districtName": "Visakhapatnam",
    "acNumber": 20,
    "acName": "Bhimili",
    "partNumber": 216,
    "partName": "ADAVIVARAM",
    "lat": 17.7821934,
    "lon": 83.2659484
  },
  {
    "partId": 52537,
    "stateCode": "S01",
    "stateName": "Andhra Pradesh",
    "districtCode": "S0105",
    "districtName": "Visakhapatnam",
    "acNumber": 20,
    "acName": "Bhimili",
    "partNumber": 217,
    "partName": "Pata Adavivaram",
    "lat": 17.80532215,
    "lon": 83.28276772667053
  },
  {
    "partId": 52345,
    "stateCode": "S01",
    "stateName": "Andhra Pradesh",
    "districtCode": "S0105",
    "districtName": "Visakhapatnam",
    "acNumber": 20,
    "acName": "Bhimili",
    "partNumber": 218,
    "partName": "Pata Adavivaram",
    "lat": 17.80532215,
    "lon": 83.28276772667053
  },
  {
    "partId": 52399,
    "stateCode": "S01",
    "stateName": "Andhra Pradesh",
    "districtCode": "S0105",
    "districtName": "Visakhapatnam",
    "acNumber": 20,
    "acName": "Bhimili",
    "partNumber": 219,
    "partName": "Patha Adavivaram",
    "lat": 17.80532215,
    "lon": 83.28276772667053
  },
  {
    "partId": 52484,
    "stateCode": "S01",
    "stateName": "Andhra Pradesh",
    "districtCode": "S0105",
    "districtName": "Visakhapatnam",
    "acNumber": 20,
    "acName": "Bhimili",
    "partNumber": 220,
    "partName": "Patha Adavivaram",
    "lat": 17.80532215,
    "lon": 83.28276772667053
  },
  {
    "partId": 52367,
    "stateCode": "S01",
    "stateName": "Andhra Pradesh",
    "districtCode": "S0105",
    "districtName": "Visakhapatnam",
    "acNumber": 20,
    "acName": "Bhimili",
    "partNumber": 221,
    "partName": "Adavivaram",
    "lat": 17.7821934,
    "lon": 83.2659484
  },
  {
    "partId": 52616,
    "stateCode": "S01",
    "stateName": "Andhra Pradesh",
    "districtCode": "S0105",
    "districtName": "Visakhapatnam",
    "acNumber": 20,
    "acName": "Bhimili",
    "partNumber": 222,
    "partName": "DURGANAGAR,HB COLONY",
    "lat": 17.80532215,
    "lon": 83.28276772667053
  },
  {
    "partId": 52493,
    "stateCode": "S01",
    "stateName": "Andhra Pradesh",
    "districtCode": "S0105",
    "districtName": "Visakhapatnam",
    "acNumber": 20,
    "acName": "Bhimili",
    "partNumber": 223,
    "partName": "Adavivaram",
    "lat": 17.7821934,
    "lon": 83.2659484
  },
  {
    "partId": 52514,
    "stateCode": "S01",
    "stateName": "Andhra Pradesh",
    "districtCode": "S0105",
    "districtName": "Visakhapatnam",
    "acNumber": 20,
    "acName": "Bhimili",
    "partNumber": 224,
    "partName": "Chandanapuri colony, Prahaladapuram",
    "lat": 17.80532215,
    "lon": 83.28276772667053
  },
  {
    "partId": 52595,
    "stateCode": "S01",
    "stateName": "Andhra Pradesh",
    "districtCode": "S0105",
    "districtName": "Visakhapatnam",
    "acNumber": 20,
    "acName": "Bhimili",
    "partNumber": 225,
    "partName": "Adavivaram",
    "lat": 17.7821934,
    "lon": 83.2659484
  },
  {
    "partId": 52346,
    "stateCode": "S01",
    "stateName": "Andhra Pradesh",
    "districtCode": "S0105",
    "districtName": "Visakhapatnam",
    "acNumber": 20,
    "acName": "Bhimili",
    "partNumber": 226,
    "partName": "ADAVIVARAM",
    "lat": 17.7821934,
    "lon": 83.2659484
  },
  {
    "partId": 52509,
    "stateCode": "S01",
    "stateName": "Andhra Pradesh",
    "districtCode": "S0105",
    "districtName": "Visakhapatnam",
    "acNumber": 20,
    "acName": "Bhimili",
    "partNumber": 227,
    "partName": "Adavivaram",
    "lat": 17.7821934,
    "lon": 83.2659484
  },
  {
    "partId": 52286,
    "stateCode": "S01",
    "stateName": "Andhra Pradesh",
    "districtCode": "S0105",
    "districtName": "Visakhapatnam",
    "acNumber": 20,
    "acName": "Bhimili",
    "partNumber": 228,
    "partName": "Simhadripuram, H/o.Adavivaram",
    "lat": 17.80532215,
    "lon": 83.28276772667053
  },
  {
    "partId": 52374,
    "stateCode": "S01",
    "stateName": "Andhra Pradesh",
    "districtCode": "S0105",
    "districtName": "Visakhapatnam",
    "acNumber": 20,
    "acName": "Bhimili",
    "partNumber": 229,
    "partName": "Simhadripuram",
    "lat": 17.7486062,
    "lon": 83.3216244
  },
  {
    "partId": 52457,
    "stateCode": "S01",
    "stateName": "Andhra Pradesh",
    "districtCode": "S0105",
    "districtName": "Visakhapatnam",
    "acNumber": 20,
    "acName": "Bhimili",
    "partNumber": 230,
    "partName": "Satyasainagar, H/o.Adavivaram",
    "lat": 17.80532215,
    "lon": 83.28276772667053
  },
  {
    "partId": 52487,
    "stateCode": "S01",
    "stateName": "Andhra Pradesh",
    "districtCode": "S0105",
    "districtName": "Visakhapatnam",
    "acNumber": 20,
    "acName": "Bhimili",
    "partNumber": 231,
    "partName": "Satyasainagar, H/o.Adavivaram",
    "lat": 17.80532215,
    "lon": 83.28276772667053
  },
  {
    "partId": 52290,
    "stateCode": "S01",
    "stateName": "Andhra Pradesh",
    "districtCode": "S0105",
    "districtName": "Visakhapatnam",
    "acNumber": 20,
    "acName": "Bhimili",
    "partNumber": 232,
    "partName": "VARAHAGIRI COLONY",
    "lat": 17.9203573,
    "lon": 83.4217572
  },
  {
    "partId": 52554,
    "stateCode": "S01",
    "stateName": "Andhra Pradesh",
    "districtCode": "S0105",
    "districtName": "Visakhapatnam",
    "acNumber": 20,
    "acName": "Bhimili",
    "partNumber": 233,
    "partName": "Adavivaram",
    "lat": 17.7821934,
    "lon": 83.2659484
  },
  {
    "partId": 52605,
    "stateCode": "S01",
    "stateName": "Andhra Pradesh",
    "districtCode": "S0105",
    "districtName": "Visakhapatnam",
    "acNumber": 20,
    "acName": "Bhimili",
    "partNumber": 234,
    "partName": "Adavivaram",
    "lat": 17.7821934,
    "lon": 83.2659484
  },
  {
    "partId": 52451,
    "stateCode": "S01",
    "stateName": "Andhra Pradesh",
    "districtCode": "S0105",
    "districtName": "Visakhapatnam",
    "acNumber": 20,
    "acName": "Bhimili",
    "partNumber": 235,
    "partName": "Adavivaram",
    "lat": 17.80532215,
    "lon": 83.28276772667053
  },
  {
    "partId": 52506,
    "stateCode": "S01",
    "stateName": "Andhra Pradesh",
    "districtCode": "S0105",
    "districtName": "Visakhapatnam",
    "acNumber": 20,
    "acName": "Bhimili",
    "partNumber": 236,
    "partName": "ADAVIVARAM",
    "lat": 17.7821934,
    "lon": 83.2659484
  },
  {
    "partId": 52486,
    "stateCode": "S01",
    "stateName": "Andhra Pradesh",
    "districtCode": "S0105",
    "districtName": "Visakhapatnam",
    "acNumber": 20,
    "acName": "Bhimili",
    "partNumber": 237,
    "partName": "Adavivaram",
    "lat": 17.7821934,
    "lon": 83.2659484
  },
  {
    "partId": 52461,
    "stateCode": "S01",
    "stateName": "Andhra Pradesh",
    "districtCode": "S0105",
    "districtName": "Visakhapatnam",
    "acNumber": 20,
    "acName": "Bhimili",
    "partNumber": 238,
    "partName": "ADAVIVARAM",
    "lat": 17.7821934,
    "lon": 83.2659484
  },
  {
    "partId": 52455,
    "stateCode": "S01",
    "stateName": "Andhra Pradesh",
    "districtCode": "S0105",
    "districtName": "Visakhapatnam",
    "acNumber": 20,
    "acName": "Bhimili",
    "partNumber": 239,
    "partName": "Adavivaram",
    "lat": 17.80532215,
    "lon": 83.28276772667053
  },
  {
    "partId": 52610,
    "stateCode": "S01",
    "stateName": "Andhra Pradesh",
    "districtCode": "S0105",
    "districtName": "Visakhapatnam",
    "acNumber": 20,
    "acName": "Bhimili",
    "partNumber": 240,
    "partName": "Adavivaram",
    "lat": 17.7821934,
    "lon": 83.2659484
  },
  {
    "partId": 52613,
    "stateCode": "S01",
    "stateName": "Andhra Pradesh",
    "districtCode": "S0105",
    "districtName": "Visakhapatnam",
    "acNumber": 20,
    "acName": "Bhimili",
    "partNumber": 241,
    "partName": "Ganeshnagar",
    "lat": 17.80532215,
    "lon": 83.28276772667053
  },
  {
    "partId": 52329,
    "stateCode": "S01",
    "stateName": "Andhra Pradesh",
    "districtCode": "S0105",
    "districtName": "Visakhapatnam",
    "acNumber": 20,
    "acName": "Bhimili",
    "partNumber": 242,
    "partName": "Ganeshnagar",
    "lat": 17.80532215,
    "lon": 83.28276772667053
  },
  {
    "partId": 52396,
    "stateCode": "S01",
    "stateName": "Andhra Pradesh",
    "districtCode": "S0105",
    "districtName": "Visakhapatnam",
    "acNumber": 20,
    "acName": "Bhimili",
    "partNumber": 243,
    "partName": "Paradesipalem",
    "lat": 17.8584832,
    "lon": 83.3636069
  },
  {
    "partId": 52381,
    "stateCode": "S01",
    "stateName": "Andhra Pradesh",
    "districtCode": "S0105",
    "districtName": "Visakhapatnam",
    "acNumber": 20,
    "acName": "Bhimili",
    "partNumber": 244,
    "partName": "Marika valasa",
    "lat": 17.80532215,
    "lon": 83.28276772667053
  },
  {
    "partId": 52426,
    "stateCode": "S01",
    "stateName": "Andhra Pradesh",
    "districtCode": "S0105",
    "districtName": "Visakhapatnam",
    "acNumber": 20,
    "acName": "Bhimili",
    "partNumber": 245,
    "partName": "MARIKAVALASA H/O PARADESHIPALEM",
    "lat": 17.80532215,
    "lon": 83.28276772667053
  },
  {
    "partId": 52507,
    "stateCode": "S01",
    "stateName": "Andhra Pradesh",
    "districtCode": "S0105",
    "districtName": "Visakhapatnam",
    "acNumber": 20,
    "acName": "Bhimili",
    "partNumber": 246,
    "partName": "Paradesipalem",
    "lat": 17.8584832,
    "lon": 83.3636069
  },
  {
    "partId": 52546,
    "stateCode": "S01",
    "stateName": "Andhra Pradesh",
    "districtCode": "S0105",
    "districtName": "Visakhapatnam",
    "acNumber": 20,
    "acName": "Bhimili",
    "partNumber": 247,
    "partName": "Paradesipalem",
    "lat": 17.8584832,
    "lon": 83.3636069
  },
  {
    "partId": 52500,
    "stateCode": "S01",
    "stateName": "Andhra Pradesh",
    "districtCode": "S0105",
    "districtName": "Visakhapatnam",
    "acNumber": 20,
    "acName": "Bhimili",
    "partNumber": 248,
    "partName": "M P U P SCHOOL",
    "lat": 17.80532215,
    "lon": 83.28276772667053
  },
  {
    "partId": 52300,
    "stateCode": "S01",
    "stateName": "Andhra Pradesh",
    "districtCode": "S0105",
    "districtName": "Visakhapatnam",
    "acNumber": 20,
    "acName": "Bhimili",
    "partNumber": 249,
    "partName": "Marikavalasa H/o Paradesipalem",
    "lat": 17.80532215,
    "lon": 83.28276772667053
  },
  {
    "partId": 52280,
    "stateCode": "S01",
    "stateName": "Andhra Pradesh",
    "districtCode": "S0105",
    "districtName": "Visakhapatnam",
    "acNumber": 20,
    "acName": "Bhimili",
    "partNumber": 250,
    "partName": "MARIKVALASA H/O PARADESHIPALEM",
    "lat": 17.80532215,
    "lon": 83.28276772667053
  },
  {
    "partId": 52617,
    "stateCode": "S01",
    "stateName": "Andhra Pradesh",
    "districtCode": "S0105",
    "districtName": "Visakhapatnam",
    "acNumber": 20,
    "acName": "Bhimili",
    "partNumber": 251,
    "partName": "RGK COLONY, MARIKAVALASA",
    "lat": 17.80532215,
    "lon": 83.28276772667053
  },
  {
    "partId": 52561,
    "stateCode": "S01",
    "stateName": "Andhra Pradesh",
    "districtCode": "S0105",
    "districtName": "Visakhapatnam",
    "acNumber": 20,
    "acName": "Bhimili",
    "partNumber": 252,
    "partName": "Marikavalasa",
    "lat": 17.8392751,
    "lon": 83.3538605
  },
  {
    "partId": 52442,
    "stateCode": "S01",
    "stateName": "Andhra Pradesh",
    "districtCode": "S0105",
    "districtName": "Visakhapatnam",
    "acNumber": 20,
    "acName": "Bhimili",
    "partNumber": 253,
    "partName": "Kommadi",
    "lat": 17.8306475,
    "lon": 83.3357655
  },
  {
    "partId": 52481,
    "stateCode": "S01",
    "stateName": "Andhra Pradesh",
    "districtCode": "S0105",
    "districtName": "Visakhapatnam",
    "acNumber": 20,
    "acName": "Bhimili",
    "partNumber": 254,
    "partName": "KOMMADI",
    "lat": 17.80532215,
    "lon": 83.28276772667053
  },
  {
    "partId": 52478,
    "stateCode": "S01",
    "stateName": "Andhra Pradesh",
    "districtCode": "S0105",
    "districtName": "Visakhapatnam",
    "acNumber": 20,
    "acName": "Bhimili",
    "partNumber": 255,
    "partName": "KOMMADI",
    "lat": 17.8306475,
    "lon": 83.3357655
  },
  {
    "partId": 52618,
    "stateCode": "S01",
    "stateName": "Andhra Pradesh",
    "districtCode": "S0105",
    "districtName": "Visakhapatnam",
    "acNumber": 20,
    "acName": "Bhimili",
    "partNumber": 256,
    "partName": "K3 COLONY,KOMMADI",
    "lat": 17.8255065,
    "lon": 83.3561934
  },
  {
    "partId": 52586,
    "stateCode": "S01",
    "stateName": "Andhra Pradesh",
    "districtCode": "S0105",
    "districtName": "Visakhapatnam",
    "acNumber": 20,
    "acName": "Bhimili",
    "partNumber": 257,
    "partName": "KOMMADI",
    "lat": 17.8306475,
    "lon": 83.3357655
  },
  {
    "partId": 52299,
    "stateCode": "S01",
    "stateName": "Andhra Pradesh",
    "districtCode": "S0105",
    "districtName": "Visakhapatnam",
    "acNumber": 20,
    "acName": "Bhimili",
    "partNumber": 258,
    "partName": "Kommadi",
    "lat": 17.80532215,
    "lon": 83.28276772667053
  },
  {
    "partId": 52335,
    "stateCode": "S01",
    "stateName": "Andhra Pradesh",
    "districtCode": "S0105",
    "districtName": "Visakhapatnam",
    "acNumber": 20,
    "acName": "Bhimili",
    "partNumber": 259,
    "partName": "Bakkannapalem",
    "lat": 17.80532215,
    "lon": 83.28276772667053
  },
  {
    "partId": 52401,
    "stateCode": "S01",
    "stateName": "Andhra Pradesh",
    "districtCode": "S0105",
    "districtName": "Visakhapatnam",
    "acNumber": 20,
    "acName": "Bhimili",
    "partNumber": 260,
    "partName": "BAKKANNAPALEM",
    "lat": 17.80532215,
    "lon": 83.28276772667053
  },
  {
    "partId": 52285,
    "stateCode": "S01",
    "stateName": "Andhra Pradesh",
    "districtCode": "S0105",
    "districtName": "Visakhapatnam",
    "acNumber": 20,
    "acName": "Bhimili",
    "partNumber": 261,
    "partName": "Bakkannapalem",
    "lat": 17.80532215,
    "lon": 83.28276772667053
  },
  {
    "partId": 52409,
    "stateCode": "S01",
    "stateName": "Andhra Pradesh",
    "districtCode": "S0105",
    "districtName": "Visakhapatnam",
    "acNumber": 20,
    "acName": "Bhimili",
    "partNumber": 262,
    "partName": "Pothinamallayyapalem",
    "lat": 17.80532215,
    "lon": 83.28276772667053
  },
  {
    "partId": 52544,
    "stateCode": "S01",
    "stateName": "Andhra Pradesh",
    "districtCode": "S0105",
    "districtName": "Visakhapatnam",
    "acNumber": 20,
    "acName": "Bhimili",
    "partNumber": 263,
    "partName": "Pothinamallayyapalem",
    "lat": 17.80532215,
    "lon": 83.28276772667053
  },
  {
    "partId": 52460,
    "stateCode": "S01",
    "stateName": "Andhra Pradesh",
    "districtCode": "S0105",
    "districtName": "Visakhapatnam",
    "acNumber": 20,
    "acName": "Bhimili",
    "partNumber": 264,
    "partName": "POTHINAMALLAYYAPALEM",
    "lat": 17.80532215,
    "lon": 83.28276772667053
  },
  {
    "partId": 52326,
    "stateCode": "S01",
    "stateName": "Andhra Pradesh",
    "districtCode": "S0105",
    "districtName": "Visakhapatnam",
    "acNumber": 20,
    "acName": "Bhimili",
    "partNumber": 265,
    "partName": "Pothinamallayyapalem",
    "lat": 17.80532215,
    "lon": 83.28276772667053
  },
  {
    "partId": 52354,
    "stateCode": "S01",
    "stateName": "Andhra Pradesh",
    "districtCode": "S0105",
    "districtName": "Visakhapatnam",
    "acNumber": 20,
    "acName": "Bhimili",
    "partNumber": 266,
    "partName": "Pothinamallayyapalem",
    "lat": 17.80532215,
    "lon": 83.28276772667053
  },
  {
    "partId": 52629,
    "stateCode": "S01",
    "stateName": "Andhra Pradesh",
    "districtCode": "S0105",
    "districtName": "Visakhapatnam",
    "acNumber": 20,
    "acName": "Bhimili",
    "partNumber": 267,
    "partName": "PM Palem",
    "lat": 17.80532215,
    "lon": 83.28276772667053
  },
  {
    "partId": 52343,
    "stateCode": "S01",
    "stateName": "Andhra Pradesh",
    "districtCode": "S0105",
    "districtName": "Visakhapatnam",
    "acNumber": 20,
    "acName": "Bhimili",
    "partNumber": 268,
    "partName": "Pothinamallayyapalem",
    "lat": 17.80532215,
    "lon": 83.28276772667053
  },
  {
    "partId": 52560,
    "stateCode": "S01",
    "stateName": "Andhra Pradesh",
    "districtCode": "S0105",
    "districtName": "Visakhapatnam",
    "acNumber": 20,
    "acName": "Bhimili",
    "partNumber": 269,
    "partName": "Pothinamallayyapalem",
    "lat": 17.80532215,
    "lon": 83.28276772667053
  },
  {
    "partId": 52611,
    "stateCode": "S01",
    "stateName": "Andhra Pradesh",
    "districtCode": "S0105",
    "districtName": "Visakhapatnam",
    "acNumber": 20,
    "acName": "Bhimili",
    "partNumber": 270,
    "partName": "Pothinamallayyapalem",
    "lat": 17.80532215,
    "lon": 83.28276772667053
  },
  {
    "partId": 52545,
    "stateCode": "S01",
    "stateName": "Andhra Pradesh",
    "districtCode": "S0105",
    "districtName": "Visakhapatnam",
    "acNumber": 20,
    "acName": "Bhimili",
    "partNumber": 271,
    "partName": "Pothinamallayyapalem",
    "lat": 17.80532215,
    "lon": 83.28276772667053
  },
  {
    "partId": 52352,
    "stateCode": "S01",
    "stateName": "Andhra Pradesh",
    "districtCode": "S0105",
    "districtName": "Visakhapatnam",
    "acNumber": 20,
    "acName": "Bhimili",
    "partNumber": 272,
    "partName": "Pothinamallayyapalem",
    "lat": 17.80532215,
    "lon": 83.28276772667053
  },
  {
    "partId": 52301,
    "stateCode": "S01",
    "stateName": "Andhra Pradesh",
    "districtCode": "S0105",
    "districtName": "Visakhapatnam",
    "acNumber": 20,
    "acName": "Bhimili",
    "partNumber": 273,
    "partName": "Pothinamallayyapalem",
    "lat": 17.80532215,
    "lon": 83.28276772667053
  },
  {
    "partId": 52415,
    "stateCode": "S01",
    "stateName": "Andhra Pradesh",
    "districtCode": "S0105",
    "districtName": "Visakhapatnam",
    "acNumber": 20,
    "acName": "Bhimili",
    "partNumber": 274,
    "partName": "Pothinamallayyapalem",
    "lat": 17.80532215,
    "lon": 83.28276772667053
  },
  {
    "partId": 52538,
    "stateCode": "S01",
    "stateName": "Andhra Pradesh",
    "districtCode": "S0105",
    "districtName": "Visakhapatnam",
    "acNumber": 20,
    "acName": "Bhimili",
    "partNumber": 275,
    "partName": "Pothinamallayyapalem",
    "lat": 17.80532215,
    "lon": 83.28276772667053
  },
  {
    "partId": 52459,
    "stateCode": "S01",
    "stateName": "Andhra Pradesh",
    "districtCode": "S0105",
    "districtName": "Visakhapatnam",
    "acNumber": 20,
    "acName": "Bhimili",
    "partNumber": 276,
    "partName": "Pothinamallayya Palem",
    "lat": 17.80532215,
    "lon": 83.28276772667053
  },
  {
    "partId": 52483,
    "stateCode": "S01",
    "stateName": "Andhra Pradesh",
    "districtCode": "S0105",
    "districtName": "Visakhapatnam",
    "acNumber": 20,
    "acName": "Bhimili",
    "partNumber": 277,
    "partName": "OLD POTHINAMALLAYYAPALEM",
    "lat": 17.80532215,
    "lon": 83.28276772667053
  },
  {
    "partId": 52325,
    "stateCode": "S01",
    "stateName": "Andhra Pradesh",
    "districtCode": "S0105",
    "districtName": "Visakhapatnam",
    "acNumber": 20,
    "acName": "Bhimili",
    "partNumber": 278,
    "partName": "Laxmivanipalem",
    "lat": 17.80532215,
    "lon": 83.28276772667053
  },
  {
    "partId": 52428,
    "stateCode": "S01",
    "stateName": "Andhra Pradesh",
    "districtCode": "S0105",
    "districtName": "Visakhapatnam",
    "acNumber": 20,
    "acName": "Bhimili",
    "partNumber": 279,
    "partName": "Pothinamallayya Palem",
    "lat": 17.80532215,
    "lon": 83.28276772667053
  },
  {
    "partId": 52452,
    "stateCode": "S01",
    "stateName": "Andhra Pradesh",
    "districtCode": "S0105",
    "districtName": "Visakhapatnam",
    "acNumber": 20,
    "acName": "Bhimili",
    "partNumber": 280,
    "partName": "CHANDRAMPALEM",
    "lat": 17.80532215,
    "lon": 83.28276772667053
  },
  {
    "partId": 52630,
    "stateCode": "S01",
    "stateName": "Andhra Pradesh",
    "districtCode": "S0105",
    "districtName": "Visakhapatnam",
    "acNumber": 20,
    "acName": "Bhimili",
    "partNumber": 281,
    "partName": "Room No 8B Greendale School, Chanakyapuri Layout",
    "lat": 17.80532215,
    "lon": 83.28276772667053
  },
  {
    "partId": 52456,
    "stateCode": "S01",
    "stateName": "Andhra Pradesh",
    "districtCode": "S0105",
    "districtName": "Visakhapatnam",
    "acNumber": 20,
    "acName": "Bhimili",
    "partNumber": 282,
    "partName": "Chandram palem",
    "lat": 17.80532215,
    "lon": 83.28276772667053
  },
  {
    "partId": 52334,
    "stateCode": "S01",
    "stateName": "Andhra Pradesh",
    "districtCode": "S0105",
    "districtName": "Visakhapatnam",
    "acNumber": 20,
    "acName": "Bhimili",
    "partNumber": 283,
    "partName": "Chandrampalem",
    "lat": 17.80532215,
    "lon": 83.28276772667053
  },
  {
    "partId": 52598,
    "stateCode": "S01",
    "stateName": "Andhra Pradesh",
    "districtCode": "S0105",
    "districtName": "Visakhapatnam",
    "acNumber": 20,
    "acName": "Bhimili",
    "partNumber": 284,
    "partName": "Chandrampalem",
    "lat": 17.80532215,
    "lon": 83.28276772667053
  },
  {
    "partId": 52631,
    "stateCode": "S01",
    "stateName": "Andhra Pradesh",
    "districtCode": "S0105",
    "districtName": "Visakhapatnam",
    "acNumber": 20,
    "acName": "Bhimili",
    "partNumber": 285,
    "partName": "Chandram Palem",
    "lat": 17.80532215,
    "lon": 83.28276772667053
  },
  {
    "partId": 52441,
    "stateCode": "S01",
    "stateName": "Andhra Pradesh",
    "districtCode": "S0105",
    "districtName": "Visakhapatnam",
    "acNumber": 20,
    "acName": "Bhimili",
    "partNumber": 286,
    "partName": "Chandrampalem",
    "lat": 17.80532215,
    "lon": 83.28276772667053
  },
  {
    "partId": 52632,
    "stateCode": "S01",
    "stateName": "Andhra Pradesh",
    "districtCode": "S0105",
    "districtName": "Visakhapatnam",
    "acNumber": 20,
    "acName": "Bhimili",
    "partNumber": 287,
    "partName": "Pilakavani palem",
    "lat": 17.80532215,
    "lon": 83.28276772667053
  },
  {
    "partId": 52293,
    "stateCode": "S01",
    "stateName": "Andhra Pradesh",
    "districtCode": "S0105",
    "districtName": "Visakhapatnam",
    "acNumber": 20,
    "acName": "Bhimili",
    "partNumber": 288,
    "partName": "Chandrampalem",
    "lat": 17.80532215,
    "lon": 83.28276772667053
  },
  {
    "partId": 52303,
    "stateCode": "S01",
    "stateName": "Andhra Pradesh",
    "districtCode": "S0105",
    "districtName": "Visakhapatnam",
    "acNumber": 20,
    "acName": "Bhimili",
    "partNumber": 289,
    "partName": "Chandrampalem",
    "lat": 17.80532215,
    "lon": 83.28276772667053
  },
  {
    "partId": 52433,
    "stateCode": "S01",
    "stateName": "Andhra Pradesh",
    "districtCode": "S0105",
    "districtName": "Visakhapatnam",
    "acNumber": 20,
    "acName": "Bhimili",
    "partNumber": 290,
    "partName": "Chandrampalem",
    "lat": 17.80532215,
    "lon": 83.28276772667053
  },
  {
    "partId": 52543,
    "stateCode": "S01",
    "stateName": "Andhra Pradesh",
    "districtCode": "S0105",
    "districtName": "Visakhapatnam",
    "acNumber": 20,
    "acName": "Bhimili",
    "partNumber": 291,
    "partName": "Chandrampalem",
    "lat": 17.80532215,
    "lon": 83.28276772667053
  },
  {
    "partId": 52577,
    "stateCode": "S01",
    "stateName": "Andhra Pradesh",
    "districtCode": "S0105",
    "districtName": "Visakhapatnam",
    "acNumber": 20,
    "acName": "Bhimili",
    "partNumber": 292,
    "partName": "Chandrampalem",
    "lat": 17.80532215,
    "lon": 83.28276772667053
  },
  {
    "partId": 52447,
    "stateCode": "S01",
    "stateName": "Andhra Pradesh",
    "districtCode": "S0105",
    "districtName": "Visakhapatnam",
    "acNumber": 20,
    "acName": "Bhimili",
    "partNumber": 293,
    "partName": "Chandrampalem",
    "lat": 17.80532215,
    "lon": 83.28276772667053
  },
  {
    "partId": 52518,
    "stateCode": "S01",
    "stateName": "Andhra Pradesh",
    "districtCode": "S0105",
    "districtName": "Visakhapatnam",
    "acNumber": 20,
    "acName": "Bhimili",
    "partNumber": 294,
    "partName": "Chandram palem",
    "lat": 17.80532215,
    "lon": 83.28276772667053
  },
  {
    "partId": 52340,
    "stateCode": "S01",
    "stateName": "Andhra Pradesh",
    "districtCode": "S0105",
    "districtName": "Visakhapatnam",
    "acNumber": 20,
    "acName": "Bhimili",
    "partNumber": 295,
    "partName": "Chandrampalem",
    "lat": 17.80532215,
    "lon": 83.28276772667053
  },
  {
    "partId": 52633,
    "stateCode": "S01",
    "stateName": "Andhra Pradesh",
    "districtCode": "S0105",
    "districtName": "Visakhapatnam",
    "acNumber": 20,
    "acName": "Bhimili",
    "partNumber": 296,
    "partName": "Chandram palem",
    "lat": 17.80532215,
    "lon": 83.28276772667053
  },
  {
    "partId": 52477,
    "stateCode": "S01",
    "stateName": "Andhra Pradesh",
    "districtCode": "S0105",
    "districtName": "Visakhapatnam",
    "acNumber": 20,
    "acName": "Bhimili",
    "partNumber": 297,
    "partName": "CHANDRAMPALEM",
    "lat": 17.80532215,
    "lon": 83.28276772667053
  },
  {
    "partId": 52634,
    "stateCode": "S01",
    "stateName": "Andhra Pradesh",
    "districtCode": "S0105",
    "districtName": "Visakhapatnam",
    "acNumber": 20,
    "acName": "Bhimili",
    "partNumber": 298,
    "partName": "Chandram Palem",
    "lat": 17.80532215,
    "lon": 83.28276772667053
  },
  {
    "partId": 52582,
    "stateCode": "S01",
    "stateName": "Andhra Pradesh",
    "districtCode": "S0105",
    "districtName": "Visakhapatnam",
    "acNumber": 20,
    "acName": "Bhimili",
    "partNumber": 299,
    "partName": "Chandram palem",
    "lat": 17.80532215,
    "lon": 83.28276772667053
  },
  {
    "partId": 52619,
    "stateCode": "S01",
    "stateName": "Andhra Pradesh",
    "districtCode": "S0105",
    "districtName": "Visakhapatnam",
    "acNumber": 20,
    "acName": "Bhimili",
    "partNumber": 300,
    "partName": "CHANDRAMPALEM",
    "lat": 17.80532215,
    "lon": 83.28276772667053
  },
  {
    "partId": 52585,
    "stateCode": "S01",
    "stateName": "Andhra Pradesh",
    "districtCode": "S0105",
    "districtName": "Visakhapatnam",
    "acNumber": 20,
    "acName": "Bhimili",
    "partNumber": 301,
    "partName": "CHANDRAMPALEM",
    "lat": 17.80532215,
    "lon": 83.28276772667053
  },
  {
    "partId": 52508,
    "stateCode": "S01",
    "stateName": "Andhra Pradesh",
    "districtCode": "S0105",
    "districtName": "Visakhapatnam",
    "acNumber": 20,
    "acName": "Bhimili",
    "partNumber": 302,
    "partName": "Chandrampalem",
    "lat": 17.80532215,
    "lon": 83.28276772667053
  },
  {
    "partId": 52542,
    "stateCode": "S01",
    "stateName": "Andhra Pradesh",
    "districtCode": "S0105",
    "districtName": "Visakhapatnam",
    "acNumber": 20,
    "acName": "Bhimili",
    "partNumber": 303,
    "partName": "Chandrampalem",
    "lat": 17.80532215,
    "lon": 83.28276772667053
  },
  {
    "partId": 52315,
    "stateCode": "S01",
    "stateName": "Andhra Pradesh",
    "districtCode": "S0105",
    "districtName": "Visakhapatnam",
    "acNumber": 20,
    "acName": "Bhimili",
    "partNumber": 304,
    "partName": "Chandram palem",
    "lat": 17.80532215,
    "lon": 83.28276772667053
  },
  {
    "partId": 52602,
    "stateCode": "S01",
    "stateName": "Andhra Pradesh",
    "districtCode": "S0105",
    "districtName": "Visakhapatnam",
    "acNumber": 20,
    "acName": "Bhimili",
    "partNumber": 305,
    "partName": "Chandram palem",
    "lat": 17.80532215,
    "lon": 83.28276772667053
  },
  {
    "partId": 52474,
    "stateCode": "S01",
    "stateName": "Andhra Pradesh",
    "districtCode": "S0105",
    "districtName": "Visakhapatnam",
    "acNumber": 20,
    "acName": "Bhimili",
    "partNumber": 306,
    "partName": "CHANDRAMPALEM",
    "lat": 17.80532215,
    "lon": 83.28276772667053
  },
  {
    "partId": 52563,
    "stateCode": "S01",
    "stateName": "Andhra Pradesh",
    "districtCode": "S0105",
    "districtName": "Visakhapatnam",
    "acNumber": 20,
    "acName": "Bhimili",
    "partNumber": 307,
    "partName": "Chandrampalem",
    "lat": 17.80532215,
    "lon": 83.28276772667053
  },
  {
    "partId": 52593,
    "stateCode": "S01",
    "stateName": "Andhra Pradesh",
    "districtCode": "S0105",
    "districtName": "Visakhapatnam",
    "acNumber": 20,
    "acName": "Bhimili",
    "partNumber": 308,
    "partName": "CHANDRAMPALEM",
    "lat": 17.80532215,
    "lon": 83.28276772667053
  },
  {
    "partId": 52620,
    "stateCode": "S01",
    "stateName": "Andhra Pradesh",
    "districtCode": "S0105",
    "districtName": "Visakhapatnam",
    "acNumber": 20,
    "acName": "Bhimili",
    "partNumber": 309,
    "partName": "SAIRAM COLONY, KOMMADI",
    "lat": 17.80532215,
    "lon": 83.28276772667053
  },
  {
    "partId": 52587,
    "stateCode": "S01",
    "stateName": "Andhra Pradesh",
    "districtCode": "S0105",
    "districtName": "Visakhapatnam",
    "acNumber": 20,
    "acName": "Bhimili",
    "partNumber": 310,
    "partName": "Chandram palem",
    "lat": 17.80532215,
    "lon": 83.28276772667053
  },
  {
    "partId": 52458,
    "stateCode": "S01",
    "stateName": "Andhra Pradesh",
    "districtCode": "S0105",
    "districtName": "Visakhapatnam",
    "acNumber": 20,
    "acName": "Bhimili",
    "partNumber": 311,
    "partName": "Chandram palem",
    "lat": 17.80532215,
    "lon": 83.28276772667053
  },
  {
    "partId": 52541,
    "stateCode": "S01",
    "stateName": "Andhra Pradesh",
    "districtCode": "S0105",
    "districtName": "Visakhapatnam",
    "acNumber": 20,
    "acName": "Bhimili",
    "partNumber": 312,
    "partName": "Chandrampalem",
    "lat": 17.80532215,
    "lon": 83.28276772667053
  },
  {
    "partId": 52422,
    "stateCode": "S01",
    "stateName": "Andhra Pradesh",
    "districtCode": "S0105",
    "districtName": "Visakhapatnam",
    "acNumber": 20,
    "acName": "Bhimili",
    "partNumber": 313,
    "partName": "Chandrampalem",
    "lat": 17.80532215,
    "lon": 83.28276772667053
  },
  {
    "partId": 52344,
    "stateCode": "S01",
    "stateName": "Andhra Pradesh",
    "districtCode": "S0105",
    "districtName": "Visakhapatnam",
    "acNumber": 20,
    "acName": "Bhimili",
    "partNumber": 314,
    "partName": "Chandram palem",
    "lat": 17.80532215,
    "lon": 83.28276772667053
  },
  {
    "partId": 52393,
    "stateCode": "S01",
    "stateName": "Andhra Pradesh",
    "districtCode": "S0105",
    "districtName": "Visakhapatnam",
    "acNumber": 20,
    "acName": "Bhimili",
    "partNumber": 315,
    "partName": "Chandrampalem",
    "lat": 17.80532215,
    "lon": 83.28276772667053
  },
  {
    "partId": 52580,
    "stateCode": "S01",
    "stateName": "Andhra Pradesh",
    "districtCode": "S0105",
    "districtName": "Visakhapatnam",
    "acNumber": 20,
    "acName": "Bhimili",
    "partNumber": 316,
    "partName": "Chandrampalem",
    "lat": 17.80532215,
    "lon": 83.28276772667053
  },
  {
    "partId": 52621,
    "stateCode": "S01",
    "stateName": "Andhra Pradesh",
    "districtCode": "S0105",
    "districtName": "Visakhapatnam",
    "acNumber": 20,
    "acName": "Bhimili",
    "partNumber": 317,
    "partName": "MARIKAVALASA",
    "lat": 17.8392751,
    "lon": 83.3538605
  },
  {
    "partId": 52559,
    "stateCode": "S01",
    "stateName": "Andhra Pradesh",
    "districtCode": "S0105",
    "districtName": "Visakhapatnam",
    "acNumber": 20,
    "acName": "Bhimili",
    "partNumber": 318,
    "partName": "Madhurawada",
    "lat": 17.8102465,
    "lon": 83.3540167
  },
  {
    "partId": 52376,
    "stateCode": "S01",
    "stateName": "Andhra Pradesh",
    "districtCode": "S0105",
    "districtName": "Visakhapatnam",
    "acNumber": 20,
    "acName": "Bhimili",
    "partNumber": 319,
    "partName": "Madhuravada",
    "lat": 17.8177602,
    "lon": 83.347329
  },
  {
    "partId": 52482,
    "stateCode": "S01",
    "stateName": "Andhra Pradesh",
    "districtCode": "S0105",
    "districtName": "Visakhapatnam",
    "acNumber": 20,
    "acName": "Bhimili",
    "partNumber": 320,
    "partName": "Swatantranagar",
    "lat": 17.80532215,
    "lon": 83.28276772667053
  },
  {
    "partId": 52357,
    "stateCode": "S01",
    "stateName": "Andhra Pradesh",
    "districtCode": "S0105",
    "districtName": "Visakhapatnam",
    "acNumber": 20,
    "acName": "Bhimili",
    "partNumber": 321,
    "partName": "Madhuravada",
    "lat": 17.8177602,
    "lon": 83.347329
  },
  {
    "partId": 52609,
    "stateCode": "S01",
    "stateName": "Andhra Pradesh",
    "districtCode": "S0105",
    "districtName": "Visakhapatnam",
    "acNumber": 20,
    "acName": "Bhimili",
    "partNumber": 322,
    "partName": "Madhurawada",
    "lat": 17.8102465,
    "lon": 83.3540167
  },
  {
    "partId": 52402,
    "stateCode": "S01",
    "stateName": "Andhra Pradesh",
    "districtCode": "S0105",
    "districtName": "Visakhapatnam",
    "acNumber": 20,
    "acName": "Bhimili",
    "partNumber": 323,
    "partName": "Madhuravada",
    "lat": 17.8177602,
    "lon": 83.347329
  },
  {
    "partId": 52599,
    "stateCode": "S01",
    "stateName": "Andhra Pradesh",
    "districtCode": "S0105",
    "districtName": "Visakhapatnam",
    "acNumber": 20,
    "acName": "Bhimili",
    "partNumber": 324,
    "partName": "Swatantranagar",
    "lat": 17.80532215,
    "lon": 83.28276772667053
  },
  {
    "partId": 52475,
    "stateCode": "S01",
    "stateName": "Andhra Pradesh",
    "districtCode": "S0105",
    "districtName": "Visakhapatnam",
    "acNumber": 20,
    "acName": "Bhimili",
    "partNumber": 325,
    "partName": "Swatantranagar",
    "lat": 17.80532215,
    "lon": 83.28276772667053
  },
  {
    "partId": 52635,
    "stateCode": "S01",
    "stateName": "Andhra Pradesh",
    "districtCode": "S0105",
    "districtName": "Visakhapatnam",
    "acNumber": 20,
    "acName": "Bhimili",
    "partNumber": 326,
    "partName": "Krishna Nagar",
    "lat": 17.7452763,
    "lon": 83.3051126
  },