[
  {
    "partId": 120514,
    "stateCode": "S13",
    "stateName": "Maharashtra",
    "districtCode": "S1303",
    "districtName": "Jalgaon",
    "acNumber": 15,
    "acName": "Amalner",
    "partNumber": 1,
    "partName": "Nim",
    "lat": 21.075780700000003,
    "lon": 75.04286411660418
  },
  {
    "partId": 120515,
    "stateCode": "S13",
    "stateName": "Maharashtra",
    "districtCode": "S1303",
    "districtName": "Jalgaon",
    "acNumber": 15,
    "acName": "Amalner",
    "partNumber": 2,
    "partName": "Nim",
    "lat": 21.075780700000003,
    "lon": 75.04286411660418
  },
  {
    "partId": 120516,
    "stateCode": "S13",
    "stateName": "Maharashtra",
    "districtCode": "S1303",
    "districtName": "Jalgaon",
    "acNumber": 15,
    "acName": "Amalner",
    "partNumber": 3,
    "partName": "Padalase",
    "lat": 21.075780700000003,
    "lon": 75.04286411660418
  },
  {
    "partId": 120517,
    "stateCode": "S13",
    "stateName": "Maharashtra",
    "districtCode": "S1303",
    "districtName": "Jalgaon",
    "acNumber": 15,
    "acName": "Amalner",
    "partNumber": 4,
    "partName": "Bohare",
    "lat": 21.1788896,
    "lon": 75.0205707
  },
  {
    "partId": 120518,
    "stateCode": "S13",
    "stateName": "Maharashtra",
    "districtCode": "S1303",
    "districtName": "Jalgaon",
    "acNumber": 15,
    "acName": "Amalner",
    "partNumber": 5,
    "partName": "Bohare",
    "lat": 21.1788896,
    "lon": 75.0205707
  },
  {
    "partId": 120519,
    "stateCode": "S13",
    "stateName": "Maharashtra",
    "districtCode": "S1303",
    "districtName": "Jalgaon",
    "acNumber": 15,
    "acName": "Amalner",
    "partNumber": 6,
    "partName": "Kalali",
    "lat": 21.1714946,
    "lon": 75.0737659
  },
  {
    "partId": 120520,
    "stateCode": "S13",
    "stateName": "Maharashtra",
    "districtCode": "S1303",
    "districtName": "Jalgaon",
    "acNumber": 15,
    "acName": "Amalner",
    "partNumber": 7,
    "partName": "Satri",
    "lat": 21.1559782,
    "lon": 75.0532615
  },
  {
    "partId": 120521,
    "stateCode": "S13",
    "stateName": "Maharashtra",
    "districtCode": "S1303",
    "districtName": "Jalgaon",
    "acNumber": 15,
    "acName": "Amalner",
    "partNumber": 8,
    "partName": "Hingone Sim Pra.J.",
    "lat": 21.075780700000003,
    "lon": 75.04286411660418
  },
  {
    "partId": 120522,
    "stateCode": "S13",
    "stateName": "Maharashtra",
    "districtCode": "S1303",
    "districtName": "Jalgaon",
    "acNumber": 15,
    "acName": "Amalner",
    "partNumber": 9,
    "partName": "Hingone Khurd Pra. J.",
    "lat": 21.075780700000003,
    "lon": 75.04286411660418
  },
  {
    "partId": 120523,
    "stateCode": "S13",
    "stateName": "Maharashtra",
    "districtCode": "S1303",
    "districtName": "Jalgaon",
    "acNumber": 15,
    "acName": "Amalner",
    "partNumber": 10,
    "partName": "Dodhawad",
    "lat": 21.1734065,
    "lon": 75.10772
  },
  {
    "partId": 120524,
    "stateCode": "S13",
    "stateName": "Maharashtra",
    "districtCode": "S1303",
    "districtName": "Jalgaon",
    "acNumber": 15,
    "acName": "Amalner",
    "partNumber": 11,
    "partName": "Jalod",
    "lat": 21.1637448,
    "lon": 75.1417395
  },
  {
    "partId": 120525,
    "stateCode": "S13",
    "stateName": "Maharashtra",
    "districtCode": "S1303",
    "districtName": "Jalgaon",
    "acNumber": 15,
    "acName": "Amalner",
    "partNumber": 12,
    "partName": "Jalod",
    "lat": 21.1637448,
    "lon": 75.1417395
  },
  {
    "partId": 120526,
    "stateCode": "S13",
    "stateName": "Maharashtra",
    "districtCode": "S1303",
    "districtName": "Jalgaon",
    "acNumber": 15,
    "acName": "Amalner",
    "partNumber": 13,
    "partName": "Gangapuri",
    "lat": 20.8961077,
    "lon": 75.776664
  },
  {
    "partId": 120527,
    "stateCode": "S13",
    "stateName": "Maharashtra",
    "districtCode": "S1303",
    "districtName": "Jalgaon",
    "acNumber": 15,
    "acName": "Amalner",
    "partNumber": 14,
    "partName": "Mathgawhan",
    "lat": 21.075780700000003,
    "lon": 75.04286411660418
  },
  {
    "partId": 120528,
    "stateCode": "S13",
    "stateName": "Maharashtra",
    "districtCode": "S1303",
    "districtName": "Jalgaon",
    "acNumber": 15,
    "acName": "Amalner",
    "partNumber": 15,
    "partName": "Mathgawhan",
    "lat": 21.075780700000003,
    "lon": 75.04286411660418
  },
  {
    "partId": 120529,
    "stateCode": "S13",
    "stateName": "Maharashtra",
    "districtCode": "S1303",
    "districtName": "Jalgaon",
    "acNumber": 15,
    "acName": "Amalner",
    "partNumber": 16,
    "partName": "Rundhati",
    "lat": 21.1604207,
    "lon": 75.1989162
  },
  {
    "partId": 120530,
    "stateCode": "S13",
    "stateName": "Maharashtra",
    "districtCode": "S1303",
    "districtName": "Jalgaon",
    "acNumber": 15,
    "acName": "Amalner",
    "partNumber": 17,
    "partName": "Mungse",
    "lat": 21.075780700000003,
    "lon": 75.04286411660418
  },
  {
    "partId": 120531,
    "stateCode": "S13",
    "stateName": "Maharashtra",
    "districtCode": "S1303",
    "districtName": "Jalgaon",
    "acNumber": 15,
    "acName": "Amalner",
    "partNumber": 18,
    "partName": "Khaparkheda Pr.Ja.",
    "lat": 21.075780700000003,
    "lon": 75.04286411660418
  },
  {
    "partId": 120532,
    "stateCode": "S13",
    "stateName": "Maharashtra",
    "districtCode": "S1303",
    "districtName": "Jalgaon",
    "acNumber": 15,
    "acName": "Amalner",
    "partNumber": 19,
    "partName": "Savkheda",
    "lat": 21.2309449,
    "lon": 75.6433194
  },
  {
    "partId": 120533,
    "stateCode": "S13",
    "stateName": "Maharashtra",
    "districtCode": "S1303",
    "districtName": "Jalgaon",
    "acNumber": 15,
    "acName": "Amalner",
    "partNumber": 20,
    "partName": "Savkheda",
    "lat": 21.2309449,
    "lon": 75.6433194
  },
  {
    "partId": 120534,
    "stateCode": "S13",
    "stateName": "Maharashtra",
    "districtCode": "S1303",
    "districtName": "Jalgaon",
    "acNumber": 15,
    "acName": "Amalner",
    "partNumber": 21,
    "partName": "Dhavde",
    "lat": 21.075780700000003,
    "lon": 75.04286411660418
  },
  {
    "partId": 120535,
    "stateCode": "S13",
    "stateName": "Maharashtra",
    "districtCode": "S1303",
    "districtName": "Jalgaon",
    "acNumber": 15,
    "acName": "Amalner",
    "partNumber": 22,
    "partName": "Nimbhora",
    "lat": 21.1605208,
    "lon": 75.97467
  },
  {
    "partId": 120536,
    "stateCode": "S13",
    "stateName": "Maharashtra",
    "districtCode": "S1303",
    "districtName": "Jalgaon",
    "acNumber": 15,
    "acName": "Amalner",
    "partNumber": 23,
    "partName": "Nimbhora",
    "lat": 21.1605208,
    "lon": 75.97467
  },
  {
    "partId": 120537,
    "stateCode": "S13",
    "stateName": "Maharashtra",
    "districtCode": "S1303",
    "districtName": "Jalgaon",
    "acNumber": 15,
    "acName": "Amalner",
    "partNumber": 24,
    "partName": "Pingalwade",
    "lat": 21.1356446,
    "lon": 75.0883634
  },
  {
    "partId": 120538,
    "stateCode": "S13",
    "stateName": "Maharashtra",
    "districtCode": "S1303",
    "districtName": "Jalgaon",
    "acNumber": 15,
    "acName": "Amalner",
    "partNumber": 25,
    "partName": "Pra.Dangari",
    "lat": 21.075780700000003,
    "lon": 75.04286411660418
  },
  {
    "partId": 120539,
    "stateCode": "S13",
    "stateName": "Maharashtra",
    "districtCode": "S1303",
    "districtName": "Jalgaon",
    "acNumber": 15,
    "acName": "Amalner",
    "partNumber": 26,
    "partName": "Pra.Dangari",
    "lat": 21.075780700000003,
    "lon": 75.04286411660418
  },
  {
    "partId": 120540,
    "stateCode": "S13",
    "stateName": "Maharashtra",
    "districtCode": "S1303",
    "districtName": "Jalgaon",
    "acNumber": 15,
    "acName": "Amalner",
    "partNumber": 27,
    "partName": "Kalamsare",
    "lat": 20.7004835,
    "lon": 75.5626773
  },
  {
    "partId": 120541,
    "stateCode": "S13",
    "stateName": "Maharashtra",
    "districtCode": "S1303",
    "districtName": "Jalgaon",
    "acNumber": 15,
    "acName": "Amalner",
    "partNumber": 28,
    "partName": "Kalamsare",
    "lat": 20.7004835,
    "lon": 75.5626773
  },
  {
    "partId": 120542,
    "stateCode": "S13",
    "stateName": "Maharashtra",
    "districtCode": "S1303",
    "districtName": "Jalgaon",
    "acNumber": 15,
    "acName": "Amalner",
    "partNumber": 29,
    "partName": "Kalamsare",
    "lat": 20.7004835,
    "lon": 75.5626773
  },
  {
    "partId": 120543,
    "stateCode": "S13",
    "stateName": "Maharashtra",
    "districtCode": "S1303",
    "districtName": "Jalgaon",
    "acNumber": 15,
    "acName": "Amalner",
    "partNumber": 30,
    "partName": "Vasare",
    "lat": 21.075780700000003,
    "lon": 75.04286411660418
  },
  {
    "partId": 120544,
    "stateCode": "S13",
    "stateName": "Maharashtra",
    "districtCode": "S1303",
    "districtName": "Jalgaon",
    "acNumber": 15,
    "acName": "Amalner",
    "partNumber": 31,
    "partName": "Tandali",
    "lat": 21.1770388,
    "lon": 74.9512946
  },
  {
    "partId": 120545,
    "stateCode": "S13",
    "stateName": "Maharashtra",
    "districtCode": "S1303",
    "districtName": "Jalgaon",
    "acNumber": 15,
    "acName": "Amalner",
    "partNumber": 32,
    "partName": "Shahapur",
    "lat": 20.7380543,
    "lon": 75.8080673
  },
  {
    "partId": 120546,
    "stateCode": "S13",
    "stateName": "Maharashtra",
    "districtCode": "S1303",
    "districtName": "Jalgaon",
    "acNumber": 15,
    "acName": "Amalner",
    "partNumber": 33,
    "partName": "Shahapur",
    "lat": 20.7380543,
    "lon": 75.8080673
  },
  {
    "partId": 120547,
    "stateCode": "S13",
    "stateName": "Maharashtra",
    "districtCode": "S1303",
    "districtName": "Jalgaon",
    "acNumber": 15,
    "acName": "Amalner",
    "partNumber": 34,
    "partName": "Bhilali",
    "lat": 20.9565103,
    "lon": 75.0554395
  },
  {
    "partId": 120548,
    "stateCode": "S13",
    "stateName": "Maharashtra",
    "districtCode": "S1303",
    "districtName": "Jalgaon",
    "acNumber": 15,
    "acName": "Amalner",
    "partNumber": 35,
    "partName": "Ektas",
    "lat": 21.1507551,
    "lon": 74.9317789
  },
  {
    "partId": 120549,
    "stateCode": "S13",
    "stateName": "Maharashtra",
    "districtCode": "S1303",
    "districtName": "Jalgaon",
    "acNumber": 15,
    "acName": "Amalner",
    "partNumber": 36,
    "partName": "Eklahare",
    "lat": 21.1430703,
    "lon": 74.918282
  },
  {
    "partId": 120550,
    "stateCode": "S13",
    "stateName": "Maharashtra",
    "districtCode": "S1303",
    "districtName": "Jalgaon",
    "acNumber": 15,
    "acName": "Amalner",
    "partNumber": 37,
    "partName": "Bamhane",
    "lat": 21.1529164,
    "lon": 74.9021888
  },
  {
    "partId": 120551,
    "stateCode": "S13",
    "stateName": "Maharashtra",
    "districtCode": "S1303",
    "districtName": "Jalgaon",
    "acNumber": 15,
    "acName": "Amalner",
    "partNumber": 38,
    "partName": "Kalambe",
    "lat": 21.14265,
    "lon": 74.8918247
  },
  {
    "partId": 120552,
    "stateCode": "S13",
    "stateName": "Maharashtra",
    "districtCode": "S1303",
    "districtName": "Jalgaon",
    "acNumber": 15,
    "acName": "Amalner",
    "partNumber": 39,
    "partName": "Padase",
    "lat": 21.075780700000003,
    "lon": 75.04286411660418
  },
  {
    "partId": 120553,
    "stateCode": "S13",
    "stateName": "Maharashtra",
    "districtCode": "S1303",
    "districtName": "Jalgaon",
    "acNumber": 15,
    "acName": "Amalner",
    "partNumber": 40,
    "partName": "Kharde",
    "lat": 21.134009,
    "lon": 74.9686754
  },
  {
    "partId": 120554,
    "stateCode": "S13",
    "stateName": "Maharashtra",
    "districtCode": "S1303",
    "districtName": "Jalgaon",
    "acNumber": 15,
    "acName": "Amalner",
    "partNumber": 41,
    "partName": "Khedi Bk. Pr.Da.",
    "lat": 21.075780700000003,
    "lon": 75.04286411660418
  },
  {
    "partId": 120555,
    "stateCode": "S13",
    "stateName": "Maharashtra",
    "districtCode": "S1303",
    "districtName": "Jalgaon",
    "acNumber": 15,
    "acName": "Amalner",
    "partNumber": 42,
    "partName": "Marwad",
    "lat": 21.1311982,
    "lon": 75.0266545
  },
  {
    "partId": 120556,
    "stateCode": "S13",
    "stateName": "Maharashtra",
    "districtCode": "S1303",
    "districtName": "Jalgaon",
    "acNumber": 15,
    "acName": "Amalner",
    "partNumber": 43,
    "partName": "Marwad",
    "lat": 21.1311982,
    "lon": 75.0266545
  },
  {
    "partId": 120557,
    "stateCode": "S13",
    "stateName": "Maharashtra",
    "districtCode": "S1303",
    "districtName": "Jalgaon",
    "acNumber": 15,
    "acName": "Amalner",
    "partNumber": 44,
    "partName": "Marwad",
    "lat": 21.1311982,
    "lon": 75.0266545
  },
  {
    "partId": 120558,
    "stateCode": "S13",
    "stateName": "Maharashtra",
    "districtCode": "S1303",
    "districtName": "Jalgaon",
    "acNumber": 15,
    "acName": "Amalner",
    "partNumber": 45,
    "partName": "Govardhan",
    "lat": 21.1321227,
    "lon": 75.0242185
  },
  {
    "partId": 120559,
    "stateCode": "S13",
    "stateName": "Maharashtra",
    "districtCode": "S1303",
    "districtName": "Jalgaon",
    "acNumber": 15,
    "acName": "Amalner",
    "partNumber": 46,
    "partName": "Borgaon",
    "lat": 20.8726416,
    "lon": 75.8756483
  },
  {
    "partId": 120560,
    "stateCode": "S13",
    "stateName": "Maharashtra",
    "districtCode": "S1303",
    "districtName": "Jalgaon",
    "acNumber": 15,
    "acName": "Amalner",
    "partNumber": 47,
    "partName": "Karankhede",
    "lat": 21.075780700000003,
    "lon": 75.04286411660418
  },
  {
    "partId": 120561,
    "stateCode": "S13",
    "stateName": "Maharashtra",
    "districtCode": "S1303",
    "districtName": "Jalgaon",
    "acNumber": 15,
    "acName": "Amalner",
    "partNumber": 48,
    "partName": "Hingone Bk.",
    "lat": 21.1153694,
    "lon": 75.0697946
  },
  {
    "partId": 120562,
    "stateCode": "S13",
    "stateName": "Maharashtra",
    "districtCode": "S1303",
    "districtName": "Jalgaon",
    "acNumber": 15,
    "acName": "Amalner",
    "partNumber": 49,
    "partName": "Daregaon",
    "lat": 20.5948258,
    "lon": 74.8348975
  },
  {
    "partId": 120563,
    "stateCode": "S13",
    "stateName": "Maharashtra",
    "districtCode": "S1303",
    "districtName": "Jalgaon",
    "acNumber": 15,
    "acName": "Amalner",
    "partNumber": 50,
    "partName": "Mehergaon",
    "lat": 21.075780700000003,
    "lon": 75.04286411660418
  },
  {
    "partId": 120564,
    "stateCode": "S13",
    "stateName": "Maharashtra",
    "districtCode": "S1303",
    "districtName": "Jalgaon",
    "acNumber": 15,
    "acName": "Amalner",
    "partNumber": 51,
    "partName": "Amalgaon",
    "lat": 21.1280229,
    "lon": 75.1153053
  },
  {
    "partId": 120565,
    "stateCode": "S13",
    "stateName": "Maharashtra",
    "districtCode": "S1303",
    "districtName": "Jalgaon",
    "acNumber": 15,
    "acName": "Amalner",
    "partNumber": 52,
    "partName": "Amalgaon",
    "lat": 21.1280229,
    "lon": 75.1153053
  },
  {
    "partId": 120566,
    "stateCode": "S13",
    "stateName": "Maharashtra",
    "districtCode": "S1303",
    "districtName": "Jalgaon",
    "acNumber": 15,
    "acName": "Amalner",
    "partNumber": 53,
    "partName": "Amalgaon",
    "lat": 21.1280229,
    "lon": 75.1153053
  },
  {
    "partId": 120567,
    "stateCode": "S13",
    "stateName": "Maharashtra",
    "districtCode": "S1303",
    "districtName": "Jalgaon",
    "acNumber": 15,
    "acName": "Amalner",
    "partNumber": 54,
    "partName": "Khaushi Bk.",
    "lat": 21.075780700000003,
    "lon": 75.04286411660418
  },
  {
    "partId": 120568,
    "stateCode": "S13",
    "stateName": "Maharashtra",
    "districtCode": "S1303",
    "districtName": "Jalgaon",
    "acNumber": 15,
    "acName": "Amalner",
    "partNumber": 55,
    "partName": "Patonda",
    "lat": 21.1155696,
    "lon": 75.1909339
  },
  {
    "partId": 120569,
    "stateCode": "S13",
    "stateName": "Maharashtra",
    "districtCode": "S1303",
    "districtName": "Jalgaon",
    "acNumber": 15,
    "acName": "Amalner",
    "partNumber": 56,
    "partName": "Patonda",
    "lat": 21.1155696,
    "lon": 75.1909339
  },
  {
    "partId": 120570,
    "stateCode": "S13",
    "stateName": "Maharashtra",
    "districtCode": "S1303",
    "districtName": "Jalgaon",
    "acNumber": 15,
    "acName": "Amalner",
    "partNumber": 57,
    "partName": "Patonda",
    "lat": 21.1155696,
    "lon": 75.1909339
  },
  {
    "partId": 120571,
    "stateCode": "S13",
    "stateName": "Maharashtra",
    "districtCode": "S1303",
    "districtName": "Jalgaon",
    "acNumber": 15,
    "acName": "Amalner",
    "partNumber": 58,
    "partName": "Patonda",
    "lat": 21.1155696,
    "lon": 75.1909339
  },
  {
    "partId": 120572,
    "stateCode": "S13",
    "stateName": "Maharashtra",
    "districtCode": "S1303",
    "districtName": "Jalgaon",
    "acNumber": 15,
    "acName": "Amalner",
    "partNumber": 59,
    "partName": "Nandri",
    "lat": 21.113728,
    "lon": 75.1860523
  },
  {
    "partId": 120573,
    "stateCode": "S13",
    "stateName": "Maharashtra",
    "districtCode": "S1303",
    "districtName": "Jalgaon",
    "acNumber": 15,
    "acName": "Amalner",
    "partNumber": 60,
    "partName": "Dapori Bk.",
    "lat": 21.1533867,
    "lon": 75.2123916
  },
  {
    "partId": 120574,
    "stateCode": "S13",
    "stateName": "Maharashtra",
    "districtCode": "S1303",
    "districtName": "Jalgaon",
    "acNumber": 15,
    "acName": "Amalner",
    "partNumber": 61,
    "partName": "Kamatwadi",
    "lat": 21.1095744,
    "lon": 75.3032649
  },
  {
    "partId": 120575,
    "stateCode": "S13",
    "stateName": "Maharashtra",
    "districtCode": "S1303",
    "districtName": "Jalgaon",
    "acNumber": 15,
    "acName": "Amalner",
    "partNumber": 62,
    "partName": "Pimpali Pr.Ja.",
    "lat": 21.075780700000003,
    "lon": 75.04286411660418
  },
  {
    "partId": 120576,
    "stateCode": "S13",
    "stateName": "Maharashtra",
    "districtCode": "S1303",
    "districtName": "Jalgaon",
    "acNumber": 15,
    "acName": "Amalner",
    "partNumber": 63,
    "partName": "Pimpali Pr.Ja.",
    "lat": 21.075780700000003,
    "lon": 75.04286411660418
  },
  {
    "partId": 120577,
    "stateCode": "S13",
    "stateName": "Maharashtra",
    "districtCode": "S1303",
    "districtName": "Jalgaon",
    "acNumber": 15,
    "acName": "Amalner",
    "partNumber": 64,
    "partName": "Khedi Kh.  Pr.Ja.",
    "lat": 21.075780700000003,
    "lon": 75.04286411660418
  },
  {
    "partId": 120578,
    "stateCode": "S13",
    "stateName": "Maharashtra",
    "districtCode": "S1303",
    "districtName": "Jalgaon",
    "acNumber": 15,
    "acName": "Amalner",
    "partNumber": 65,
    "partName": "Chaubari",
    "lat": 21.1124269,
    "lon": 74.9858308
  },
  {
    "partId": 120579,
    "stateCode": "S13",
    "stateName": "Maharashtra",
    "districtCode": "S1303",
    "districtName": "Jalgaon",
    "acNumber": 15,
    "acName": "Amalner",
    "partNumber": 66,
    "partName": "Chaubari",
    "lat": 21.1124269,
    "lon": 74.9858308
  },
  {
    "partId": 120580,
    "stateCode": "S13",
    "stateName": "Maharashtra",
    "districtCode": "S1303",
    "districtName": "Jalgaon",
    "acNumber": 15,
    "acName": "Amalner",
    "partNumber": 67,
    "partName": "Bhortek",
    "lat": 21.1155896,
    "lon": 74.9991935
  },
  {
    "partId": 120581,
    "stateCode": "S13",
    "stateName": "Maharashtra",
    "districtCode": "S1303",
    "districtName": "Jalgaon",
    "acNumber": 15,
    "acName": "Amalner",
    "partNumber": 68,
    "partName": "Sabgawhan",
    "lat": 21.075780700000003,
    "lon": 75.04286411660418
  },
  {
    "partId": 120582,
    "stateCode": "S13",
    "stateName": "Maharashtra",
    "districtCode": "S1303",
    "districtName": "Jalgaon",
    "acNumber": 15,
    "acName": "Amalner",
    "partNumber": 69,
    "partName": "Bharvas",
    "lat": 21.1039794,
    "lon": 74.9434733
  },
  {
    "partId": 120583,
    "stateCode": "S13",
    "stateName": "Maharashtra",
    "districtCode": "S1303",
    "districtName": "Jalgaon",
    "acNumber": 15,
    "acName": "Amalner",
    "partNumber": 70,
    "partName": "Bharvas",
    "lat": 21.1039794,
    "lon": 74.9434733
  },
  {
    "partId": 120584,
    "stateCode": "S13",
    "stateName": "Maharashtra",
    "districtCode": "S1303",
    "districtName": "Jalgaon",
    "acNumber": 15,
    "acName": "Amalner",
    "partNumber": 71,
    "partName": "Lonpancham",
    "lat": 21.1048602,
    "lon": 74.9482584
  },
  {
    "partId": 120585,
    "stateCode": "S13",
    "stateName": "Maharashtra",
    "districtCode": "S1303",
    "districtName": "Jalgaon",
    "acNumber": 15,
    "acName": "Amalner",
    "partNumber": 72,
    "partName": "Mudi Pra Da",
    "lat": 21.075780700000003,
    "lon": 75.04286411660418
  },
  {
    "partId": 120586,
    "stateCode": "S13",
    "stateName": "Maharashtra",
    "districtCode": "S1303",
    "districtName": "Jalgaon",
    "acNumber": 15,
    "acName": "Amalner",
    "partNumber": 73,
    "partName": "Mudi Pr.Da.",
    "lat": 21.075780700000003,
    "lon": 75.04286411660418
  },
  {
    "partId": 120587,
    "stateCode": "S13",
    "stateName": "Maharashtra",
    "districtCode": "S1303",
    "districtName": "Jalgaon",
    "acNumber": 15,
    "acName": "Amalner",
    "partNumber": 74,
    "partName": "Mudi Pr.Da.",
    "lat": 21.075780700000003,
    "lon": 75.04286411660418
  },
  {
    "partId": 120588,
    "stateCode": "S13",
    "stateName": "Maharashtra",
    "districtCode": "S1303",
    "districtName": "Jalgaon",
    "acNumber": 15,
    "acName": "Amalner",
    "partNumber": 75,
    "partName": "Mudi Pr.Da. (Bodarde)",
    "lat": 21.075780700000003,
    "lon": 75.04286411660418
  },
  {
    "partId": 120589,
    "stateCode": "S13",
    "stateName": "Maharashtra",
    "districtCode": "S1303",
    "districtName": "Jalgaon",
    "acNumber": 15,
    "acName": "Amalner",
    "partNumber": 76,
    "partName": "Lon Bk.",
    "lat": 21.0892851,
    "lon": 74.9315858
  },
  {
    "partId": 120590,
    "stateCode": "S13",
    "stateName": "Maharashtra",
    "districtCode": "S1303",
    "districtName": "Jalgaon",
    "acNumber": 15,
    "acName": "Amalner",
    "partNumber": 77,
    "partName": "Lon Bk.",
    "lat": 21.0892851,
    "lon": 74.9315858
  },
  {
    "partId": 120591,
    "stateCode": "S13",
    "stateName": "Maharashtra",
    "districtCode": "S1303",
    "districtName": "Jalgaon",
    "acNumber": 15,
    "acName": "Amalner",
    "partNumber": 78,
    "partName": "Lon Bk.",
    "lat": 21.0892851,
    "lon": 74.9315858
  },
  {
    "partId": 120592,
    "stateCode": "S13",
    "stateName": "Maharashtra",
    "districtCode": "S1303",
    "districtName": "Jalgaon",
    "acNumber": 15,
    "acName": "Amalner",
    "partNumber": 79,
    "partName": "Jaitpir",
    "lat": 21.0937633,
    "lon": 75.0077766
  },
  {
    "partId": 120593,
    "stateCode": "S13",
    "stateName": "Maharashtra",
    "districtCode": "S1303",
    "districtName": "Jalgaon",
    "acNumber": 15,
    "acName": "Amalner",
    "partNumber": 80,
    "partName": "Jaitpir",
    "lat": 21.0937633,
    "lon": 75.0077766
  },
  {
    "partId": 120594,
    "stateCode": "S13",
    "stateName": "Maharashtra",
    "districtCode": "S1303",
    "districtName": "Jalgaon",
    "acNumber": 15,
    "acName": "Amalner",
    "partNumber": 81,
    "partName": "Dhanora",
    "lat": 21.0464351,
    "lon": 76.46960383381366
  },
  {
    "partId": 120595,
    "stateCode": "S13",
    "stateName": "Maharashtra",
    "districtCode": "S1303",
    "districtName": "Jalgaon",
    "acNumber": 15,
    "acName": "Amalner",
    "partNumber": 82,
    "partName": "Dhar",
    "lat": 21.0893051,
    "lon": 75.0398397
  },
  {
    "partId": 120596,
    "stateCode": "S13",
    "stateName": "Maharashtra",
    "districtCode": "S1303",
    "districtName": "Jalgaon",
    "acNumber": 15,
    "acName": "Amalner",
    "partNumber": 83,
    "partName": "Dhar",
    "lat": 21.0893051,
    "lon": 75.0398397
  },
  {
    "partId": 120597,
    "stateCode": "S13",
    "stateName": "Maharashtra",
    "districtCode": "S1303",
    "districtName": "Jalgaon",
    "acNumber": 15,
    "acName": "Amalner",
    "partNumber": 84,
    "partName": "Malpur",
    "lat": 21.0898657,
    "lon": 75.0426078
  },
  {
    "partId": 120598,
    "stateCode": "S13",
    "stateName": "Maharashtra",
    "districtCode": "S1303",
    "districtName": "Jalgaon",
    "acNumber": 15,
    "acName": "Amalner",
    "partNumber": 85,
    "partName": "Anturli",
    "lat": 21.197036,
    "lon": 76.1364126
  },
  {
    "partId": 120599,
    "stateCode": "S13",
    "stateName": "Maharashtra",
    "districtCode": "S1303",
    "districtName": "Jalgaon",
    "acNumber": 15,
    "acName": "Amalner",
    "partNumber": 86,
    "partName": "Ranjane",
    "lat": 21.0907866,
    "lon": 75.0587869
  },
  {
    "partId": 120600,
    "stateCode": "S13",
    "stateName": "Maharashtra",
    "districtCode": "S1303",
    "districtName": "Jalgaon",
    "acNumber": 15,
    "acName": "Amalner",
    "partNumber": 87,
    "partName": "Khaparkheda Pr.Da.",
    "lat": 21.075780700000003,
    "lon": 75.04286411660418
  },
  {
    "partId": 120601,
    "stateCode": "S13",
    "stateName": "Maharashtra",
    "districtCode": "S1303",
    "districtName": "Jalgaon",
    "acNumber": 15,
    "acName": "Amalner",
    "partNumber": 88,
    "partName": "Taskhede",
    "lat": 21.0923081,
    "lon": 75.0639152
  },
  {
    "partId": 120602,
    "stateCode": "S13",
    "stateName": "Maharashtra",
    "districtCode": "S1303",
    "districtName": "Jalgaon",
    "acNumber": 15,
    "acName": "Amalner",
    "partNumber": 89,
    "partName": "Amode",
    "lat": 21.0888146,
    "lon": 75.063411
  },
  {
    "partId": 120603,
    "stateCode": "S13",
    "stateName": "Maharashtra",
    "districtCode": "S1303",
    "districtName": "Jalgaon",
    "acNumber": 15,
    "acName": "Amalner",
    "partNumber": 90,
    "partName": "Gandhali",
    "lat": 21.1031599,
    "lon": 75.1048682
  },
  {
    "partId": 120604,
    "stateCode": "S13",
    "stateName": "Maharashtra",
    "districtCode": "S1303",
    "districtName": "Jalgaon",
    "acNumber": 15,
    "acName": "Amalner",
    "partNumber": 91,
    "partName": "Gandhali",
    "lat": 21.1031599,
    "lon": 75.1048682
  },
  {
    "partId": 120605,
    "stateCode": "S13",
    "stateName": "Maharashtra",
    "districtCode": "S1303",
    "districtName": "Jalgaon",
    "acNumber": 15,
    "acName": "Amalner",
    "partNumber": 92,
    "partName": "Pilode",
    "lat": 21.1013852,
    "lon": 75.1124932
  },
  {
    "partId": 120606,
    "stateCode": "S13",
    "stateName": "Maharashtra",
    "districtCode": "S1303",
    "districtName": "Jalgaon",
    "acNumber": 15,
    "acName": "Amalner",
    "partNumber": 93,
    "partName": "Pilode",
    "lat": 21.1013852,
    "lon": 75.1124932
  },
  {
    "partId": 120607,
    "stateCode": "S13",
    "stateName": "Maharashtra",
    "districtCode": "S1303",
    "districtName": "Jalgaon",
    "acNumber": 15,
    "acName": "Amalner",
    "partNumber": 94,
    "partName": "Dahiwad",
    "lat": 21.0781733,
    "lon": 75.1900434
  },
  {
    "partId": 120608,
    "stateCode": "S13",
    "stateName": "Maharashtra",
    "districtCode": "S1303",
    "districtName": "Jalgaon",
    "acNumber": 15,
    "acName": "Amalner",
    "partNumber": 95,
    "partName": "Dahiwad",
    "lat": 21.0781733,
    "lon": 75.1900434
  },
  {
    "partId": 120609,
    "stateCode": "S13",
    "stateName": "Maharashtra",
    "districtCode": "S1303",
    "districtName": "Jalgaon",
    "acNumber": 15,
    "acName": "Amalner",
    "partNumber": 96,
    "partName": "Dahiwad",
    "lat": 21.0781733,
    "lon": 75.1900434
  },
  {
    "partId": 120610,
    "stateCode": "S13",
    "stateName": "Maharashtra",
    "districtCode": "S1303",
    "districtName": "Jalgaon",
    "acNumber": 15,
    "acName": "Amalner",
    "partNumber": 97,
    "partName": "Dahiwad",
    "lat": 21.05122660511182,
    "lon": 75.11160403788386
  },
  {
    "partId": 120611,
    "stateCode": "S13",
    "stateName": "Maharashtra",
    "districtCode": "S1303",
    "districtName": "Jalgaon",
    "acNumber": 15,
    "acName": "Amalner",
    "partNumber": 98,
    "partName": "Dahiwad Khurd",
    "lat": 21.075780700000003,
    "lon": 75.04286411660418
  },
  {
    "partId": 120612,
    "stateCode": "S13",
    "stateName": "Maharashtra",
    "districtCode": "S1303",
    "districtName": "Jalgaon",
    "acNumber": 15,
    "acName": "Amalner",
    "partNumber": 99,
    "partName": "Gadkhamb",
    "lat": 21.05122660511182,
    "lon": 75.11160403788386
  },
  {
    "partId": 120613,
    "stateCode": "S13",
    "stateName": "Maharashtra",
    "districtCode": "S1303",
    "districtName": "Jalgaon",
    "acNumber": 15,
    "acName": "Amalner",
    "partNumber": 100,
    "partName": "Gadkhamb",
    "lat": 21.05122660511182,
    "lon": 75.11160403788386
  },
  {
    "partId": 120614,
    "stateCode": "S13",
    "stateName": "Maharashtra",
    "districtCode": "S1303",
    "districtName": "Jalgaon",
    "acNumber": 15,
    "acName": "Amalner",
    "partNumber": 101,
    "partName": "Gadkhamb",
    "lat": 21.081617,
    "lon": 75.1376653
  },
  {
    "partId": 120615,
    "stateCode": "S13",
    "stateName": "Maharashtra",
    "districtCode": "S1303",
    "districtName": "Jalgaon",
    "acNumber": 15,
    "acName": "Amalner",
    "partNumber": 102,
    "partName": "Dhupi",
    "lat": 21.0810164,
    "lon": 75.1317429
  },
  {
    "partId": 120616,
    "stateCode": "S13",
    "stateName": "Maharashtra",
    "districtCode": "S1303",
    "districtName": "Jalgaon",
    "acNumber": 15,
    "acName": "Amalner",
    "partNumber": 103,
    "partName": "Nandgaon",
    "lat": 21.0728474,
    "lon": 75.0692582
  },
  {
    "partId": 120617,
    "stateCode": "S13",
    "stateName": "Maharashtra",
    "districtCode": "S1303",
    "districtName": "Jalgaon",
    "acNumber": 15,
    "acName": "Amalner",
    "partNumber": 104,
    "partName": "Ladgaon",
    "lat": 21.0840096,
    "lon": 75.0649774
  },
  {
    "partId": 120618,
    "stateCode": "S13",
    "stateName": "Maharashtra",
    "districtCode": "S1303",
    "districtName": "Jalgaon",
    "acNumber": 15,
    "acName": "Amalner",
    "partNumber": 105,
    "partName": "Galwade Bk.",
    "lat": 21.075780700000003,
    "lon": 75.04286411660418
  },
  {
    "partId": 120619,
    "stateCode": "S13",
    "stateName": "Maharashtra",
    "districtCode": "S1303",
    "districtName": "Jalgaon",
    "acNumber": 15,
    "acName": "Amalner",
    "partNumber": 106,
    "partName": "Galwade Khurd",
    "lat": 21.075780700000003,
    "lon": 75.04286411660418
  },
  {
    "partId": 120620,
    "stateCode": "S13",
    "stateName": "Maharashtra",
    "districtCode": "S1303",
    "districtName": "Jalgaon",
    "acNumber": 15,
    "acName": "Amalner",
    "partNumber": 107,
    "partName": "Zadi",
    "lat": 21.0756505,
    "lon": 74.9872577
  },
  {
    "partId": 120621,
    "stateCode": "S13",
    "stateName": "Maharashtra",
    "districtCode": "S1303",
    "districtName": "Jalgaon",
    "acNumber": 15,
    "acName": "Amalner",
    "partNumber": 108,
    "partName": "Zadi",
    "lat": 21.0756505,
    "lon": 74.9872577
  },
  {
    "partId": 120622,
    "stateCode": "S13",
    "stateName": "Maharashtra",
    "districtCode": "S1303",
    "districtName": "Jalgaon",
    "acNumber": 15,
    "acName": "Amalner",
    "partNumber": 109,
    "partName": "Vavade",
    "lat": 21.0714858,
    "lon": 74.9238825
  },
  {
    "partId": 120623,
    "stateCode": "S13",
    "stateName": "Maharashtra",
    "districtCode": "S1303",
    "districtName": "Jalgaon",
    "acNumber": 15,
    "acName": "Amalner",
    "partNumber": 110,
    "partName": "Vavade",
    "lat": 21.0714858,
    "lon": 74.9238825
  },
  {
    "partId": 120624,
    "stateCode": "S13",
    "stateName": "Maharashtra",
    "districtCode": "S1303",
    "districtName": "Jalgaon",
    "acNumber": 15,
    "acName": "Amalner",
    "partNumber": 111,
    "partName": "Vavade",
    "lat": 21.0714858,
    "lon": 74.9238825
  },
  {
    "partId": 120625,
    "stateCode": "S13",
    "stateName": "Maharashtra",
    "districtCode": "S1303",
    "districtName": "Jalgaon",
    "acNumber": 15,
    "acName": "Amalner",
    "partNumber": 112,
    "partName": "Mandal",
    "lat": 21.0711905,
    "lon": 74.869836
  },
  {
    "partId": 120626,
    "stateCode": "S13",
    "stateName": "Maharashtra",
    "districtCode": "S1303",
    "districtName": "Jalgaon",
    "acNumber": 15,
    "acName": "Amalner",
    "partNumber": 113,
    "partName": "Mandal",
    "lat": 21.0711905,
    "lon": 74.869836
  },
  {
    "partId": 120627,
    "stateCode": "S13",
    "stateName": "Maharashtra",
    "districtCode": "S1303",
    "districtName": "Jalgaon",
    "acNumber": 15,
    "acName": "Amalner",
    "partNumber": 114,
    "partName": "Mandal",
    "lat": 21.0711905,
    "lon": 74.869836
  },
  {
    "partId": 120628,
    "stateCode": "S13",
    "stateName": "Maharashtra",
    "districtCode": "S1303",
    "districtName": "Jalgaon",
    "acNumber": 15,
    "acName": "Amalner",
    "partNumber": 115,
    "partName": "Mandal",
    "lat": 21.0711905,
    "lon": 74.869836
  },
  {
    "partId": 120629,
    "stateCode": "S13",
    "stateName": "Maharashtra",
    "districtCode": "S1303",
    "districtName": "Jalgaon",
    "acNumber": 15,
    "acName": "Amalner",
    "partNumber": 116,
    "partName": "Shirsale Bk.",
    "lat": 21.0618946,
    "lon": 74.9747586
  },
  {
    "partId": 120630,
    "stateCode": "S13",
    "stateName": "Maharashtra",
    "districtCode": "S1303",
    "districtName": "Jalgaon",
    "acNumber": 15,
    "acName": "Amalner",
    "partNumber": 117,
    "partName": "Shirsale Bk.",
    "lat": 21.0618946,
    "lon": 74.9747586
  },
  {
    "partId": 120631,
    "stateCode": "S13",
    "stateName": "Maharashtra",
    "districtCode": "S1303",
    "districtName": "Jalgaon",
    "acNumber": 15,
    "acName": "Amalner",
    "partNumber": 118,
    "partName": "Dhekusim",
    "lat": 21.075780700000003,
    "lon": 75.04286411660418
  },
  {
    "partId": 120632,
    "stateCode": "S13",
    "stateName": "Maharashtra",
    "districtCode": "S1303",
    "districtName": "Jalgaon",
    "acNumber": 15,
    "acName": "Amalner",
    "partNumber": 119,
    "partName": "Dhekusim",
    "lat": 21.075780700000003,
    "lon": 75.04286411660418
  },
  {
    "partId": 120633,
    "stateCode": "S13",
    "stateName": "Maharashtra",
    "districtCode": "S1303",
    "districtName": "Jalgaon",
    "acNumber": 15,
    "acName": "Amalner",
    "partNumber": 120,
    "partName": "Nagaon Bk.",
    "lat": 21.0689829,
    "lon": 75.1415062
  },
  {
    "partId": 120634,
    "stateCode": "S13",
    "stateName": "Maharashtra",
    "districtCode": "S1303",
    "districtName": "Jalgaon",
    "acNumber": 15,
    "acName": "Amalner",
    "partNumber": 121,
    "partName": "Nagaon Bk.",
    "lat": 21.0689829,
    "lon": 75.1415062
  },
  {
    "partId": 120635,
    "stateCode": "S13",
    "stateName": "Maharashtra",
    "districtCode": "S1303",
    "districtName": "Jalgaon",
    "acNumber": 15,
    "acName": "Amalner",
    "partNumber": 122,
    "partName": "Nagaon Kh.",
    "lat": 21.0689229,
    "lon": 75.1442098
  },
  {
    "partId": 120636,
    "stateCode": "S13",
    "stateName": "Maharashtra",
    "districtCode": "S1303",
    "districtName": "Jalgaon",
    "acNumber": 15,
    "acName": "Amalner",
    "partNumber": 123,
    "partName": "Sonkhedi",
    "lat": 21.0902661,
    "lon": 75.2109432
  },
  {
    "partId": 120637,
    "stateCode": "S13",
    "stateName": "Maharashtra",
    "districtCode": "S1303",
    "districtName": "Jalgaon",
    "acNumber": 15,
    "acName": "Amalner",
    "partNumber": 124,
    "partName": "Nimzari",
    "lat": 21.0649782,
    "lon": 75.2182817
  },
  {
    "partId": 120638,
    "stateCode": "S13",
    "stateName": "Maharashtra",
    "districtCode": "S1303",
    "districtName": "Jalgaon",
    "acNumber": 15,
    "acName": "Amalner",
    "partNumber": 125,
    "partName": "Takarkhede",
    "lat": 20.9947785,
    "lon": 75.4917812
  },
  {
    "partId": 120639,
    "stateCode": "S13",
    "stateName": "Maharashtra",
    "districtCode": "S1303",
    "districtName": "Jalgaon",
    "acNumber": 15,
    "acName": "Amalner",
    "partNumber": 126,
    "partName": "Takarkhede",
    "lat": 20.9947785,
    "lon": 75.4917812
  },
  {
    "partId": 120640,
    "stateCode": "S13",
    "stateName": "Maharashtra",
    "districtCode": "S1303",
    "districtName": "Jalgaon",
    "acNumber": 15,
    "acName": "Amalner",
    "partNumber": 127,
    "partName": "Deogaon",
    "lat": 21.1927947,
    "lon": 75.5184424
  },
  {
    "partId": 120641,
    "stateCode": "S13",
    "stateName": "Maharashtra",
    "districtCode": "S1303",
    "districtName": "Jalgaon",
    "acNumber": 15,
    "acName": "Amalner",
    "partNumber": 128,
    "partName": "Deogaon",
    "lat": 21.1927947,
    "lon": 75.5184424
  },
  {
    "partId": 120642,
    "stateCode": "S13",
    "stateName": "Maharashtra",
    "districtCode": "S1303",
    "districtName": "Jalgaon",
    "acNumber": 15,
    "acName": "Amalner",
    "partNumber": 129,
    "partName": "Amalner",
    "lat": 21.075780700000003,
    "lon": 75.04286411660418
  },
  {
    "partId": 120643,
    "stateCode": "S13",
    "stateName": "Maharashtra",
    "districtCode": "S1303",
    "districtName": "Jalgaon",
    "acNumber": 15,
    "acName": "Amalner",
    "partNumber": 130,
    "partName": "Amalner",
    "lat": 21.075780700000003,
    "lon": 75.04286411660418
  },
  {
    "partId": 120644,
    "stateCode": "S13",
    "stateName": "Maharashtra",
    "districtCode": "S1303",
    "districtName": "Jalgaon",
    "acNumber": 15,
    "acName": "Amalner",
    "partNumber": 131,
    "partName": "Amalner",
    "lat": 21.075780700000003,
    "lon": 75.04286411660418
  },
  {
    "partId": 120645,
    "stateCode": "S13",
    "stateName": "Maharashtra",
    "districtCode": "S1303",
    "districtName": "Jalgaon",
    "acNumber": 15,
    "acName": "Amalner",
    "partNumber": 132,
    "partName": "Amalner",
    "lat": 21.075780700000003,
    "lon": 75.04286411660418
  },
  {
    "partId": 120646,
    "stateCode": "S13",
    "stateName": "Maharashtra",
    "districtCode": "S1303",
    "districtName": "Jalgaon",
    "acNumber": 15,
    "acName": "Amalner",
    "partNumber": 133,
    "partName": "Amalner",
    "lat": 21.075780700000003,
    "lon": 75.04286411660418
  },
  {
    "partId": 120647,
    "stateCode": "S13",
    "stateName": "Maharashtra",
    "districtCode": "S1303",
    "districtName": "Jalgaon",
    "acNumber": 15,
    "acName": "Amalner",
    "partNumber": 134,
    "partName": "Amalner",
    "lat": 21.075780700000003,
    "lon": 75.04286411660418
  },
  {
    "partId": 120648,
    "stateCode": "S13",
    "stateName": "Maharashtra",
    "districtCode": "S1303",
    "districtName": "Jalgaon",
    "acNumber": 15,
    "acName": "Amalner",
    "partNumber": 135,
    "partName": "Amalner",
    "lat": 21.075780700000003,
    "lon": 75.04286411660418
  },
  {
    "partId": 120649,
    "stateCode": "S13",
    "stateName": "Maharashtra",
    "districtCode": "S1303",
    "districtName": "Jalgaon",
    "acNumber": 15,
    "acName": "Amalner",
    "partNumber": 136,
    "partName": "Amalner",
    "lat": 21.05122660511182,
    "lon": 75.11160403788386
  },
  {
    "partId": 120650,
    "stateCode": "S13",
    "stateName": "Maharashtra",
    "districtCode": "S1303",
    "districtName": "Jalgaon",
    "acNumber": 15,
    "acName": "Amalner",
    "partNumber": 137,
    "partName": "Amalner",
    "lat": 21.075780700000003,
    "lon": 75.04286411660418
  },
  {
    "partId": 120651,
    "stateCode": "S13",
    "stateName": "Maharashtra",
    "districtCode": "S1303",
    "districtName": "Jalgaon",
    "acNumber": 15,
    "acName": "Amalner",
    "partNumber": 138,
    "partName": "Amalner",
    "lat": 21.075780700000003,
    "lon": 75.04286411660418
  },
  {
    "partId": 120652,
    "stateCode": "S13",
    "stateName": "Maharashtra",
    "districtCode": "S1303",
    "districtName": "Jalgaon",
    "acNumber": 15,
    "acName": "Amalner",
    "partNumber": 139,
    "partName": "Amalner",
    "lat": 21.075780700000003,
    "lon": 75.04286411660418
  },
  {
    "partId": 120653,
    "stateCode": "S13",
    "stateName": "Maharashtra",
    "districtCode": "S1303",
    "districtName": "Jalgaon",
    "acNumber": 15,
    "acName": "Amalner",
    "partNumber": 140,
    "partName": "Amalner",
    "lat": 21.05122660511182,
    "lon": 75.11160403788386
  },
  {
    "partId": 120654,
    "stateCode": "S13",
    "stateName": "Maharashtra",
    "districtCode": "S1303",
    "districtName": "Jalgaon",
    "acNumber": 15,
    "acName": "Amalner",
    "partNumber": 141,
    "partName": "Amalner",
    "lat": 21.075780700000003,
    "lon": 75.04286411660418
  },
  {
    "partId": 120655,
    "stateCode": "S13",
    "stateName": "Maharashtra",
    "districtCode": "S1303",
    "districtName": "Jalgaon",
    "acNumber": 15,
    "acName": "Amalner",
    "partNumber": 142,
    "partName": "Amalner",
    "lat": 21.075780700000003,
    "lon": 75.04286411660418
  },
  {
    "partId": 120656,
    "stateCode": "S13",
    "stateName": "Maharashtra",
    "districtCode": "S1303",
    "districtName": "Jalgaon",
    "acNumber": 15,
    "acName": "Amalner",
    "partNumber": 143,
    "partName": "Amalner",
    "lat": 21.075780700000003,
    "lon": 75.04286411660418
  },
  {
    "partId": 120657,
    "stateCode": "S13",
    "stateName": "Maharashtra",
    "districtCode": "S1303",
    "districtName": "Jalgaon",
    "acNumber": 15,
    "acName": "Amalner",
    "partNumber": 144,
    "partName": "Amalner",
    "lat": 21.075780700000003,
    "lon": 75.04286411660418
  },
  {
    "partId": 120658,
    "stateCode": "S13",
    "stateName": "Maharashtra",
    "districtCode": "S1303",
    "districtName": "Jalgaon",
    "acNumber": 15,
    "acName": "Amalner",
    "partNumber": 145,
    "partName": "Amalner",
    "lat": 21.075780700000003,
    "lon": 75.04286411660418
  },
  {
    "partId": 120659,
    "stateCode": "S13",
    "stateName": "Maharashtra",
    "districtCode": "S1303",
    "districtName": "Jalgaon",
    "acNumber": 15,
    "acName": "Amalner",
    "partNumber": 146,
    "partName": "Amalner",
    "lat": 21.05122660511182,
    "lon": 75.11160403788386
  },
  {
    "partId": 120660,
    "stateCode": "S13",
    "stateName": "Maharashtra",
    "districtCode": "S1303",
    "districtName": "Jalgaon",
    "acNumber": 15,
    "acName": "Amalner",
    "partNumber": 147,
    "partName": "Amalner",
    "lat": 21.075780700000003,
    "lon": 75.04286411660418
  },
  {
    "partId": 120661,
    "stateCode": "S13",
    "stateName": "Maharashtra",
    "districtCode": "S1303",
    "districtName": "Jalgaon",
    "acNumber": 15,
    "acName": "Amalner",
    "partNumber": 148,
    "partName": "Amalner",
    "lat": 21.075780700000003,
    "lon": 75.04286411660418
  },
  {
    "partId": 120662,
    "stateCode": "S13",
    "stateName": "Maharashtra",
    "districtCode": "S1303",
    "districtName": "Jalgaon",
    "acNumber": 15,
    "acName": "Amalner",
    "partNumber": 149,
    "partName": "Amalner",
    "lat": 21.075780700000003,
    "lon": 75.04286411660418
  },
  {
    "partId": 120663,
    "stateCode": "S13",
    "stateName": "Maharashtra",
    "districtCode": "S1303",
    "districtName": "Jalgaon",
    "acNumber": 15,
    "acName": "Amalner",
    "partNumber": 150,
    "partName": "Amalner",
    "lat": 21.075780700000003,
    "lon": 75.04286411660418
  },
  {
    "partId": 120664,
    "stateCode": "S13",
    "stateName": "Maharashtra",
    "districtCode": "S1303",
    "districtName": "Jalgaon",
    "acNumber": 15,
    "acName": "Amalner",
    "partNumber": 151,
    "partName": "Amalner",
    "lat": 21.075780700000003,
    "lon": 75.04286411660418
  },
  {
    "partId": 120665,
    "stateCode": "S13",
    "stateName": "Maharashtra",
    "districtCode": "S1303",
    "districtName": "Jalgaon",
    "acNumber": 15,
    "acName": "Amalner",
    "partNumber": 152,
    "partName": "Amalner",
    "lat": 21.075780700000003,
    "lon": 75.04286411660418
  },
  {
    "partId": 120666,
    "stateCode": "S13",
    "stateName": "Maharashtra",
    "districtCode": "S1303",
    "districtName": "Jalgaon",
    "acNumber": 15,
    "acName": "Amalner",
    "partNumber": 153,
    "partName": "Amalner",
    "lat": 21.075780700000003,
    "lon": 75.04286411660418
  },
  {
    "partId": 120667,
    "stateCode": "S13",
    "stateName": "Maharashtra",
    "districtCode": "S1303",
    "districtName": "Jalgaon",
    "acNumber": 15,
    "acName": "Amalner",
    "partNumber": 154,
    "partName": "Amalner",
    "lat": 21.05122660511182,
    "lon": 75.11160403788386
  },
  {
    "partId": 120668,
    "stateCode": "S13",
    "stateName": "Maharashtra",
    "districtCode": "S1303",
    "districtName": "Jalgaon",
    "acNumber": 15,
    "acName": "Amalner",
    "partNumber": 155,
    "partName": "Amalner",
    "lat": 21.075780700000003,
    "lon": 75.04286411660418
  },
  {
    "partId": 120669,
    "stateCode": "S13",
    "stateName": "Maharashtra",
    "districtCode": "S1303",
    "districtName": "Jalgaon",
    "acNumber": 15,
    "acName": "Amalner",
    "partNumber": 156,
    "partName": "Amalner",
    "lat": 21.075780700000003,
    "lon": 75.04286411660418
  },
  {
    "partId": 120670,
    "stateCode": "S13",
    "stateName": "Maharashtra",
    "districtCode": "S1303",
    "districtName": "Jalgaon",
    "acNumber": 15,
    "acName": "Amalner",
    "partNumber": 157,
    "partName": "Amalner",
    "lat": 21.075780700000003,
    "lon": 75.04286411660418
  },
  {
    "partId": 120671,
    "stateCode": "S13",
    "stateName": "Maharashtra",
    "districtCode": "S1303",
    "districtName": "Jalgaon",
    "acNumber": 15,
    "acName": "Amalner",
    "partNumber": 158,
    "partName": "Amalner",
    "lat": 21.05122660511182,
    "lon": 75.11160403788386
  },
  {
    "partId": 120672,
    "stateCode": "S13",
    "stateName": "Maharashtra",
    "districtCode": "S1303",
    "districtName": "Jalgaon",
    "acNumber": 15,
    "acName": "Amalner",
    "partNumber": 159,
    "partName": "Amalner",
    "lat": 21.075780700000003,
    "lon": 75.04286411660418
  },
  {
    "partId": 120673,
    "stateCode": "S13",
    "stateName": "Maharashtra",
    "districtCode": "S1303",
    "districtName": "Jalgaon",
    "acNumber": 15,
    "acName": "Amalner",
    "partNumber": 160,
    "partName": "Amalner",
    "lat": 21.075780700000003,
    "lon": 75.04286411660418
  },
  {
    "partId": 120674,
    "stateCode": "S13",
    "stateName": "Maharashtra",
    "districtCode": "S1303",
    "districtName": "Jalgaon",
    "acNumber": 15,
    "acName": "Amalner",
    "partNumber": 161,
    "partName": "Amalner",
    "lat": 21.075780700000003,
    "lon": 75.04286411660418
  },
  {
    "partId": 120675,
    "stateCode": "S13",
    "stateName": "Maharashtra",
    "districtCode": "S1303",
    "districtName": "Jalgaon",
    "acNumber": 15,
    "acName": "Amalner",
    "partNumber": 162,
    "partName": "Amalner",
    "lat": 21.075780700000003,
    "lon": 75.04286411660418
  },
  {
    "partId": 120676,
    "stateCode": "S13",
    "stateName": "Maharashtra",
    "districtCode": "S1303",
    "districtName": "Jalgaon",
    "acNumber": 15,
    "acName": "Amalner",
    "partNumber": 163,
    "partName": "Amalner",
    "lat": 21.075780700000003,
    "lon": 75.04286411660418
  },
  {
    "partId": 120677,
    "stateCode": "S13",
    "stateName": "Maharashtra",
    "districtCode": "S1303",
    "districtName": "Jalgaon",
    "acNumber": 15,
    "acName": "Amalner",
    "partNumber": 164,
    "partName": "Amalner",
    "lat": 21.05122660511182,
    "lon": 75.11160403788386
  },
  {
    "partId": 120678,
    "stateCode": "S13",
    "stateName": "Maharashtra",
    "districtCode": "S1303",
    "districtName": "Jalgaon",
    "acNumber": 15,
    "acName": "Amalner",
    "partNumber": 165,
    "partName": "Amalner",
    "lat": 21.075780700000003,
    "lon": 75.04286411660418
  },
  {
    "partId": 120679,
    "stateCode": "S13",
    "stateName": "Maharashtra",
    "districtCode": "S1303",
    "districtName": "Jalgaon",
    "acNumber": 15,
    "acName": "Amalner",
    "partNumber": 166,
    "partName": "Amalner",
    "lat": 21.075780700000003,
    "lon": 75.04286411660418
  },
  {
    "partId": 120680,
    "stateCode": "S13",
    "stateName": "Maharashtra",
    "districtCode": "S1303",
    "districtName": "Jalgaon",
    "acNumber": 15,
    "acName": "Amalner",
    "partNumber": 167,
    "partName": "Amalner",
    "lat": 21.075780700000003,
    "lon": 75.04286411660418
  },
  {
    "partId": 120681,
    "stateCode": "S13",
    "stateName": "Maharashtra",
    "districtCode": "S1303",
    "districtName": "Jalgaon",
    "acNumber": 15,
    "acName": "Amalner",
    "partNumber": 168,
    "partName": "Amalner",
    "lat": 21.075780700000003,
    "lon": 75.04286411660418
  },
  {
    "partId": 120682,
    "stateCode": "S13",
    "stateName": "Maharashtra",
    "districtCode": "S1303",
    "districtName": "Jalgaon",
    "acNumber": 15,
    "acName": "Amalner",
    "partNumber": 169,
    "partName": "Amalner",
    "lat": 21.075780700000003,
    "lon": 75.04286411660418
  },
  {
    "partId": 120683,
    "stateCode": "S13",
    "stateName": "Maharashtra",
    "districtCode": "S1303",
    "districtName": "Jalgaon",
    "acNumber": 15,
    "acName": "Amalner",
    "partNumber": 170,
    "partName": "Amalner",
    "lat": 21.075780700000003,
    "lon": 75.04286411660418
  },
  {
    "partId": 120684,
    "stateCode": "S13",
    "stateName": "Maharashtra",
    "districtCode": "S1303",
    "districtName": "Jalgaon",
    "acNumber": 15,
    "acName": "Amalner",
    "partNumber": 171,
    "partName": "Amalner",
    "lat": 21.075780700000003,
    "lon": 75.04286411660418
  },
  {
    "partId": 120685,
    "stateCode": "S13",
    "stateName": "Maharashtra",
    "districtCode": "S1303",
    "districtName": "Jalgaon",
    "acNumber": 15,
    "acName": "Amalner",
    "partNumber": 172,
    "partName": "Amalner",
    "lat": 21.075780700000003,
    "lon": 75.04286411660418
  },
  {
    "partId": 120686,
    "stateCode": "S13",
    "stateName": "Maharashtra",
    "districtCode": "S1303",
    "districtName": "Jalgaon",
    "acNumber": 15,
    "acName": "Amalner",
    "partNumber": 173,
    "partName": "Amalner",
    "lat": 21.075780700000003,
    "lon": 75.04286411660418
  },
  {
    "partId": 120687,
    "stateCode": "S13",
    "stateName": "Maharashtra",
    "districtCode": "S1303",
    "districtName": "Jalgaon",
    "acNumber": 15,
    "acName": "Amalner",
    "partNumber": 174,
    "partName": "Amalner",
    "lat": 21.075780700000003,
    "lon": 75.04286411660418
  },
  {
    "partId": 145489,
    "stateCode": "S13",
    "stateName": "Maharashtra",
    "districtCode": "S1303",
    "districtName": "Jalgaon",
    "acNumber": 15,
    "acName": "Amalner",
    "partNumber": 175,
    "partName": "Amalner",
    "lat": 21.075780700000003,
    "lon": 75.04286411660418
  },
  {
    "partId": 120688,
    "stateCode": "S13",
    "stateName": "Maharashtra",
    "districtCode": "S1303",
    "districtName": "Jalgaon",
    "acNumber": 15,
    "acName": "Amalner",
    "partNumber": 176,
    "partName": "Amalner",
    "lat": 21.075780700000003,
    "lon": 75.04286411660418
  },
  {
    "partId": 120689,
    "stateCode": "S13",
    "stateName": "Maharashtra",
    "districtCode": "S1303",
    "districtName": "Jalgaon",
    "acNumber": 15,
    "acName": "Amalner",
    "partNumber": 177,
    "partName": "Amalner",
    "lat": 21.075780700000003,
    "lon": 75.04286411660418
  },
  {
    "partId": 120690,
    "stateCode": "S13",
    "stateName": "Maharashtra",
    "districtCode": "S1303",
    "districtName": "Jalgaon",
    "acNumber": 15,
    "acName": "Amalner",
    "partNumber": 178,
    "partName": "Amalner",
    "lat": 21.075780700000003,
    "lon": 75.04286411660418
  },
  {
    "partId": 120691,
    "stateCode": "S13",
    "stateName": "Maharashtra",
    "districtCode": "S1303",
    "districtName": "Jalgaon",
    "acNumber": 15,
    "acName": "Amalner",
    "partNumber": 179,
    "partName": "Amalner",
    "lat": 21.075780700000003,
    "lon": 75.04286411660418
  },
  {
    "partId": 120692,
    "stateCode": "S13",
    "stateName": "Maharashtra",
    "districtCode": "S1303",
    "districtName": "Jalgaon",
    "acNumber": 15,
    "acName": "Amalner",
    "partNumber": 180,
    "partName": "Amalner",
    "lat": 21.075780700000003,
    "lon": 75.04286411660418
  },
  {
    "partId": 120693,
    "stateCode": "S13",
    "stateName": "Maharashtra",
    "districtCode": "S1303",
    "districtName": "Jalgaon",
    "acNumber": 15,
    "acName": "Amalner",
    "partNumber": 181,
    "partName": "Amalner",
    "lat": 21.075780700000003,
    "lon": 75.04286411660418
  },
  {
    "partId": 120694,
    "stateCode": "S13",
    "stateName": "Maharashtra",
    "districtCode": "S1303",
    "districtName": "Jalgaon",
    "acNumber": 15,
    "acName": "Amalner",
    "partNumber": 182,
    "partName": "Amalner",
    "lat": 21.075780700000003,
    "lon": 75.04286411660418
  },
  {
    "partId": 120695,
    "stateCode": "S13",
    "stateName": "Maharashtra",
    "districtCode": "S1303",
    "districtName": "Jalgaon",
    "acNumber": 15,
    "acName": "Amalner",
    "partNumber": 183,
    "partName": "Amalner",
    "lat": 21.075780700000003,
    "lon": 75.04286411660418
  },
  {
    "partId": 120696,
    "stateCode": "S13",
    "stateName": "Maharashtra",
    "districtCode": "S1303",
    "districtName": "Jalgaon",
    "acNumber": 15,
    "acName": "Amalner",
    "partNumber": 184,
    "partName": "Amalner",
    "lat": 21.075780700000003,
    "lon": 75.04286411660418
  },
  {
    "partId": 120697,
    "stateCode": "S13",
    "stateName": "Maharashtra",
    "districtCode": "S1303",
    "districtName": "Jalgaon",
    "acNumber": 15,
    "acName": "Amalner",
    "partNumber": 185,
    "partName": "Amalner",
    "lat": 21.075780700000003,
    "lon": 75.04286411660418
  },
  {
    "partId": 120698,
    "stateCode": "S13",
    "stateName": "Maharashtra",
    "districtCode": "S1303",
    "districtName": "Jalgaon",
    "acNumber": 15,
    "acName": "Amalner",
    "partNumber": 186,
    "partName": "Amalner",
    "lat": 21.075780700000003,
    "lon": 75.04286411660418
  },
  {
    "partId": 120699,
    "stateCode": "S13",
    "stateName": "Maharashtra",
    "districtCode": "S1303",
    "districtName": "Jalgaon",
    "acNumber": 15,
    "acName": "Amalner",
    "partNumber": 187,
    "partName": "Amalner",
    "lat": 21.075780700000003,
    "lon": 75.04286411660418
  },
  {
    "partId": 120700,
    "stateCode": "S13",
    "stateName": "Maharashtra",
    "districtCode": "S1303",
    "districtName": "Jalgaon",
    "acNumber": 15,
    "acName": "Amalner",
    "partNumber": 188,
    "partName": "Amalner",
    "lat": 21.075780700000003,
    "lon": 75.04286411660418
  },
  {
    "partId": 120701,
    "stateCode": "S13",
    "stateName": "Maharashtra",
    "districtCode": "S1303",
    "districtName": "Jalgaon",
    "acNumber": 15,
    "acName": "Amalner",
    "partNumber": 189,
    "partName": "Amalner",
    "lat": 21.075780700000003,
    "lon": 75.04286411660418
  },
  {
    "partId": 120702,
    "stateCode": "S13",
    "stateName": "Maharashtra",
    "districtCode": "S1303",
    "districtName": "Jalgaon",
    "acNumber": 15,
    "acName": "Amalner",
    "partNumber": 190,
    "partName": "Amalner",
    "lat": 21.075780700000003,
    "lon": 75.04286411660418
  },
  {
    "partId": 120703,
    "stateCode": "S13",
    "stateName": "Maharashtra",
    "districtCode": "S1303",
    "districtName": "Jalgaon",
    "acNumber": 15,
    "acName": "Amalner",
    "partNumber": 191,
    "partName": "Amalner",
    "lat": 21.075780700000003,
    "lon": 75.04286411660418
  },
  {
    "partId": 120704,
    "stateCode": "S13",
    "stateName": "Maharashtra",
    "districtCode": "S1303",
    "districtName": "Jalgaon",
    "acNumber": 15,
    "acName": "Amalner",
    "partNumber": 192,
    "partName": "Amalner",
    "lat": 21.075780700000003,
    "lon": 75.04286411660418
  },
  {
    "partId": 120705,
    "stateCode": "S13",
    "stateName": "Maharashtra",
    "districtCode": "S1303",
    "districtName": "Jalgaon",
    "acNumber": 15,
    "acName": "Amalner",
    "partNumber": 193,
    "partName": "Amalner",
    "lat": 21.075780700000003,
    "lon": 75.04286411660418
  },
  {
    "partId": 120706,
    "stateCode": "S13",
    "stateName": "Maharashtra",
    "districtCode": "S1303",
    "districtName": "Jalgaon",
    "acNumber": 15,
    "acName": "Amalner",
    "partNumber": 194,
    "partName": "Amalner",
    "lat": 21.075780700000003,
    "lon": 75.04286411660418
  },
  {
    "partId": 120707,
    "stateCode": "S13",
    "stateName": "Maharashtra",
    "districtCode": "S1303",
    "districtName": "Jalgaon",
    "acNumber": 15,
    "acName": "Amalner",
    "partNumber": 195,
    "partName": "Amalner",
    "lat": 21.075780700000003,
    "lon": 75.04286411660418
  },
  {
    "partId": 120708,
    "stateCode": "S13",
    "stateName": "Maharashtra",
    "districtCode": "S1303",
    "districtName": "Jalgaon",
    "acNumber": 15,
    "acName": "Amalner",
    "partNumber": 196,
    "partName": "Amalner",
    "lat": 21.075780700000003,
    "lon": 75.04286411660418
  },
  {
    "partId": 120709,
    "stateCode": "S13",
    "stateName": "Maharashtra",
    "districtCode": "S1303",
    "districtName": "Jalgaon",
    "acNumber": 15,
    "acName": "Amalner",
    "partNumber": 197,
    "partName": "Amalner",
    "lat": 21.075780700000003,
    "lon": 75.04286411660418
  },
  {
    "partId": 145490,
    "stateCode": "S13",
    "stateName": "Maharashtra",
    "districtCode": "S1303",
    "districtName": "Jalgaon",
    "acNumber": 15,
    "acName": "Amalner",
    "partNumber": 198,
    "partName": "Amalner",
    "lat": 21.05122660511182,
    "lon": 75.11160403788386
  },
  {
    "partId": 120710,
    "stateCode": "S13",
    "stateName": "Maharashtra",
    "districtCode": "S1303",
    "districtName": "Jalgaon",
    "acNumber": 15,
    "acName": "Amalner",
    "partNumber": 199,
    "partName": "Amalner",
    "lat": 21.075780700000003,
    "lon": 75.04286411660418
  },
  {
    "partId": 120711,
    "stateCode": "S13",
    "stateName": "Maharashtra",
    "districtCode": "S1303",
    "districtName": "Jalgaon",
    "acNumber": 15,
    "acName": "Amalner",
    "partNumber": 200,
    "partName": "Amalner",
    "lat": 21.075780700000003,
    "lon": 75.04286411660418
  },
  {
    "partId": 120712,
    "stateCode": "S13",
    "stateName": "Maharashtra",
    "districtCode": "S1303",
    "districtName": "Jalgaon",
    "acNumber": 15,
    "acName": "Amalner",
    "partNumber": 201,
    "partName": "Amalner",
    "lat": 21.075780700000003,
    "lon": 75.04286411660418
  },
  {
    "partId": 120713,
    "stateCode": "S13",
    "stateName": "Maharashtra",
    "districtCode": "S1303",
    "districtName": "Jalgaon",
    "acNumber": 15,
    "acName": "Amalner",
    "partNumber": 202,
    "partName": "Amalner",
    "lat": 21.075780700000003,
    "lon": 75.04286411660418
  },
  {
    "partId": 120714,
    "stateCode": "S13",
    "stateName": "Maharashtra",
    "districtCode": "S1303",
    "districtName": "Jalgaon",
    "acNumber": 15,
    "acName": "Amalner",
    "partNumber": 203,
    "partName": "Amalner",
    "lat": 21.075780700000003,
    "lon": 75.04286411660418
  },
  {
    "partId": 120715,
    "stateCode": "S13",
    "stateName": "Maharashtra",
    "districtCode": "S1303",
    "districtName": "Jalgaon",
    "acNumber": 15,
    "acName": "Amalner",
    "partNumber": 204,
    "partName": "Amalner",
    "lat": 21.075780700000003,
    "lon": 75.04286411660418
  },
  {
    "partId": 120716,
    "stateCode": "S13",
    "stateName": "Maharashtra",
    "districtCode": "S1303",
    "districtName": "Jalgaon",
    "acNumber": 15,
    "acName": "Amalner",
    "partNumber": 205,
    "partName": "Amalner",
    "lat": 21.075780700000003,
    "lon": 75.04286411660418
  },
  {
    "partId": 120717,
    "stateCode": "S13",
    "stateName": "Maharashtra",
    "districtCode": "S1303",
    "districtName": "Jalgaon",
    "acNumber": 15,
    "acName": "Amalner",
    "partNumber": 206,
    "partName": "Amalner",
    "lat": 21.075780700000003,
    "lon": 75.04286411660418
  },
  {
    "partId": 120718,
    "stateCode": "S13",
    "stateName": "Maharashtra",
    "districtCode": "S1303",
    "districtName": "Jalgaon",
    "acNumber": 15,
    "acName": "Amalner",
    "partNumber": 207,
    "partName": "Amalner",
    "lat": 21.075780700000003,
    "lon": 75.04286411660418
  },
  {
    "partId": 120719,
    "stateCode": "S13",
    "stateName": "Maharashtra",
    "districtCode": "S1303",
    "districtName": "Jalgaon",
    "acNumber": 15,
    "acName": "Amalner",
    "partNumber": 208,
    "partName": "Amalner",
    "lat": 21.075780700000003,
    "lon": 75.04286411660418
  },
  {
    "partId": 120720,
    "stateCode": "S13",
    "stateName": "Maharashtra",
    "districtCode": "S1303",
    "districtName": "Jalgaon",
    "acNumber": 15,
    "acName": "Amalner",
    "partNumber": 209,
    "partName": "Amalner",
    "lat": 21.075780700000003,
    "lon": 75.04286411660418
  },
  {
    "partId": 120721,
    "stateCode": "S13",
    "stateName": "Maharashtra",
    "districtCode": "S1303",
    "districtName": "Jalgaon",
    "acNumber": 15,
    "acName": "Amalner",
    "partNumber": 210,
    "partName": "Amalner",
    "lat": 21.075780700000003,
    "lon": 75.04286411660418
  },
  {
    "partId": 120722,
    "stateCode": "S13",
    "stateName": "Maharashtra",
    "districtCode": "S1303",
    "districtName": "Jalgaon",
    "acNumber": 15,
    "acName": "Amalner",
    "partNumber": 211,
    "partName": "Amalner",
    "lat": 21.075780700000003,
    "lon": 75.04286411660418
  },
  {
    "partId": 120723,
    "stateCode": "S13",
    "stateName": "Maharashtra",
    "districtCode": "S1303",
    "districtName": "Jalgaon",
    "acNumber": 15,
    "acName": "Amalner",
    "partNumber": 212,
    "partName": "Ardi",
    "lat": 21.0461948,
    "lon": 74.956541
  },
  {
    "partId": 120724,
    "stateCode": "S13",
    "stateName": "Maharashtra",
    "districtCode": "S1303",
    "districtName": "Jalgaon",
    "acNumber": 15,
    "acName": "Amalner",
    "partNumber": 213,
    "partName": "Ardi",
    "lat": 21.0461948,
    "lon": 74.956541
  },
  {
    "partId": 120725,
    "stateCode": "S13",
    "stateName": "Maharashtra",
    "districtCode": "S1303",
    "districtName": "Jalgaon",
    "acNumber": 15,
    "acName": "Amalner",
    "partNumber": 214,
    "partName": "Talwade",
    "lat": 21.059827,
    "lon": 74.9540842
  },
  {
    "partId": 120726,
    "stateCode": "S13",
    "stateName": "Maharashtra",
    "districtCode": "S1303",
    "districtName": "Jalgaon",
    "acNumber": 15,
    "acName": "Amalner",
    "partNumber": 215,
    "partName": "Javkheda",
    "lat": 21.075780700000003,
    "lon": 75.04286411660418
  },
  {
    "partId": 120727,
    "stateCode": "S13",
    "stateName": "Maharashtra",
    "districtCode": "S1303",
    "districtName": "Jalgaon",
    "acNumber": 15,
    "acName": "Amalner",
    "partNumber": 216,
    "partName": "Javkheda",
    "lat": 21.075780700000003,
    "lon": 75.04286411660418
  },
  {
    "partId": 120728,
    "stateCode": "S13",
    "stateName": "Maharashtra",
    "districtCode": "S1303",
    "districtName": "Jalgaon",
    "acNumber": 15,
    "acName": "Amalner",
    "partNumber": 217,
    "partName": "Javkheda",
    "lat": 21.075780700000003,
    "lon": 75.04286411660418
  },
  {
    "partId": 120729,
    "stateCode": "S13",
    "stateName": "Maharashtra",
    "districtCode": "S1303",
    "districtName": "Jalgaon",
    "acNumber": 15,
    "acName": "Amalner",
    "partNumber": 218,
    "partName": "Pimple Kh.",
    "lat": 21.075780700000003,
    "lon": 75.04286411660418
  },
  {
    "partId": 120730,
    "stateCode": "S13",
    "stateName": "Maharashtra",
    "districtCode": "S1303",
    "districtName": "Jalgaon",
    "acNumber": 15,
    "acName": "Amalner",
    "partNumber": 219,
    "partName": "Pimple Bk.",
    "lat": 21.075780700000003,
    "lon": 75.04286411660418
  },
  {
    "partId": 120731,
    "stateCode": "S13",
    "stateName": "Maharashtra",
    "districtCode": "S1303",
    "districtName": "Jalgaon",
    "acNumber": 15,
    "acName": "Amalner",
    "partNumber": 220,
    "partName": "Atale",
    "lat": 21.0483476,
    "lon": 74.9935877
  },
  {
    "partId": 120732,
    "stateCode": "S13",
    "stateName": "Maharashtra",
    "districtCode": "S1303",
    "districtName": "Jalgaon",
    "acNumber": 15,
    "acName": "Amalner",
    "partNumber": 221,
    "partName": "Mangrul",
    "lat": 21.2134647,
    "lon": 75.3973176
  },
  {
    "partId": 120733,
    "stateCode": "S13",
    "stateName": "Maharashtra",
    "districtCode": "S1303",
    "districtName": "Jalgaon",
    "acNumber": 15,
    "acName": "Amalner",
    "partNumber": 222,
    "partName": "Mangrul",
    "lat": 21.2134647,
    "lon": 75.3973176
  },
  {
    "partId": 120734,
    "stateCode": "S13",
    "stateName": "Maharashtra",
    "districtCode": "S1303",
    "districtName": "Jalgaon",
    "acNumber": 15,
    "acName": "Amalner",
    "partNumber": 223,
    "partName": "Mangrul",
    "lat": 21.2134647,
    "lon": 75.3973176
  },
  {
    "partId": 120735,
    "stateCode": "S13",
    "stateName": "Maharashtra",
    "districtCode": "S1303",
    "districtName": "Jalgaon",
    "acNumber": 15,
    "acName": "Amalner",
    "partNumber": 224,
    "partName": "Mangrul",
    "lat": 21.2134647,
    "lon": 75.3973176
  },
  {
    "partId": 120736,
    "stateCode": "S13",
    "stateName": "Maharashtra",
    "districtCode": "S1303",
    "districtName": "Jalgaon",
    "acNumber": 15,
    "acName": "Amalner",
    "partNumber": 225,
    "partName": "Palasdale",
    "lat": 21.075780700000003,
    "lon": 75.04286411660418
  },
  {
    "partId": 120737,
    "stateCode": "S13",
    "stateName": "Maharashtra",
    "districtCode": "S1303",
    "districtName": "Jalgaon",
    "acNumber": 15,
    "acName": "Amalner",
    "partNumber": 226,
    "partName": "Rameshwar Kh.",
    "lat": 21.0186762,
    "lon": 75.1467418
  },
  {
    "partId": 120738,
    "stateCode": "S13",
    "stateName": "Maharashtra",
    "districtCode": "S1303",
    "districtName": "Jalgaon",
    "acNumber": 15,
    "acName": "Amalner",
    "partNumber": 227,
    "partName": "Kurhe Kh.",
    "lat": 21.0390453,
    "lon": 75.138309
  },
  {
    "partId": 120739,
    "stateCode": "S13",
    "stateName": "Maharashtra",
    "districtCode": "S1303",
    "districtName": "Jalgaon",
    "acNumber": 15,
    "acName": "Amalner",
    "partNumber": 228,
    "partName": "Kurhe Bk.",
    "lat": 21.0359702,
    "lon": 75.1369993
  },
  {
    "partId": 120740,
    "stateCode": "S13",
    "stateName": "Maharashtra",
    "districtCode": "S1303",
    "districtName": "Jalgaon",
    "acNumber": 15,
    "acName": "Amalner",
    "partNumber": 229,
    "partName": "Vyavahardal",
    "lat": 21.075780700000003,
    "lon": 75.04286411660418
  },
  {
    "partId": 120741,
    "stateCode": "S13",
    "stateName": "Maharashtra",
    "districtCode": "S1303",
    "districtName": "Jalgaon",
    "acNumber": 15,
    "acName": "Amalner",
    "partNumber": 230,
    "partName": "Mhasle",
    "lat": 21.075780700000003,
    "lon": 75.04286411660418
  },
  {
    "partId": 120742,
    "stateCode": "S13",
    "stateName": "Maharashtra",
    "districtCode": "S1303",
    "districtName": "Jalgaon",
    "acNumber": 15,
    "acName": "Amalner",
    "partNumber": 231,
    "partName": "Kandari Khurd",
    "lat": 21.075780700000003,
    "lon": 75.04286411660418
  },
  {
    "partId": 120743,
    "stateCode": "S13",
    "stateName": "Maharashtra",
    "districtCode": "S1303",
    "districtName": "Jalgaon",
    "acNumber": 15,
    "acName": "Amalner",
    "partNumber": 232,
    "partName": "Lone",
    "lat": 21.0251057,
    "lon": 75.2201164
  },
  {
    "partId": 120744,
    "stateCode": "S13",
    "stateName": "Maharashtra",
    "districtCode": "S1303",
    "districtName": "Jalgaon",
    "acNumber": 15,
    "acName": "Amalner",
    "partNumber": 233,
    "partName": "Hedawe",
    "lat": 21.0115754,
    "lon": 75.1003289
  },
  {
    "partId": 120745,
    "stateCode": "S13",
    "stateName": "Maharashtra",
    "districtCode": "S1303",
    "districtName": "Jalgaon",
    "acNumber": 15,
    "acName": "Amalner",
    "partNumber": 234,
    "partName": "Sundarpatti",
    "lat": 21.075780700000003,
    "lon": 75.04286411660418
  },
  {
    "partId": 120746,
    "stateCode": "S13",
    "stateName": "Maharashtra",
    "districtCode": "S1303",
    "districtName": "Jalgaon",
    "acNumber": 15,
    "acName": "Amalner",
    "partNumber": 235,
    "partName": "Bahadarwadi",
    "lat": 21.0097826,
    "lon": 75.0715542
  },
  {
    "partId": 120747,
    "stateCode": "S13",
    "stateName": "Maharashtra",
    "districtCode": "S1303",
    "districtName": "Jalgaon",
    "acNumber": 15,
    "acName": "Amalner",
    "partNumber": 236,
    "partName": "Khokarpat",
    "lat": 21.075780700000003,
    "lon": 75.04286411660418
  },
  {
    "partId": 120748,
    "stateCode": "S13",
    "stateName": "Maharashtra",
    "districtCode": "S1303",
    "districtName": "Jalgaon",
    "acNumber": 15,
    "acName": "Amalner",
    "partNumber": 237,
    "partName": "Vaghode",
    "lat": 21.0229425,
    "lon": 74.9824834
  },
  {
    "partId": 120749,
    "stateCode": "S13",
    "stateName": "Maharashtra",
    "districtCode": "S1303",
    "districtName": "Jalgaon",
    "acNumber": 15,
    "acName": "Amalner",
    "partNumber": 238,
    "partName": "Khadake",
    "lat": 21.075780700000003,
    "lon": 75.04286411660418
  },
  {
    "partId": 120750,
    "stateCode": "S13",
    "stateName": "Maharashtra",
    "districtCode": "S1303",
    "districtName": "Jalgaon",
    "acNumber": 15,
    "acName": "Amalner",
    "partNumber": 239,
    "partName": "Nisardi",
    "lat": 21.0187263,
    "lon": 74.9764216
  },
  {
    "partId": 120751,
    "stateCode": "S13",
    "stateName": "Maharashtra",
    "districtCode": "S1303",
    "districtName": "Jalgaon",
    "acNumber": 15,
    "acName": "Amalner",
    "partNumber": 240,
    "partName": "Ranaiche Bk.",
    "lat": 21.075780700000003,
    "lon": 75.04286411660418
  },
  {
    "partId": 120752,
    "stateCode": "S13",
    "stateName": "Maharashtra",
    "districtCode": "S1303",
    "districtName": "Jalgaon",
    "acNumber": 15,
    "acName": "Amalner",
    "partNumber": 241,
    "partName": "Ranaiche Kh.",
    "lat": 21.075780700000003,
    "lon": 75.04286411660418
  },
  {
    "partId": 120753,
    "stateCode": "S13",
    "stateName": "Maharashtra",
    "districtCode": "S1303",
    "districtName": "Jalgaon",
    "acNumber": 15,
    "acName": "Amalner",
    "partNumber": 242,
    "partName": "Anchalwadi",
    "lat": 21.0208895,
    "lon": 74.9240756
  },
  {
    "partId": 120754,
    "stateCode": "S13",
    "stateName": "Maharashtra",
    "districtCode": "S1303",
    "districtName": "Jalgaon",
    "acNumber": 15,
    "acName": "Amalner",
    "partNumber": 243,
    "partName": "Londhave",
    "lat": 21.0071585,
    "lon": 74.9880624
  },
  {
    "partId": 120755,
    "stateCode": "S13",
    "stateName": "Maharashtra",
    "districtCode": "S1303",
    "districtName": "Jalgaon",
    "acNumber": 15,
    "acName": "Amalner",
    "partNumber": 244,
    "partName": "Londhave",
    "lat": 21.0071585,
    "lon": 74.9880624
  },
  {
    "partId": 120756,
    "stateCode": "S13",
    "stateName": "Maharashtra",
    "districtCode": "S1303",
    "districtName": "Jalgaon",
    "acNumber": 15,
    "acName": "Amalner",
    "partNumber": 245,
    "partName": "Sarbete Khurd",
    "lat": 21.0063474,
    "lon": 75.1331691
  },
  {
    "partId": 120757,
    "stateCode": "S13",
    "stateName": "Maharashtra",
    "districtCode": "S1303",
    "districtName": "Jalgaon",
    "acNumber": 15,
    "acName": "Amalner",
    "partNumber": 246,
    "partName": "Sarbete Bk",
    "lat": 21.0061738,
    "lon": 75.1329644
  },
  {
    "partId": 145491,
    "stateCode": "S13",
    "stateName": "Maharashtra",
    "districtCode": "S1303",
    "districtName": "Jalgaon",
    "acNumber": 15,
    "acName": "Amalner",
    "partNumber": 247,
    "partName": "Sarbete Budruk",
    "lat": 21.0050553,
    "lon": 75.1360337
  },
  {
    "partId": 120758,
    "stateCode": "S13",
    "stateName": "Maharashtra",
    "districtCode": "S1303",
    "districtName": "Jalgaon",
    "acNumber": 15,
    "acName": "Amalner",
    "partNumber": 248,
    "partName": "Dheku Kh.",
    "lat": 20.9892393,
    "lon": 75.1680064
  },
  {
    "partId": 120759,
    "stateCode": "S13",
    "stateName": "Maharashtra",
    "districtCode": "S1303",
    "districtName": "Jalgaon",
    "acNumber": 15,
    "acName": "Amalner",
    "partNumber": 249,
    "partName": "Dheku Kh.",
    "lat": 20.9892393,
    "lon": 75.1680064
  },
  {
    "partId": 120760,
    "stateCode": "S13",
    "stateName": "Maharashtra",
    "districtCode": "S1303",
    "districtName": "Jalgaon",
    "acNumber": 15,
    "acName": "Amalner",
    "partNumber": 250,
    "partName": "JuNone",
    "lat": 20.677278,
    "lon": 75.9543174
  },
  {
    "partId": 120761,
    "stateCode": "S13",
    "stateName": "Maharashtra",
    "districtCode": "S1303",
    "districtName": "Jalgaon",
    "acNumber": 15,
    "acName": "Amalner",
    "partNumber": 251,
    "partName": "Radhawan",
    "lat": 21.075780700000003,
    "lon": 75.04286411660418
  },
  {
    "partId": 120762,
    "stateCode": "S13",
    "stateName": "Maharashtra",
    "districtCode": "S1303",
    "districtName": "Jalgaon",
    "acNumber": 15,
    "acName": "Amalner",
    "partNumber": 252,
    "partName": "Ekrukhi",
    "lat": 20.9914029,
    "lon": 75.1389849
  },
  {
    "partId": 120763,
    "stateCode": "S13",
    "stateName": "Maharashtra",
    "districtCode": "S1303",
    "districtName": "Jalgaon",
    "acNumber": 15,
    "acName": "Amalner",
    "partNumber": 253,
    "partName": "Fafhore Bk.",
    "lat": 21.075780700000003,
    "lon": 75.04286411660418
  },
  {
    "partId": 120764,
    "stateCode": "S13",
    "stateName": "Maharashtra",
    "districtCode": "S1303",
    "districtName": "Jalgaon",
    "acNumber": 15,
    "acName": "Amalner",
    "partNumber": 254,
    "partName": "Fafore Bk.",
    "lat": 21.075780700000003,
    "lon": 75.04286411660418
  },
  {
    "partId": 120765,
    "stateCode": "S13",
    "stateName": "Maharashtra",
    "districtCode": "S1303",
    "districtName": "Jalgaon",
    "acNumber": 15,
    "acName": "Amalner",
    "partNumber": 255,
    "partName": "Hingone Kh. Pr. A.",
    "lat": 21.0058765,
    "lon": 75.0576496
  },
  {
    "partId": 120766,
    "stateCode": "S13",
    "stateName": "Maharashtra",
    "districtCode": "S1303",
    "districtName": "Jalgaon",
    "acNumber": 15,
    "acName": "Amalner",
    "partNumber": 256,
    "partName": "Shirud",
    "lat": 20.9851718,
    "lon": 75.0211959
  },
  {
    "partId": 120767,
    "stateCode": "S13",
    "stateName": "Maharashtra",
    "districtCode": "S1303",
    "districtName": "Jalgaon",
    "acNumber": 15,
    "acName": "Amalner",
    "partNumber": 257,
    "partName": "Shirud",
    "lat": 20.9851718,
    "lon": 75.0211959
  },
  {
    "partId": 120768,
    "stateCode": "S13",
    "stateName": "Maharashtra",
    "districtCode": "S1303",
    "districtName": "Jalgaon",
    "acNumber": 15,
    "acName": "Amalner",
    "partNumber": 258,
    "partName": "Shirud",
    "lat": 20.9851718,
    "lon": 75.0211959
  },
  {
    "partId": 120769,
    "stateCode": "S13",
    "stateName": "Maharashtra",
    "districtCode": "S1303",
    "districtName": "Jalgaon",
    "acNumber": 15,
    "acName": "Amalner",
    "partNumber": 259,
    "partName": "Chopdai",
    "lat": 20.9506991,
    "lon": 74.9218762
  },
  {
    "partId": 120770,
    "stateCode": "S13",
    "stateName": "Maharashtra",
    "districtCode": "S1303",
    "districtName": "Jalgaon",
    "acNumber": 15,
    "acName": "Amalner",
    "partNumber": 260,
    "partName": "Chopdai",
    "lat": 20.9506991,
    "lon": 74.9218762
  },
  {
    "partId": 120771,
    "stateCode": "S13",
    "stateName": "Maharashtra",
    "districtCode": "S1303",
    "districtName": "Jalgaon",
    "acNumber": 15,
    "acName": "Amalner",
    "partNumber": 261,
    "partName": "Dangar Bk.",
    "lat": 20.9636438,
    "lon": 74.9435591
  },
  {
    "partId": 120772,
    "stateCode": "S13",
    "stateName": "Maharashtra",
    "districtCode": "S1303",
    "districtName": "Jalgaon",
    "acNumber": 15,
    "acName": "Amalner",
    "partNumber": 262,
    "partName": "Dangar Bk.",
    "lat": 20.9636438,
    "lon": 74.9435591
  },
  {
    "partId": 120773,
    "stateCode": "S13",
    "stateName": "Maharashtra",
    "districtCode": "S1303",
    "districtName": "Jalgaon",
    "acNumber": 15,
    "acName": "Amalner",
    "partNumber": 263,
    "partName": "Janve",
    "lat": 21.075780700000003,
    "lon": 75.04286411660418
  },
  {
    "partId": 120774,
    "stateCode": "S13",
    "stateName": "Maharashtra",
    "districtCode": "S1303",
    "districtName": "Jalgaon",
    "acNumber": 15,
    "acName": "Amalner",
    "partNumber": 264,
    "partName": "Janve",
    "lat": 21.075780700000003,
    "lon": 75.04286411660418
  },
  {
    "partId": 120775,
    "stateCode": "S13",
    "stateName": "Maharashtra",
    "districtCode": "S1303",
    "districtName": "Jalgaon",
    "acNumber": 15,
    "acName": "Amalner",
    "partNumber": 265,
    "partName": "Janve",
    "lat": 21.075780700000003,
    "lon": 75.04286411660418
  },
  {
    "partId": 120776,
    "stateCode": "S13",
    "stateName": "Maharashtra",
    "districtCode": "S1303",
    "districtName": "Jalgaon",
    "acNumber": 15,
    "acName": "Amalner",
    "partNumber": 266,
    "partName": "Janve",
    "lat": 21.075780700000003,
    "lon": 75.04286411660418
  },
  {
    "partId": 120777,
    "stateCode": "S13",
    "stateName": "Maharashtra",
    "districtCode": "S1303",
    "districtName": "Jalgaon",
    "acNumber": 15,
    "acName": "Amalner",
    "partNumber": 267,
    "partName": "Kavpimpri",
    "lat": 20.9728406,
    "lon": 75.0548601
  },
  {
    "partId": 120778,
    "stateCode": "S13",
    "stateName": "Maharashtra",
    "districtCode": "S1303",
    "districtName": "Jalgaon",
    "acNumber": 15,
    "acName": "Amalner",
    "partNumber": 268,
    "partName": "Inrapimpri",
    "lat": 21.075780700000003,
    "lon": 75.04286411660418
  },
  {
    "partId": 120779,
    "stateCode": "S13",
    "stateName": "Maharashtra",
    "districtCode": "S1303",
    "districtName": "Jalgaon",
    "acNumber": 15,
    "acName": "Amalner",
    "partNumber": 269,
    "partName": "Kanhere",
    "lat": 20.8898882,
    "lon": 75.2442455
  },
  {
    "partId": 120780,
    "stateCode": "S13",
    "stateName": "Maharashtra",
    "districtCode": "S1303",
    "districtName": "Jalgaon",
    "acNumber": 15,
    "acName": "Amalner",
    "partNumber": 270,
    "partName": "Kanhere",
    "lat": 20.8898882,
    "lon": 75.2442455
  },
  {
    "partId": 120781,
    "stateCode": "S13",
    "stateName": "Maharashtra",
    "districtCode": "S1303",
    "districtName": "Jalgaon",
    "acNumber": 15,
    "acName": "Amalner",
    "partNumber": 271,
    "partName": "Bilkhede",
    "lat": 20.8571876,
    "lon": 75.500021
  },
  {
    "partId": 120782,
    "stateCode": "S13",
    "stateName": "Maharashtra",
    "districtCode": "S1303",
    "districtName": "Jalgaon",
    "acNumber": 15,
    "acName": "Amalner",
    "partNumber": 272,
    "partName": "Sadawan Bk.",
    "lat": 21.075780700000003,
    "lon": 75.04286411660418
  },
  {
    "partId": 120783,
    "stateCode": "S13",
    "stateName": "Maharashtra",
    "districtCode": "S1303",
    "districtName": "Jalgaon",
    "acNumber": 15,
    "acName": "Amalner",
    "partNumber": 273,
    "partName": "Sadawan Bk.",
    "lat": 21.075780700000003,
    "lon": 75.04286411660418
  },
  {
    "partId": 120784,
    "stateCode": "S13",
    "stateName": "Maharashtra",
    "districtCode": "S1303",
    "districtName": "Jalgaon",
    "acNumber": 15,
    "acName": "Amalner",
    "partNumber": 274,
    "partName": "Rajwad",
    "lat": 21.075780700000003,
    "lon": 75.04286411660418
  },
  {
    "partId": 120785,
    "stateCode": "S13",
    "stateName": "Maharashtra",
    "districtCode": "S1303",
    "districtName": "Jalgaon",
    "acNumber": 15,
    "acName": "Amalner",
    "partNumber": 275,
    "partName": "Rajwad",
    "lat": 21.075780700000003,
    "lon": 75.04286411660418
  },
  {
    "partId": 120786,
    "stateCode": "S13",
    "stateName": "Maharashtra",
    "districtCode": "S1303",
    "districtName": "Jalgaon",
    "acNumber": 15,
    "acName": "Amalner",
    "partNumber": 276,
    "partName": "Khedi Dhok",
    "lat": 20.9725801,
    "lon": 75.1743793
  },
  {
    "partId": 120787,
    "stateCode": "S13",
    "stateName": "Maharashtra",
    "districtCode": "S1303",
    "districtName": "Jalgaon",
    "acNumber": 15,
    "acName": "Amalner",
    "partNumber": 277,
    "partName": "Chikhlod Khurd",
    "lat": 21.075780700000003,
    "lon": 75.04286411660418
  },
  {
    "partId": 120788,
    "stateCode": "S13",
    "stateName": "Maharashtra",
    "districtCode": "S1303",
    "districtName": "Jalgaon",
    "acNumber": 15,
    "acName": "Amalner",
    "partNumber": 278,
    "partName": "Holpimpri",
    "lat": 20.9522922,
    "lon": 75.1007795
  },
  {
    "partId": 120789,
    "stateCode": "S13",
    "stateName": "Maharashtra",
    "districtCode": "S1303",
    "districtName": "Jalgaon",
    "acNumber": 15,
    "acName": "Amalner",
    "partNumber": 279,
    "partName": "Dabapimpri",
    "lat": 21.075780700000003,
    "lon": 75.04286411660418
  },
  {
    "partId": 120790,
    "stateCode": "S13",
    "stateName": "Maharashtra",
    "districtCode": "S1303",
    "districtName": "Jalgaon",
    "acNumber": 15,
    "acName": "Amalner",
    "partNumber": 280,
    "partName": "Rathapimpri",
    "lat": 21.075780700000003,
    "lon": 75.04286411660418
  },
  {
    "partId": 120791,
    "stateCode": "S13",
    "stateName": "Maharashtra",
    "districtCode": "S1303",
    "districtName": "Jalgaon",
    "acNumber": 15,
    "acName": "Amalner",
    "partNumber": 281,
    "partName": "Rathapimpri",
    "lat": 21.075780700000003,
    "lon": 75.04286411660418
  },
  {
    "partId": 120792,
    "stateCode": "S13",
    "stateName": "Maharashtra",
    "districtCode": "S1303",
    "districtName": "Jalgaon",
    "acNumber": 15,
    "acName": "Amalner",
    "partNumber": 282,
    "partName": "Kolpimpri",
    "lat": 21.075780700000003,
    "lon": 75.04286411660418
  },
  {
    "partId": 120793,
    "stateCode": "S13",
    "stateName": "Maharashtra",
    "districtCode": "S1303",
    "districtName": "Jalgaon",
    "acNumber": 15,
    "acName": "Amalner",
    "partNumber": 283,
    "partName": "Kolpimpri",
    "lat": 21.075780700000003,
    "lon": 75.04286411660418
  },
  {
    "partId": 120794,
    "stateCode": "S13",
    "stateName": "Maharashtra",
    "districtCode": "S1303",
    "districtName": "Jalgaon",
    "acNumber": 15,
    "acName": "Amalner",
    "partNumber": 284,
    "partName": "Bhilali",
    "lat": 20.9565103,
    "lon": 75.0554395
  },
  {
    "partId": 120795,
    "stateCode": "S13",
    "stateName": "Maharashtra",
    "districtCode": "S1303",
    "districtName": "Jalgaon",
    "acNumber": 15,
    "acName": "Amalner",
    "partNumber": 285,
    "partName": "Bhilali",
    "lat": 21.075780700000003,
    "lon": 75.04286411660418
  },
  {
    "partId": 120796,
    "stateCode": "S13",
    "stateName": "Maharashtra",
    "districtCode": "S1303",
    "districtName": "Jalgaon",
    "acNumber": 15,
    "acName": "Amalner",
    "partNumber": 286,
    "partName": "Ambapimpri",
    "lat": 20.954817,
    "lon": 75.0400919
  },
  {
    "partId": 120797,
    "stateCode": "S13",
    "stateName": "Maharashtra",
    "districtCode": "S1303",
    "districtName": "Jalgaon",
    "acNumber": 15,
    "acName": "Amalner",
    "partNumber": 287,
    "partName": "Ambaprimpri",
    "lat": 21.075780700000003,
    "lon": 75.04286411660418
  },
  {
    "partId": 120798,
    "stateCode": "S13",
    "stateName": "Maharashtra",
    "districtCode": "S1303",
    "districtName": "Jalgaon",
    "acNumber": 15,
    "acName": "Amalner",
    "partNumber": 288,
    "partName": "Sumthane",
    "lat": 20.958434,
    "lon": 75.0067305
  },
  {
    "partId": 120799,
    "stateCode": "S13",
    "stateName": "Maharashtra",
    "districtCode": "S1303",
    "districtName": "Jalgaon",
    "acNumber": 15,
    "acName": "Amalner",
    "partNumber": 289,
    "partName": "Indhave",
    "lat": 20.9403485,
    "lon": 75.0013554
  },
  {
    "partId": 120800,
    "stateCode": "S13",
    "stateName": "Maharashtra",
    "districtCode": "S1303",
    "districtName": "Jalgaon",
    "acNumber": 15,
    "acName": "Amalner",
    "partNumber": 290,
    "partName": "Jirali",
    "lat": 20.9390158,
    "lon": 75.0056362
  },
  {
    "partId": 120801,
    "stateCode": "S13",
    "stateName": "Maharashtra",
    "districtCode": "S1303",
    "districtName": "Jalgaon",
    "acNumber": 15,
    "acName": "Amalner",
    "partNumber": 291,
    "partName": "Pimpalkothe",
    "lat": 20.9572717,
    "lon": 75.4546809
  },
  {
    "partId": 120802,
    "stateCode": "S13",
    "stateName": "Maharashtra",
    "districtCode": "S1303",
    "districtName": "Jalgaon",
    "acNumber": 15,
    "acName": "Amalner",
    "partNumber": 292,
    "partName": "Bholane",
    "lat": 21.1073124,
    "lon": 75.6346786
  },
  {
    "partId": 120803,
    "stateCode": "S13",
    "stateName": "Maharashtra",
    "districtCode": "S1303",
    "districtName": "Jalgaon",
    "acNumber": 15,
    "acName": "Amalner",
    "partNumber": 293,
    "partName": "Vasantnagar",
    "lat": 20.605667,
    "lon": 75.9450102
  },
  {
    "partId": 120804,
    "stateCode": "S13",
    "stateName": "Maharashtra",
    "districtCode": "S1303",
    "districtName": "Jalgaon",
    "acNumber": 15,
    "acName": "Amalner",
    "partNumber": 294,
    "partName": "Vasantnagar",
    "lat": 20.605667,
    "lon": 75.9450102
  },
  {
    "partId": 120805,
    "stateCode": "S13",
    "stateName": "Maharashtra",
    "districtCode": "S1303",
    "districtName": "Jalgaon",
    "acNumber": 15,
    "acName": "Amalner",
    "partNumber": 295,
    "partName": "Vasantnagar",
    "lat": 20.605667,
    "lon": 75.9450102
  },
  {
    "partId": 120806,
    "stateCode": "S13",
    "stateName": "Maharashtra",
    "districtCode": "S1303",
    "districtName": "Jalgaon",
    "acNumber": 15,
    "acName": "Amalner",
    "partNumber": 296,
    "partName": "Bahadarpur",
    "lat": 21.05122660511182,
    "lon": 75.11160403788386
  },
  {
    "partId": 120807,
    "stateCode": "S13",
    "stateName": "Maharashtra",
    "districtCode": "S1303",
    "districtName": "Jalgaon",
    "acNumber": 15,
    "acName": "Amalner",
    "partNumber": 297,
    "partName": "Bahadarpur",
    "lat": 20.9133817,
    "lon": 75.0413203
  },
  {
    "partId": 120808,
    "stateCode": "S13",
    "stateName": "Maharashtra",
    "districtCode": "S1303",
    "districtName": "Jalgaon",
    "acNumber": 15,
    "acName": "Amalner",
    "partNumber": 298,
    "partName": "Bahadarpur",
    "lat": 20.9133817,
    "lon": 75.0413203
  },
  {
    "partId": 120809,
    "stateCode": "S13",
    "stateName": "Maharashtra",
    "districtCode": "S1303",
    "districtName": "Jalgaon",
    "acNumber": 15,
    "acName": "Amalner",
    "partNumber": 299,
    "partName": "Shirsode",
    "lat": 20.9083104,
    "lon": 75.0393033
  },
  {
    "partId": 120810,
    "stateCode": "S13",
    "stateName": "Maharashtra",
    "districtCode": "S1303",
    "districtName": "Jalgaon",
    "acNumber": 15,
    "acName": "Amalner",
    "partNumber": 300,
    "partName": "Shirsode",
    "lat": 20.9083104,
    "lon": 75.0393033
  },
  {
    "partId": 120811,
    "stateCode": "S13",
    "stateName": "Maharashtra",
    "districtCode": "S1303",
    "districtName": "Jalgaon",
    "acNumber": 15,
    "acName": "Amalner",
    "partNumber": 301,
    "partName": "Shirsode",
    "lat": 20.9083104,
    "lon": 75.0393033
  },
  {
    "partId": 120812,
    "stateCode": "S13",
    "stateName": "Maharashtra",
    "districtCode": "S1303",
    "districtName": "Jalgaon",
    "acNumber": 15,
    "acName": "Amalner",
    "partNumber": 302,
    "partName": "Mahalpur",
    "lat": 20.9133416,
    "lon": 75.0463843
  },
  {
    "partId": 120813,
    "stateCode": "S13",
    "stateName": "Maharashtra",
    "districtCode": "S1303",
    "districtName": "Jalgaon",
    "acNumber": 15,
    "acName": "Amalner",
    "partNumber": 303,
    "partName": "Mahalpur",
    "lat": 20.9133416,
    "lon": 75.0463843
  },
  {
    "partId": 120814,
    "stateCode": "S13",
    "stateName": "Maharashtra",
    "districtCode": "S1303",
    "districtName": "Jalgaon",
    "acNumber": 15,
    "acName": "Amalner",
    "partNumber": 304,
    "partName": "Kankraj",
    "lat": 20.9292157,
    "lon": 75.0733566
  },
  {
    "partId": 120815,
    "stateCode": "S13",
    "stateName": "Maharashtra",
    "districtCode": "S1303",
    "districtName": "Jalgaon",
    "acNumber": 15,
    "acName": "Amalner",
    "partNumber": 305,
    "partName": "Kankraj",
    "lat": 20.9292157,
    "lon": 75.0733566
  },
  {
    "partId": 120816,
    "stateCode": "S13",
    "stateName": "Maharashtra",
    "districtCode": "S1303",
    "districtName": "Jalgaon",
    "acNumber": 15,
    "acName": "Amalner",
    "partNumber": 306,
    "partName": "Shelawe Bk.",
    "lat": 21.075780700000003,
    "lon": 75.04286411660418
  },
  {
    "partId": 120817,
    "stateCode": "S13",
    "stateName": "Maharashtra",
    "districtCode": "S1303",
    "districtName": "Jalgaon",
    "acNumber": 15,
    "acName": "Amalner",
    "partNumber": 307,
    "partName": "Shelawe Bk.",
    "lat": 21.05122660511182,
    "lon": 75.11160403788386
  },
  {
    "partId": 120818,
    "stateCode": "S13",
    "stateName": "Maharashtra",
    "districtCode": "S1303",
    "districtName": "Jalgaon",
    "acNumber": 15,
    "acName": "Amalner",
    "partNumber": 308,
    "partName": "Shelawe Kh.",
    "lat": 21.075780700000003,
    "lon": 75.04286411660418
  },
  {
    "partId": 145494,
    "stateCode": "S13",
    "stateName": "Maharashtra",
    "districtCode": "S1303",
    "districtName": "Jalgaon",
    "acNumber": 15,
    "acName": "Amalner",
    "partNumber": 309,
    "partName": "Shelawe Khurd",
    "lat": 21.075780700000003,
    "lon": 75.04286411660418
  },
  {
    "partId": 120819,
    "stateCode": "S13",
    "stateName": "Maharashtra",
    "districtCode": "S1303",
    "districtName": "Jalgaon",
    "acNumber": 15,
    "acName": "Amalner",
    "partNumber": 310,
    "partName": "Mohadi",
    "lat": 20.9643851,
    "lon": 75.5345571
  },
  {
    "partId": 120820,
    "stateCode": "S13",
    "stateName": "Maharashtra",
    "districtCode": "S1303",
    "districtName": "Jalgaon",
    "acNumber": 15,
    "acName": "Amalner",
    "partNumber": 311,
    "partName": "Sabgwhan Pr. A.",
    "lat": 21.075780700000003,
    "lon": 75.04286411660418
  },
  {
    "partId": 120821,
    "stateCode": "S13",
    "stateName": "Maharashtra",
    "districtCode": "S1303",
    "districtName": "Jalgaon",
    "acNumber": 15,
    "acName": "Amalner",
    "partNumber": 312,
    "partName": "Sabgwhan Pr. A.",
    "lat": 21.075780700000003,
    "lon": 75.04286411660418
  },
  {
    "partId": 120822,
    "stateCode": "S13",
    "stateName": "Maharashtra",
    "districtCode": "S1303",
    "districtName": "Jalgaon",
    "acNumber": 15,
    "acName": "Amalner",
    "partNumber": 313,
    "partName": "Hirapur",
    "lat": 20.9127002,
    "lon": 75.1657748
  },
  {
    "partId": 145497,
    "stateCode": "S13",
    "stateName": "Maharashtra",
    "districtCode": "S1303",
    "districtName": "Jalgaon",
    "acNumber": 15,
    "acName": "Amalner",
    "partNumber": 314,
    "partName": "Hirapur",
    "lat": 20.9127002,
    "lon": 75.1657748
  },
  {
    "partId": 120823,
    "stateCode": "S13",
    "stateName": "Maharashtra",
    "districtCode": "S1303",
    "districtName": "Jalgaon",
    "acNumber": 15,
    "acName": "Amalner",
    "partNumber": 315,
    "partName": "Dhabe",
    "lat": 21.1303013,
    "lon": 76.1015868
  },
  {
    "partId": 120824,
    "stateCode": "S13",
    "stateName": "Maharashtra",
    "districtCode": "S1303",
    "districtName": "Jalgaon",
    "acNumber": 15,
    "acName": "Amalner",
    "partNumber": 316,
    "partName": "Bhokarbari",
    "lat": 20.919946,
    "lon": 75.1123881
  },
  {
    "partId": 120825,
    "stateCode": "S13",
    "stateName": "Maharashtra",
    "districtCode": "S1303",
    "districtName": "Jalgaon",
    "acNumber": 15,
    "acName": "Amalner",
    "partNumber": 317,
    "partName": "Shewge Bk.",
    "lat": 21.075780700000003,
    "lon": 75.04286411660418
  },
  {
    "partId": 120826,
    "stateCode": "S13",
    "stateName": "Maharashtra",
    "districtCode": "S1303",
    "districtName": "Jalgaon",
    "acNumber": 15,
    "acName": "Amalner",
    "partNumber": 318,
    "partName": "Shewge Bk.",
    "lat": 21.075780700000003,
    "lon": 75.04286411660418
  },
  {
    "partId": 120827,
    "stateCode": "S13",
    "stateName": "Maharashtra",
    "districtCode": "S1303",
    "districtName": "Jalgaon",
    "acNumber": 15,
    "acName": "Amalner",
    "partNumber": 319,
    "partName": "Bodarde",
    "lat": 20.6314589,
    "lon": 75.1585865
  },
  {
    "partId": 120828,
    "stateCode": "S13",
    "stateName": "Maharashtra",
    "districtCode": "S1303",
    "districtName": "Jalgaon",
    "acNumber": 15,
    "acName": "Amalner",
    "partNumber": 320,
    "partName": "Vanjari kh.",
    "lat": 20.9004126,
    "lon": 75.117774
  },
  {
    "partId": 120829,
    "stateCode": "S13",
    "stateName": "Maharashtra",
    "districtCode": "S1303",
    "districtName": "Jalgaon",
    "acNumber": 15,
    "acName": "Amalner",
    "partNumber": 321,
    "partName": "Sabgawhan KH",
    "lat": 21.075780700000003,
    "lon": 75.04286411660418
  },
  {
    "partId": 120830,
    "stateCode": "S13",
    "stateName": "Maharashtra",
    "districtCode": "S1303",
    "districtName": "Jalgaon",
    "acNumber": 15,
    "acName": "Amalner",
    "partNumber": 322,
    "partName": "Dalwel",
    "lat": 20.8601753,
    "lon": 74.9956369
  },
  {
    "partId": 120831,
    "stateCode": "S13",
    "stateName": "Maharashtra",
    "districtCode": "S1303",
    "districtName": "Jalgaon",
    "acNumber": 15,
    "acName": "Amalner",
    "partNumber": 323,
    "partName": "Dalwel",
    "lat": 20.8601753,
    "lon": 74.9956369
  },
  {
    "partId": 120832,
    "stateCode": "S13",
    "stateName": "Maharashtra",
    "districtCode": "S1303",
    "districtName": "Jalgaon",
    "acNumber": 15,
    "acName": "Amalner",
    "partNumber": 324,
    "partName": "Hiverkhede Tanda",
    "lat": 21.075780700000003,
    "lon": 75.04286411660418
  },
  {
    "partId": 120833,
    "stateCode": "S13",
    "stateName": "Maharashtra",
    "districtCode": "S1303",
    "districtName": "Jalgaon",
    "acNumber": 15,
    "acName": "Amalner",
    "partNumber": 325,
    "partName": "Hiverkhede Kh.",
    "lat": 21.075780700000003,
    "lon": 75.04286411660418
  },
  {
    "partId": 177652,
    "stateCode": "S13",
    "stateName": "Maharashtra",
    "districtCode": "S1303",
    "districtName": "Jalgaon",
    "acNumber": 12,
    "acName": "Bhusawal (SC)",
    "partNumber": 1,
    "partName": "BHANKHEDE",
    "lat": 20.99603906693227,
    "lon": 75.83136143701529
  },
  {
    "partId": 177653,
    "stateCode": "S13",
    "stateName": "Maharashtra",
    "districtCode": "S1303",
    "districtName": "Jalgaon",
    "acNumber": 12,
    "acName": "Bhusawal (SC)",
    "partNumber": 2,
    "partName": "JOGALKHEDE",
    "lat": 20.99603906693227,
    "lon": 75.83136143701529
  },
  {
    "partId": 177654,
    "stateCode": "S13",
    "stateName": "Maharashtra",
    "districtCode": "S1303",
    "districtName": "Jalgaon",
    "acNumber": 12,
    "acName": "Bhusawal (SC)",
    "partNumber": 3,
    "partName": "SAKEGAON",
    "lat": 21.0418991,
    "lon": 75.7373536
  },
  {
    "partId": 177655,
    "stateCode": "S13",
    "stateName": "Maharashtra",
    "districtCode": "S1303",
    "districtName": "Jalgaon",
    "acNumber": 12,
    "acName": "Bhusawal (SC)",
    "partNumber": 4,
    "partName": "SAKEGAON",
    "lat": 21.0418991,
    "lon": 75.7373536
  },
  {
    "partId": 177656,
    "stateCode": "S13",
    "stateName": "Maharashtra",
    "districtCode": "S1303",
    "districtName": "Jalgaon",
    "acNumber": 12,
    "acName": "Bhusawal (SC)",
    "partNumber": 5,
    "partName": "SAKEGAON",
    "lat": 21.0418991,
    "lon": 75.7373536
  },
  {
    "partId": 177657,
    "stateCode": "S13",
    "stateName": "Maharashtra",
    "districtCode": "S1303",
    "districtName": "Jalgaon",
    "acNumber": 12,
    "acName": "Bhusawal (SC)",
    "partNumber": 6,
    "partName": "SAKEGAON",
    "lat": 21.0418991,
    "lon": 75.7373536
  },
  {
    "partId": 177658,
    "stateCode": "S13",
    "stateName": "Maharashtra",
    "districtCode": "S1303",
    "districtName": "Jalgaon",
    "acNumber": 12,
    "acName": "Bhusawal (SC)",
    "partNumber": 7,
    "partName": "SAKEGAON",
    "lat": 21.0418991,
    "lon": 75.7373536
  },
  {
    "partId": 177659,
    "stateCode": "S13",
    "stateName": "Maharashtra",
    "districtCode": "S1303",
    "districtName": "Jalgaon",
    "acNumber": 12,
    "acName": "Bhusawal (SC)",
    "partNumber": 8,
    "partName": "SAKEGAON",
    "lat": 21.0418991,
    "lon": 75.7373536
  },
  {
    "partId": 177660,
    "stateCode": "S13",
    "stateName": "Maharashtra",
    "districtCode": "S1303",
    "districtName": "Jalgaon",
    "acNumber": 12,
    "acName": "Bhusawal (SC)",
    "partNumber": 9,
    "partName": "BHUSAWAL",
    "lat": 20.9946183,
    "lon": 75.83962967509835
  },
  {
    "partId": 177661,
    "stateCode": "S13",
    "stateName": "Maharashtra",
    "districtCode": "S1303",
    "districtName": "Jalgaon",
    "acNumber": 12,
    "acName": "Bhusawal (SC)",
    "partNumber": 10,
    "partName": "BHUSAWAL",
    "lat": 20.9946183,
    "lon": 75.83962967509835
  },
  {
    "partId": 177662,
    "stateCode": "S13",
    "stateName": "Maharashtra",
    "districtCode": "S1303",
    "districtName": "Jalgaon",
    "acNumber": 12,
    "acName": "Bhusawal (SC)",
    "partNumber": 11,
    "partName": "BHUSAWAL",
    "lat": 20.9946183,
    "lon": 75.83962967509835
  },
  {
    "partId": 177663,
    "stateCode": "S13",
    "stateName": "Maharashtra",
    "districtCode": "S1303",
    "districtName": "Jalgaon",
    "acNumber": 12,
    "acName": "Bhusawal (SC)",
    "partNumber": 12,
    "partName": "BHUSAWAL",
    "lat": 20.9946183,
    "lon": 75.83962967509835
  },
  {
    "partId": 177664,
    "stateCode": "S13",
    "stateName": "Maharashtra",
    "districtCode": "S1303",
    "districtName": "Jalgaon",
    "acNumber": 12,
    "acName": "Bhusawal (SC)",
    "partNumber": 13,
    "partName": "BHUSAWAL",
    "lat": 20.9946183,
    "lon": 75.83962967509835
  },