[
  {
    "partId": 109598,
    "stateCode": "S13",
    "stateName": "Maharashtra",
    "districtCode": "S1317",
    "districtName": "Parbhani",
    "acNumber": 97,
    "acName": "Gangakhed",
    "partNumber": 1,
    "partName": "Dhrasur",
    "lat": 18.91309975,
    "lon": 76.75570683410183
  },
  {
    "partId": 109599,
    "stateCode": "S13",
    "stateName": "Maharashtra",
    "districtCode": "S1317",
    "districtName": "Parbhani",
    "acNumber": 97,
    "acName": "Gangakhed",
    "partNumber": 2,
    "partName": "Dharasur",
    "lat": 19.0533526,
    "lon": 76.6478997
  },
  {
    "partId": 109600,
    "stateCode": "S13",
    "stateName": "Maharashtra",
    "districtCode": "S1317",
    "districtName": "Parbhani",
    "acNumber": 97,
    "acName": "Gangakhed",
    "partNumber": 3,
    "partName": "Dharasur",
    "lat": 19.0533526,
    "lon": 76.6478997
  },
  {
    "partId": 109601,
    "stateCode": "S13",
    "stateName": "Maharashtra",
    "districtCode": "S1317",
    "districtName": "Parbhani",
    "acNumber": 97,
    "acName": "Gangakhed",
    "partNumber": 4,
    "partName": "Rumana",
    "lat": 18.91309975,
    "lon": 76.75570683410183
  },
  {
    "partId": 109602,
    "stateCode": "S13",
    "stateName": "Maharashtra",
    "districtCode": "S1317",
    "districtName": "Parbhani",
    "acNumber": 97,
    "acName": "Gangakhed",
    "partNumber": 5,
    "partName": "Rumna(j)",
    "lat": 19.0573416,
    "lon": 76.7220622
  },
  {
    "partId": 109603,
    "stateCode": "S13",
    "stateName": "Maharashtra",
    "districtCode": "S1317",
    "districtName": "Parbhani",
    "acNumber": 97,
    "acName": "Gangakhed",
    "partNumber": 6,
    "partName": "Javala Rumana",
    "lat": 18.91309975,
    "lon": 76.75570683410183
  },
  {
    "partId": 109604,
    "stateCode": "S13",
    "stateName": "Maharashtra",
    "districtCode": "S1317",
    "districtName": "Parbhani",
    "acNumber": 97,
    "acName": "Gangakhed",
    "partNumber": 7,
    "partName": "Sayala Sunegav",
    "lat": 18.91309975,
    "lon": 76.75570683410183
  },
  {
    "partId": 109605,
    "stateCode": "S13",
    "stateName": "Maharashtra",
    "districtCode": "S1317",
    "districtName": "Parbhani",
    "acNumber": 97,
    "acName": "Gangakhed",
    "partNumber": 8,
    "partName": "Sayala Sunegav",
    "lat": 18.91309975,
    "lon": 76.75570683410183
  },
  {
    "partId": 109606,
    "stateCode": "S13",
    "stateName": "Maharashtra",
    "districtCode": "S1317",
    "districtName": "Parbhani",
    "acNumber": 97,
    "acName": "Gangakhed",
    "partNumber": 9,
    "partName": "Muli",
    "lat": 19.0105149,
    "lon": 76.7522263
  },
  {
    "partId": 109607,
    "stateCode": "S13",
    "stateName": "Maharashtra",
    "districtCode": "S1317",
    "districtName": "Parbhani",
    "acNumber": 97,
    "acName": "Gangakhed",
    "partNumber": 10,
    "partName": "Muli",
    "lat": 19.0105149,
    "lon": 76.7522263
  },
  {
    "partId": 109608,
    "stateCode": "S13",
    "stateName": "Maharashtra",
    "districtCode": "S1317",
    "districtName": "Parbhani",
    "acNumber": 97,
    "acName": "Gangakhed",
    "partNumber": 11,
    "partName": "Dharkhed",
    "lat": 18.91309975,
    "lon": 76.75570683410183
  },
  {
    "partId": 109609,
    "stateCode": "S13",
    "stateName": "Maharashtra",
    "districtCode": "S1317",
    "districtName": "Parbhani",
    "acNumber": 97,
    "acName": "Gangakhed",
    "partNumber": 12,
    "partName": "Nagathana",
    "lat": 18.91309975,
    "lon": 76.75570683410183
  },
  {
    "partId": 109610,
    "stateCode": "S13",
    "stateName": "Maharashtra",
    "districtCode": "S1317",
    "districtName": "Parbhani",
    "acNumber": 97,
    "acName": "Gangakhed",
    "partNumber": 13,
    "partName": "Masla",
    "lat": 19.0508007,
    "lon": 76.8061817
  },
  {
    "partId": 109611,
    "stateCode": "S13",
    "stateName": "Maharashtra",
    "districtCode": "S1317",
    "districtName": "Parbhani",
    "acNumber": 97,
    "acName": "Gangakhed",
    "partNumber": 14,
    "partName": "Masla",
    "lat": 19.0508007,
    "lon": 76.8061817
  },
  {
    "partId": 109612,
    "stateCode": "S13",
    "stateName": "Maharashtra",
    "districtCode": "S1317",
    "districtName": "Parbhani",
    "acNumber": 97,
    "acName": "Gangakhed",
    "partNumber": 15,
    "partName": "Savagi Bhu.",
    "lat": 18.91309975,
    "lon": 76.75570683410183
  },
  {
    "partId": 109613,
    "stateCode": "S13",
    "stateName": "Maharashtra",
    "districtCode": "S1317",
    "districtName": "Parbhani",
    "acNumber": 97,
    "acName": "Gangakhed",
    "partNumber": 16,
    "partName": "Ravrajur",
    "lat": 18.91309975,
    "lon": 76.75570683410183
  },
  {
    "partId": 109614,
    "stateCode": "S13",
    "stateName": "Maharashtra",
    "districtCode": "S1317",
    "districtName": "Parbhani",
    "acNumber": 97,
    "acName": "Gangakhed",
    "partNumber": 17,
    "partName": "Ravrajur",
    "lat": 18.91309975,
    "lon": 76.75570683410183
  },
  {
    "partId": 109615,
    "stateCode": "S13",
    "stateName": "Maharashtra",
    "districtCode": "S1317",
    "districtName": "Parbhani",
    "acNumber": 97,
    "acName": "Gangakhed",
    "partNumber": 18,
    "partName": "Ravrajur",
    "lat": 18.91309975,
    "lon": 76.75570683410183
  },
  {
    "partId": 109616,
    "stateCode": "S13",
    "stateName": "Maharashtra",
    "districtCode": "S1317",
    "districtName": "Parbhani",
    "acNumber": 97,
    "acName": "Gangakhed",
    "partNumber": 19,
    "partName": "Dhanevadi",
    "lat": 18.91309975,
    "lon": 76.75570683410183
  },
  {
    "partId": 109617,
    "stateCode": "S13",
    "stateName": "Maharashtra",
    "districtCode": "S1317",
    "districtName": "Parbhani",
    "acNumber": 97,
    "acName": "Gangakhed",
    "partNumber": 20,
    "partName": "Khuralevadi",
    "lat": 18.91309975,
    "lon": 76.75570683410183
  },
  {
    "partId": 109618,
    "stateCode": "S13",
    "stateName": "Maharashtra",
    "districtCode": "S1317",
    "districtName": "Parbhani",
    "acNumber": 97,
    "acName": "Gangakhed",
    "partNumber": 21,
    "partName": "Kharbada",
    "lat": 19.0552628,
    "lon": 76.8108004
  },
  {
    "partId": 109619,
    "stateCode": "S13",
    "stateName": "Maharashtra",
    "districtCode": "S1317",
    "districtName": "Parbhani",
    "acNumber": 97,
    "acName": "Gangakhed",
    "partNumber": 22,
    "partName": "Wazur",
    "lat": 19.8164623,
    "lon": 76.5404391
  },
  {
    "partId": 109620,
    "stateCode": "S13",
    "stateName": "Maharashtra",
    "districtCode": "S1317",
    "districtName": "Parbhani",
    "acNumber": 97,
    "acName": "Gangakhed",
    "partNumber": 23,
    "partName": "Wazur",
    "lat": 19.8164623,
    "lon": 76.5404391
  },
  {
    "partId": 109621,
    "stateCode": "S13",
    "stateName": "Maharashtra",
    "districtCode": "S1317",
    "districtName": "Parbhani",
    "acNumber": 97,
    "acName": "Gangakhed",
    "partNumber": 24,
    "partName": "Wazur",
    "lat": 19.8164623,
    "lon": 76.5404391
  },
  {
    "partId": 109622,
    "stateCode": "S13",
    "stateName": "Maharashtra",
    "districtCode": "S1317",
    "districtName": "Parbhani",
    "acNumber": 97,
    "acName": "Gangakhed",
    "partNumber": 25,
    "partName": "Dagadavadi",
    "lat": 18.91309975,
    "lon": 76.75570683410183
  },
  {
    "partId": 109623,
    "stateCode": "S13",
    "stateName": "Maharashtra",
    "districtCode": "S1317",
    "districtName": "Parbhani",
    "acNumber": 97,
    "acName": "Gangakhed",
    "partNumber": 26,
    "partName": "Limla",
    "lat": 19.112098,
    "lon": 76.8493599
  },
  {
    "partId": 109624,
    "stateCode": "S13",
    "stateName": "Maharashtra",
    "districtCode": "S1317",
    "districtName": "Parbhani",
    "acNumber": 97,
    "acName": "Gangakhed",
    "partNumber": 27,
    "partName": "Dastapur",
    "lat": 19.1263304,
    "lon": 76.8420911
  },
  {
    "partId": 109625,
    "stateCode": "S13",
    "stateName": "Maharashtra",
    "districtCode": "S1317",
    "districtName": "Parbhani",
    "acNumber": 97,
    "acName": "Gangakhed",
    "partNumber": 28,
    "partName": "Kamalapur",
    "lat": 18.91309975,
    "lon": 76.75570683410183
  },
  {
    "partId": 109626,
    "stateCode": "S13",
    "stateName": "Maharashtra",
    "districtCode": "S1317",
    "districtName": "Parbhani",
    "acNumber": 97,
    "acName": "Gangakhed",
    "partNumber": 29,
    "partName": "Makhani",
    "lat": 18.8838478,
    "lon": 76.7203429
  },
  {
    "partId": 109627,
    "stateCode": "S13",
    "stateName": "Maharashtra",
    "districtCode": "S1317",
    "districtName": "Parbhani",
    "acNumber": 97,
    "acName": "Gangakhed",
    "partNumber": 30,
    "partName": "Shirakalas",
    "lat": 18.91309975,
    "lon": 76.75570683410183
  },
  {
    "partId": 109628,
    "stateCode": "S13",
    "stateName": "Maharashtra",
    "districtCode": "S1317",
    "districtName": "Parbhani",
    "acNumber": 97,
    "acName": "Gangakhed",
    "partNumber": 31,
    "partName": "Balasa Bu.",
    "lat": 18.91309975,
    "lon": 76.75570683410183
  },
  {
    "partId": 109629,
    "stateCode": "S13",
    "stateName": "Maharashtra",
    "districtCode": "S1317",
    "districtName": "Parbhani",
    "acNumber": 97,
    "acName": "Gangakhed",
    "partNumber": 32,
    "partName": "Ismailapur",
    "lat": 18.91309975,
    "lon": 76.75570683410183
  },
  {
    "partId": 109630,
    "stateCode": "S13",
    "stateName": "Maharashtra",
    "districtCode": "S1317",
    "districtName": "Parbhani",
    "acNumber": 97,
    "acName": "Gangakhed",
    "partNumber": 33,
    "partName": "Ganpur",
    "lat": 19.1964607,
    "lon": 76.9520241
  },
  {
    "partId": 109631,
    "stateCode": "S13",
    "stateName": "Maharashtra",
    "districtCode": "S1317",
    "districtName": "Parbhani",
    "acNumber": 97,
    "acName": "Gangakhed",
    "partNumber": 34,
    "partName": "Suki",
    "lat": 19.2206042,
    "lon": 76.9563907
  },
  {
    "partId": 109632,
    "stateCode": "S13",
    "stateName": "Maharashtra",
    "districtCode": "S1317",
    "districtName": "Parbhani",
    "acNumber": 97,
    "acName": "Gangakhed",
    "partNumber": 35,
    "partName": "Pimpalaganv Balapur",
    "lat": 18.91309975,
    "lon": 76.75570683410183
  },
  {
    "partId": 109633,
    "stateCode": "S13",
    "stateName": "Maharashtra",
    "districtCode": "S1317",
    "districtName": "Parbhani",
    "acNumber": 97,
    "acName": "Gangakhed",
    "partNumber": 36,
    "partName": "Pimpalaganv Balapur",
    "lat": 18.91309975,
    "lon": 76.75570683410183
  },
  {
    "partId": 109634,
    "stateCode": "S13",
    "stateName": "Maharashtra",
    "districtCode": "S1317",
    "districtName": "Parbhani",
    "acNumber": 97,
    "acName": "Gangakhed",
    "partNumber": 37,
    "partName": "Laxman Nagar",
    "lat": 18.91309975,
    "lon": 76.75570683410183
  },
  {
    "partId": 109635,
    "stateCode": "S13",
    "stateName": "Maharashtra",
    "districtCode": "S1317",
    "districtName": "Parbhani",
    "acNumber": 97,
    "acName": "Gangakhed",
    "partNumber": 38,
    "partName": "Katneshvar",
    "lat": 18.91309975,
    "lon": 76.75570683410183
  },
  {
    "partId": 109636,
    "stateCode": "S13",
    "stateName": "Maharashtra",
    "districtCode": "S1317",
    "districtName": "Parbhani",
    "acNumber": 97,
    "acName": "Gangakhed",
    "partNumber": 39,
    "partName": "Katneshvar",
    "lat": 18.91309975,
    "lon": 76.75570683410183
  },
  {
    "partId": 109637,
    "stateCode": "S13",
    "stateName": "Maharashtra",
    "districtCode": "S1317",
    "districtName": "Parbhani",
    "acNumber": 97,
    "acName": "Gangakhed",
    "partNumber": 40,
    "partName": "Katneshvar",
    "lat": 18.91309975,
    "lon": 76.75570683410183
  },
  {
    "partId": 109638,
    "stateCode": "S13",
    "stateName": "Maharashtra",
    "districtCode": "S1317",
    "districtName": "Parbhani",
    "acNumber": 97,
    "acName": "Gangakhed",
    "partNumber": 41,
    "partName": "Erandeshwar",
    "lat": 18.91309975,
    "lon": 76.75570683410183
  },
  {
    "partId": 109639,
    "stateCode": "S13",
    "stateName": "Maharashtra",
    "districtCode": "S1317",
    "districtName": "Parbhani",
    "acNumber": 97,
    "acName": "Gangakhed",
    "partNumber": 42,
    "partName": "Erandeshwar",
    "lat": 18.91309975,
    "lon": 76.75570683410183
  },
  {
    "partId": 109640,
    "stateCode": "S13",
    "stateName": "Maharashtra",
    "districtCode": "S1317",
    "districtName": "Parbhani",
    "acNumber": 97,
    "acName": "Gangakhed",
    "partNumber": 43,
    "partName": "Erandeshwar",
    "lat": 18.91309975,
    "lon": 76.75570683410183
  },
  {
    "partId": 109641,
    "stateCode": "S13",
    "stateName": "Maharashtra",
    "districtCode": "S1317",
    "districtName": "Parbhani",
    "acNumber": 97,
    "acName": "Gangakhed",
    "partNumber": 44,
    "partName": "Erandeshwar",
    "lat": 18.91309975,
    "lon": 76.75570683410183
  },
  {
    "partId": 109642,
    "stateCode": "S13",
    "stateName": "Maharashtra",
    "districtCode": "S1317",
    "districtName": "Parbhani",
    "acNumber": 97,
    "acName": "Gangakhed",
    "partNumber": 45,
    "partName": "Aherwadi",
    "lat": 19.2621669,
    "lon": 76.9932722
  },
  {
    "partId": 109643,
    "stateCode": "S13",
    "stateName": "Maharashtra",
    "districtCode": "S1317",
    "districtName": "Parbhani",
    "acNumber": 97,
    "acName": "Gangakhed",
    "partNumber": 46,
    "partName": "Aheravadi",
    "lat": 18.91309975,
    "lon": 76.75570683410183
  },
  {
    "partId": 109644,
    "stateCode": "S13",
    "stateName": "Maharashtra",
    "districtCode": "S1317",
    "districtName": "Parbhani",
    "acNumber": 97,
    "acName": "Gangakhed",
    "partNumber": 47,
    "partName": "Aherwadi",
    "lat": 19.2621669,
    "lon": 76.9932722
  },
  {
    "partId": 109645,
    "stateCode": "S13",
    "stateName": "Maharashtra",
    "districtCode": "S1317",
    "districtName": "Parbhani",
    "acNumber": 97,
    "acName": "Gangakhed",
    "partNumber": 48,
    "partName": "Nawaki",
    "lat": 18.91309975,
    "lon": 76.75570683410183
  },
  {
    "partId": 109646,
    "stateCode": "S13",
    "stateName": "Maharashtra",
    "districtCode": "S1317",
    "districtName": "Parbhani",
    "acNumber": 97,
    "acName": "Gangakhed",
    "partNumber": 49,
    "partName": "Nawaki",
    "lat": 18.91309975,
    "lon": 76.75570683410183
  },
  {
    "partId": 109647,
    "stateCode": "S13",
    "stateName": "Maharashtra",
    "districtCode": "S1317",
    "districtName": "Parbhani",
    "acNumber": 97,
    "acName": "Gangakhed",
    "partNumber": 50,
    "partName": "Mategaon",
    "lat": 19.2269105,
    "lon": 77.0031524
  },
  {
    "partId": 109648,
    "stateCode": "S13",
    "stateName": "Maharashtra",
    "districtCode": "S1317",
    "districtName": "Parbhani",
    "acNumber": 97,
    "acName": "Gangakhed",
    "partNumber": 51,
    "partName": "Mategaon",
    "lat": 19.2269105,
    "lon": 77.0031524
  },
  {
    "partId": 109649,
    "stateCode": "S13",
    "stateName": "Maharashtra",
    "districtCode": "S1317",
    "districtName": "Parbhani",
    "acNumber": 97,
    "acName": "Gangakhed",
    "partNumber": 52,
    "partName": "Mamdapur",
    "lat": 19.2098196,
    "lon": 76.9719315
  },
  {
    "partId": 109650,
    "stateCode": "S13",
    "stateName": "Maharashtra",
    "districtCode": "S1317",
    "districtName": "Parbhani",
    "acNumber": 97,
    "acName": "Gangakhed",
    "partNumber": 53,
    "partName": "Kanhegaon",
    "lat": 19.0294419,
    "lon": 76.6147578
  },
  {
    "partId": 109651,
    "stateCode": "S13",
    "stateName": "Maharashtra",
    "districtCode": "S1317",
    "districtName": "Parbhani",
    "acNumber": 97,
    "acName": "Gangakhed",
    "partNumber": 54,
    "partName": "Fukatgaon",
    "lat": 18.91309975,
    "lon": 76.75570683410183
  },
  {
    "partId": 109652,
    "stateCode": "S13",
    "stateName": "Maharashtra",
    "districtCode": "S1317",
    "districtName": "Parbhani",
    "acNumber": 97,
    "acName": "Gangakhed",
    "partNumber": 55,
    "partName": "Khujada",
    "lat": 18.91309975,
    "lon": 76.75570683410183
  },
  {
    "partId": 109653,
    "stateCode": "S13",
    "stateName": "Maharashtra",
    "districtCode": "S1317",
    "districtName": "Parbhani",
    "acNumber": 97,
    "acName": "Gangakhed",
    "partNumber": 56,
    "partName": "Khujada",
    "lat": 18.91309975,
    "lon": 76.75570683410183
  },
  {
    "partId": 109654,
    "stateCode": "S13",
    "stateName": "Maharashtra",
    "districtCode": "S1317",
    "districtName": "Parbhani",
    "acNumber": 97,
    "acName": "Gangakhed",
    "partNumber": 57,
    "partName": "Khambegaon",
    "lat": 19.1741226,
    "lon": 76.9493955
  },
  {
    "partId": 109655,
    "stateCode": "S13",
    "stateName": "Maharashtra",
    "districtCode": "S1317",
    "districtName": "Parbhani",
    "acNumber": 97,
    "acName": "Gangakhed",
    "partNumber": 58,
    "partName": "Tadkalas",
    "lat": 19.131303,
    "lon": 76.9442401
  },
  {
    "partId": 109656,
    "stateCode": "S13",
    "stateName": "Maharashtra",
    "districtCode": "S1317",
    "districtName": "Parbhani",
    "acNumber": 97,
    "acName": "Gangakhed",
    "partNumber": 59,
    "partName": "Tadkalas",
    "lat": 19.131303,
    "lon": 76.9442401
  },
  {
    "partId": 109657,
    "stateCode": "S13",
    "stateName": "Maharashtra",
    "districtCode": "S1317",
    "districtName": "Parbhani",
    "acNumber": 97,
    "acName": "Gangakhed",
    "partNumber": 60,
    "partName": "Tadkalas",
    "lat": 19.131303,
    "lon": 76.9442401
  },
  {
    "partId": 109658,
    "stateCode": "S13",
    "stateName": "Maharashtra",
    "districtCode": "S1317",
    "districtName": "Parbhani",
    "acNumber": 97,
    "acName": "Gangakhed",
    "partNumber": 61,
    "partName": "Tadkalas",
    "lat": 19.131303,
    "lon": 76.9442401
  },
  {
    "partId": 109659,
    "stateCode": "S13",
    "stateName": "Maharashtra",
    "districtCode": "S1317",
    "districtName": "Parbhani",
    "acNumber": 97,
    "acName": "Gangakhed",
    "partNumber": 62,
    "partName": "Tadkalas",
    "lat": 19.131303,
    "lon": 76.9442401
  },
  {
    "partId": 109660,
    "stateCode": "S13",
    "stateName": "Maharashtra",
    "districtCode": "S1317",
    "districtName": "Parbhani",
    "acNumber": 97,
    "acName": "Gangakhed",
    "partNumber": 63,
    "partName": "Phulkalas",
    "lat": 19.1158843,
    "lon": 76.9137436
  },
  {
    "partId": 109661,
    "stateCode": "S13",
    "stateName": "Maharashtra",
    "districtCode": "S1317",
    "districtName": "Parbhani",
    "acNumber": 97,
    "acName": "Gangakhed",
    "partNumber": 64,
    "partName": "Phulkalas",
    "lat": 19.1158843,
    "lon": 76.9137436
  },
  {
    "partId": 109662,
    "stateCode": "S13",
    "stateName": "Maharashtra",
    "districtCode": "S1317",
    "districtName": "Parbhani",
    "acNumber": 97,
    "acName": "Gangakhed",
    "partNumber": 65,
    "partName": "Phulkalas",
    "lat": 19.1158843,
    "lon": 76.9137436
  },
  {
    "partId": 109663,
    "stateCode": "S13",
    "stateName": "Maharashtra",
    "districtCode": "S1317",
    "districtName": "Parbhani",
    "acNumber": 97,
    "acName": "Gangakhed",
    "partNumber": 66,
    "partName": "Khadala",
    "lat": 19.1104558,
    "lon": 76.8850225
  },
  {
    "partId": 109664,
    "stateCode": "S13",
    "stateName": "Maharashtra",
    "districtCode": "S1317",
    "districtName": "Parbhani",
    "acNumber": 97,
    "acName": "Gangakhed",
    "partNumber": 67,
    "partName": "Majlapur",
    "lat": 18.91309975,
    "lon": 76.75570683410183
  },
  {
    "partId": 109665,
    "stateCode": "S13",
    "stateName": "Maharashtra",
    "districtCode": "S1317",
    "districtName": "Parbhani",
    "acNumber": 97,
    "acName": "Gangakhed",
    "partNumber": 68,
    "partName": "Devathana",
    "lat": 18.91309975,
    "lon": 76.75570683410183
  },
  {
    "partId": 109666,
    "stateCode": "S13",
    "stateName": "Maharashtra",
    "districtCode": "S1317",
    "districtName": "Parbhani",
    "acNumber": 97,
    "acName": "Gangakhed",
    "partNumber": 69,
    "partName": "Umarathadi",
    "lat": 18.91309975,
    "lon": 76.75570683410183
  },
  {
    "partId": 109667,
    "stateCode": "S13",
    "stateName": "Maharashtra",
    "districtCode": "S1317",
    "districtName": "Parbhani",
    "acNumber": 97,
    "acName": "Gangakhed",
    "partNumber": 70,
    "partName": "Arakhed",
    "lat": 18.91309975,
    "lon": 76.75570683410183
  },
  {
    "partId": 109668,
    "stateCode": "S13",
    "stateName": "Maharashtra",
    "districtCode": "S1317",
    "districtName": "Parbhani",
    "acNumber": 97,
    "acName": "Gangakhed",
    "partNumber": 71,
    "partName": "Sayala Pa",
    "lat": 18.91309975,
    "lon": 76.75570683410183
  },
  {
    "partId": 109669,
    "stateCode": "S13",
    "stateName": "Maharashtra",
    "districtCode": "S1317",
    "districtName": "Parbhani",
    "acNumber": 97,
    "acName": "Gangakhed",
    "partNumber": 72,
    "partName": "Rokadevadi",
    "lat": 18.91309975,
    "lon": 76.75570683410183
  },
  {
    "partId": 109670,
    "stateCode": "S13",
    "stateName": "Maharashtra",
    "districtCode": "S1317",
    "districtName": "Parbhani",
    "acNumber": 97,
    "acName": "Gangakhed",
    "partNumber": 73,
    "partName": "Iralad",
    "lat": 18.9984841,
    "lon": 76.8303323
  },
  {
    "partId": 109671,
    "stateCode": "S13",
    "stateName": "Maharashtra",
    "districtCode": "S1317",
    "districtName": "Parbhani",
    "acNumber": 97,
    "acName": "Gangakhed",
    "partNumber": 74,
    "partName": "Narlad",
    "lat": 18.9975711,
    "lon": 76.8345165
  },
  {
    "partId": 109672,
    "stateCode": "S13",
    "stateName": "Maharashtra",
    "districtCode": "S1317",
    "districtName": "Parbhani",
    "acNumber": 97,
    "acName": "Gangakhed",
    "partNumber": 75,
    "partName": "Narlad",
    "lat": 18.9975711,
    "lon": 76.8345165
  },
  {
    "partId": 109673,
    "stateCode": "S13",
    "stateName": "Maharashtra",
    "districtCode": "S1317",
    "districtName": "Parbhani",
    "acNumber": 97,
    "acName": "Gangakhed",
    "partNumber": 76,
    "partName": "Gopa",
    "lat": 18.9812986,
    "lon": 76.8319201
  },
  {
    "partId": 109674,
    "stateCode": "S13",
    "stateName": "Maharashtra",
    "districtCode": "S1317",
    "districtName": "Parbhani",
    "acNumber": 97,
    "acName": "Gangakhed",
    "partNumber": 77,
    "partName": "waghalgaon",
    "lat": 19.0847601,
    "lon": 76.493994
  },
  {
    "partId": 109675,
    "stateCode": "S13",
    "stateName": "Maharashtra",
    "districtCode": "S1317",
    "districtName": "Parbhani",
    "acNumber": 97,
    "acName": "Gangakhed",
    "partNumber": 78,
    "partName": "Malewadi",
    "lat": 18.9529498,
    "lon": 76.7978883
  },
  {
    "partId": 109676,
    "stateCode": "S13",
    "stateName": "Maharashtra",
    "districtCode": "S1317",
    "districtName": "Parbhani",
    "acNumber": 97,
    "acName": "Gangakhed",
    "partNumber": 79,
    "partName": "Malewadi",
    "lat": 18.9529498,
    "lon": 76.7978883
  },
  {
    "partId": 109677,
    "stateCode": "S13",
    "stateName": "Maharashtra",
    "districtCode": "S1317",
    "districtName": "Parbhani",
    "acNumber": 97,
    "acName": "Gangakhed",
    "partNumber": 80,
    "partName": "Pimpari",
    "lat": 18.91309975,
    "lon": 76.75570683410183
  },
  {
    "partId": 109678,
    "stateCode": "S13",
    "stateName": "Maharashtra",
    "districtCode": "S1317",
    "districtName": "Parbhani",
    "acNumber": 97,
    "acName": "Gangakhed",
    "partNumber": 81,
    "partName": "Pimpari",
    "lat": 18.91309975,
    "lon": 76.75570683410183
  },
  {
    "partId": 109679,
    "stateCode": "S13",
    "stateName": "Maharashtra",
    "districtCode": "S1317",
    "districtName": "Parbhani",
    "acNumber": 97,
    "acName": "Gangakhed",
    "partNumber": 82,
    "partName": "Zola",
    "lat": 18.9931277,
    "lon": 76.7811727
  },
  {
    "partId": 109680,
    "stateCode": "S13",
    "stateName": "Maharashtra",
    "districtCode": "S1317",
    "districtName": "Parbhani",
    "acNumber": 97,
    "acName": "Gangakhed",
    "partNumber": 83,
    "partName": "Zola",
    "lat": 18.9931277,
    "lon": 76.7811727
  },
  {
    "partId": 109681,
    "stateCode": "S13",
    "stateName": "Maharashtra",
    "districtCode": "S1317",
    "districtName": "Parbhani",
    "acNumber": 97,
    "acName": "Gangakhed",
    "partNumber": 84,
    "partName": "Gangakhed",
    "lat": 18.91309975,
    "lon": 76.75570683410183
  },
  {
    "partId": 109682,
    "stateCode": "S13",
    "stateName": "Maharashtra",
    "districtCode": "S1317",
    "districtName": "Parbhani",
    "acNumber": 97,
    "acName": "Gangakhed",
    "partNumber": 85,
    "partName": "Gangakhed",
    "lat": 18.91309975,
    "lon": 76.75570683410183
  },
  {
    "partId": 109683,
    "stateCode": "S13",
    "stateName": "Maharashtra",
    "districtCode": "S1317",
    "districtName": "Parbhani",
    "acNumber": 97,
    "acName": "Gangakhed",
    "partNumber": 86,
    "partName": "Gangakhed",
    "lat": 18.91309975,
    "lon": 76.75570683410183
  },
  {
    "partId": 109684,
    "stateCode": "S13",
    "stateName": "Maharashtra",
    "districtCode": "S1317",
    "districtName": "Parbhani",
    "acNumber": 97,
    "acName": "Gangakhed",
    "partNumber": 87,
    "partName": "Gangakhed",
    "lat": 18.91309975,
    "lon": 76.75570683410183
  },
  {
    "partId": 109685,
    "stateCode": "S13",
    "stateName": "Maharashtra",
    "districtCode": "S1317",
    "districtName": "Parbhani",
    "acNumber": 97,
    "acName": "Gangakhed",
    "partNumber": 88,
    "partName": "Gangakhed",
    "lat": 18.91309975,
    "lon": 76.75570683410183
  },
  {
    "partId": 109686,
    "stateCode": "S13",
    "stateName": "Maharashtra",
    "districtCode": "S1317",
    "districtName": "Parbhani",
    "acNumber": 97,
    "acName": "Gangakhed",
    "partNumber": 89,
    "partName": "Gangakhed",
    "lat": 18.91309975,
    "lon": 76.75570683410183
  },
  {
    "partId": 109687,
    "stateCode": "S13",
    "stateName": "Maharashtra",
    "districtCode": "S1317",
    "districtName": "Parbhani",
    "acNumber": 97,
    "acName": "Gangakhed",
    "partNumber": 90,
    "partName": "Gangakhed",
    "lat": 18.91309975,
    "lon": 76.75570683410183
  },
  {
    "partId": 109688,
    "stateCode": "S13",
    "stateName": "Maharashtra",
    "districtCode": "S1317",
    "districtName": "Parbhani",
    "acNumber": 97,
    "acName": "Gangakhed",
    "partNumber": 91,
    "partName": "Gangakhed",
    "lat": 18.91309975,
    "lon": 76.75570683410183
  },
  {
    "partId": 109689,
    "stateCode": "S13",
    "stateName": "Maharashtra",
    "districtCode": "S1317",
    "districtName": "Parbhani",
    "acNumber": 97,
    "acName": "Gangakhed",
    "partNumber": 92,
    "partName": "Gangakhed",
    "lat": 18.91309975,
    "lon": 76.75570683410183
  },
  {
    "partId": 109690,
    "stateCode": "S13",
    "stateName": "Maharashtra",
    "districtCode": "S1317",
    "districtName": "Parbhani",
    "acNumber": 97,
    "acName": "Gangakhed",
    "partNumber": 93,
    "partName": "Gangakhed",
    "lat": 18.91309975,
    "lon": 76.75570683410183
  },
  {
    "partId": 109691,
    "stateCode": "S13",
    "stateName": "Maharashtra",
    "districtCode": "S1317",
    "districtName": "Parbhani",
    "acNumber": 97,
    "acName": "Gangakhed",
    "partNumber": 94,
    "partName": "Gangakhed",
    "lat": 18.91309975,
    "lon": 76.75570683410183
  },
  {
    "partId": 109692,
    "stateCode": "S13",
    "stateName": "Maharashtra",
    "districtCode": "S1317",
    "districtName": "Parbhani",
    "acNumber": 97,
    "acName": "Gangakhed",
    "partNumber": 95,
    "partName": "Gangakhed",
    "lat": 18.91309975,
    "lon": 76.75570683410183
  },
  {
    "partId": 109693,
    "stateCode": "S13",
    "stateName": "Maharashtra",
    "districtCode": "S1317",
    "districtName": "Parbhani",
    "acNumber": 97,
    "acName": "Gangakhed",
    "partNumber": 96,
    "partName": "Gangakhed",
    "lat": 18.91309975,
    "lon": 76.75570683410183
  },
  {
    "partId": 109694,
    "stateCode": "S13",
    "stateName": "Maharashtra",
    "districtCode": "S1317",
    "districtName": "Parbhani",
    "acNumber": 97,
    "acName": "Gangakhed",
    "partNumber": 97,
    "partName": "Gangakhed",
    "lat": 18.97900625281863,
    "lon": 76.8040571034216
  },
  {
    "partId": 109695,
    "stateCode": "S13",
    "stateName": "Maharashtra",
    "districtCode": "S1317",
    "districtName": "Parbhani",
    "acNumber": 97,
    "acName": "Gangakhed",
    "partNumber": 98,
    "partName": "Gangakhed",
    "lat": 18.91309975,
    "lon": 76.75570683410183
  },
  {
    "partId": 109696,
    "stateCode": "S13",
    "stateName": "Maharashtra",
    "districtCode": "S1317",
    "districtName": "Parbhani",
    "acNumber": 97,
    "acName": "Gangakhed",
    "partNumber": 99,
    "partName": "Gangakhed",
    "lat": 18.97900625281863,
    "lon": 76.8040571034216
  },
  {
    "partId": 109697,
    "stateCode": "S13",
    "stateName": "Maharashtra",
    "districtCode": "S1317",
    "districtName": "Parbhani",
    "acNumber": 97,
    "acName": "Gangakhed",
    "partNumber": 100,
    "partName": "Gangakhed",
    "lat": 18.97900625281863,
    "lon": 76.8040571034216
  },
  {
    "partId": 109698,
    "stateCode": "S13",
    "stateName": "Maharashtra",
    "districtCode": "S1317",
    "districtName": "Parbhani",
    "acNumber": 97,
    "acName": "Gangakhed",
    "partNumber": 101,
    "partName": "Gangakhed",
    "lat": 18.91309975,
    "lon": 76.75570683410183
  },
  {
    "partId": 109699,
    "stateCode": "S13",
    "stateName": "Maharashtra",
    "districtCode": "S1317",
    "districtName": "Parbhani",
    "acNumber": 97,
    "acName": "Gangakhed",
    "partNumber": 102,
    "partName": "Gangakhed",
    "lat": 18.91309975,
    "lon": 76.75570683410183
  },
  {
    "partId": 109700,
    "stateCode": "S13",
    "stateName": "Maharashtra",
    "districtCode": "S1317",
    "districtName": "Parbhani",
    "acNumber": 97,
    "acName": "Gangakhed",
    "partNumber": 103,
    "partName": "Gangakhed",
    "lat": 18.91309975,
    "lon": 76.75570683410183
  },
  {
    "partId": 109701,
    "stateCode": "S13",
    "stateName": "Maharashtra",
    "districtCode": "S1317",
    "districtName": "Parbhani",
    "acNumber": 97,
    "acName": "Gangakhed",
    "partNumber": 104,
    "partName": "Gangakhed",
    "lat": 18.91309975,
    "lon": 76.75570683410183
  },
  {
    "partId": 109702,
    "stateCode": "S13",
    "stateName": "Maharashtra",
    "districtCode": "S1317",
    "districtName": "Parbhani",
    "acNumber": 97,
    "acName": "Gangakhed",
    "partNumber": 105,
    "partName": "Gangakhed",
    "lat": 18.91309975,
    "lon": 76.75570683410183
  },
  {
    "partId": 109703,
    "stateCode": "S13",
    "stateName": "Maharashtra",
    "districtCode": "S1317",
    "districtName": "Parbhani",
    "acNumber": 97,
    "acName": "Gangakhed",
    "partNumber": 106,
    "partName": "Gangakhed",
    "lat": 18.91309975,
    "lon": 76.75570683410183
  },
  {
    "partId": 109704,
    "stateCode": "S13",
    "stateName": "Maharashtra",
    "districtCode": "S1317",
    "districtName": "Parbhani",
    "acNumber": 97,
    "acName": "Gangakhed",
    "partNumber": 107,
    "partName": "Gangakhed",
    "lat": 18.91309975,
    "lon": 76.75570683410183
  },
  {
    "partId": 109705,
    "stateCode": "S13",
    "stateName": "Maharashtra",
    "districtCode": "S1317",
    "districtName": "Parbhani",
    "acNumber": 97,
    "acName": "Gangakhed",
    "partNumber": 108,
    "partName": "Gangakhed",
    "lat": 18.91309975,
    "lon": 76.75570683410183
  },
  {
    "partId": 109706,
    "stateCode": "S13",
    "stateName": "Maharashtra",
    "districtCode": "S1317",
    "districtName": "Parbhani",
    "acNumber": 97,
    "acName": "Gangakhed",
    "partNumber": 109,
    "partName": "Gangakhed",
    "lat": 18.91309975,
    "lon": 76.75570683410183
  },
  {
    "partId": 109707,
    "stateCode": "S13",
    "stateName": "Maharashtra",
    "districtCode": "S1317",
    "districtName": "Parbhani",
    "acNumber": 97,
    "acName": "Gangakhed",
    "partNumber": 110,
    "partName": "Gangakhed",
    "lat": 18.91309975,
    "lon": 76.75570683410183
  },
  {
    "partId": 109708,
    "stateCode": "S13",
    "stateName": "Maharashtra",
    "districtCode": "S1317",
    "districtName": "Parbhani",
    "acNumber": 97,
    "acName": "Gangakhed",
    "partNumber": 111,
    "partName": "Gangakhed",
    "lat": 18.91309975,
    "lon": 76.75570683410183
  },
  {
    "partId": 109709,
    "stateCode": "S13",
    "stateName": "Maharashtra",
    "districtCode": "S1317",
    "districtName": "Parbhani",
    "acNumber": 97,
    "acName": "Gangakhed",
    "partNumber": 112,
    "partName": "Gangakhed",
    "lat": 18.91309975,
    "lon": 76.75570683410183
  },
  {
    "partId": 109710,
    "stateCode": "S13",
    "stateName": "Maharashtra",
    "districtCode": "S1317",
    "districtName": "Parbhani",
    "acNumber": 97,
    "acName": "Gangakhed",
    "partNumber": 113,
    "partName": "Gangakhed",
    "lat": 18.91309975,
    "lon": 76.75570683410183
  },
  {
    "partId": 109711,
    "stateCode": "S13",
    "stateName": "Maharashtra",
    "districtCode": "S1317",
    "districtName": "Parbhani",
    "acNumber": 97,
    "acName": "Gangakhed",
    "partNumber": 114,
    "partName": "Gangakhed",
    "lat": 18.91309975,
    "lon": 76.75570683410183
  },
  {
    "partId": 109712,
    "stateCode": "S13",
    "stateName": "Maharashtra",
    "districtCode": "S1317",
    "districtName": "Parbhani",
    "acNumber": 97,
    "acName": "Gangakhed",
    "partNumber": 115,
    "partName": "Gangakhed",
    "lat": 18.91309975,
    "lon": 76.75570683410183
  },
  {
    "partId": 109713,
    "stateCode": "S13",
    "stateName": "Maharashtra",
    "districtCode": "S1317",
    "districtName": "Parbhani",
    "acNumber": 97,
    "acName": "Gangakhed",
    "partNumber": 116,
    "partName": "Gangakhed",
    "lat": 18.91309975,
    "lon": 76.75570683410183
  },
  {
    "partId": 109714,
    "stateCode": "S13",
    "stateName": "Maharashtra",
    "districtCode": "S1317",
    "districtName": "Parbhani",
    "acNumber": 97,
    "acName": "Gangakhed",
    "partNumber": 117,
    "partName": "Gangakhed",
    "lat": 18.91309975,
    "lon": 76.75570683410183
  },
  {
    "partId": 109715,
    "stateCode": "S13",
    "stateName": "Maharashtra",
    "districtCode": "S1317",
    "districtName": "Parbhani",
    "acNumber": 97,
    "acName": "Gangakhed",
    "partNumber": 118,
    "partName": "Gangakhed",
    "lat": 18.91309975,
    "lon": 76.75570683410183
  },
  {
    "partId": 109716,
    "stateCode": "S13",
    "stateName": "Maharashtra",
    "districtCode": "S1317",
    "districtName": "Parbhani",
    "acNumber": 97,
    "acName": "Gangakhed",
    "partNumber": 119,
    "partName": "Gangakhed",
    "lat": 18.91309975,
    "lon": 76.75570683410183
  },
  {
    "partId": 109717,
    "stateCode": "S13",
    "stateName": "Maharashtra",
    "districtCode": "S1317",
    "districtName": "Parbhani",
    "acNumber": 97,
    "acName": "Gangakhed",
    "partNumber": 120,
    "partName": "Gangakhed",
    "lat": 18.91309975,
    "lon": 76.75570683410183
  },
  {
    "partId": 109718,
    "stateCode": "S13",
    "stateName": "Maharashtra",
    "districtCode": "S1317",
    "districtName": "Parbhani",
    "acNumber": 97,
    "acName": "Gangakhed",
    "partNumber": 121,
    "partName": "Gangakhed",
    "lat": 18.91309975,
    "lon": 76.75570683410183
  },
  {
    "partId": 109719,
    "stateCode": "S13",
    "stateName": "Maharashtra",
    "districtCode": "S1317",
    "districtName": "Parbhani",
    "acNumber": 97,
    "acName": "Gangakhed",
    "partNumber": 122,
    "partName": "Gangakhed",
    "lat": 18.91309975,
    "lon": 76.75570683410183
  },
  {
    "partId": 109720,
    "stateCode": "S13",
    "stateName": "Maharashtra",
    "districtCode": "S1317",
    "districtName": "Parbhani",
    "acNumber": 97,
    "acName": "Gangakhed",
    "partNumber": 123,
    "partName": "Gangakhed",
    "lat": 18.91309975,
    "lon": 76.75570683410183
  },
  {
    "partId": 109721,
    "stateCode": "S13",
    "stateName": "Maharashtra",
    "districtCode": "S1317",
    "districtName": "Parbhani",
    "acNumber": 97,
    "acName": "Gangakhed",
    "partNumber": 124,
    "partName": "Gangakhed",
    "lat": 18.91309975,
    "lon": 76.75570683410183
  },
  {
    "partId": 109722,
    "stateCode": "S13",
    "stateName": "Maharashtra",
    "districtCode": "S1317",
    "districtName": "Parbhani",
    "acNumber": 97,
    "acName": "Gangakhed",
    "partNumber": 125,
    "partName": "Gangakhed",
    "lat": 18.91309975,
    "lon": 76.75570683410183
  },
  {
    "partId": 109723,
    "stateCode": "S13",
    "stateName": "Maharashtra",
    "districtCode": "S1317",
    "districtName": "Parbhani",
    "acNumber": 97,
    "acName": "Gangakhed",
    "partNumber": 126,
    "partName": "Gangakhed",
    "lat": 18.91309975,
    "lon": 76.75570683410183
  },
  {
    "partId": 109724,
    "stateCode": "S13",
    "stateName": "Maharashtra",
    "districtCode": "S1317",
    "districtName": "Parbhani",
    "acNumber": 97,
    "acName": "Gangakhed",
    "partNumber": 127,
    "partName": "Gangakhed",
    "lat": 18.91309975,
    "lon": 76.75570683410183
  },
  {
    "partId": 109725,
    "stateCode": "S13",
    "stateName": "Maharashtra",
    "districtCode": "S1317",
    "districtName": "Parbhani",
    "acNumber": 97,
    "acName": "Gangakhed",
    "partNumber": 128,
    "partName": "Dusalgaon",
    "lat": 19.019786,
    "lon": 76.7381555
  },
  {
    "partId": 109726,
    "stateCode": "S13",
    "stateName": "Maharashtra",
    "districtCode": "S1317",
    "districtName": "Parbhani",
    "acNumber": 97,
    "acName": "Gangakhed",
    "partNumber": 129,
    "partName": "Khali",
    "lat": 19.0287522,
    "lon": 76.7076266
  },
  {
    "partId": 109727,
    "stateCode": "S13",
    "stateName": "Maharashtra",
    "districtCode": "S1317",
    "districtName": "Parbhani",
    "acNumber": 97,
    "acName": "Gangakhed",
    "partNumber": 130,
    "partName": "Khali",
    "lat": 19.0287522,
    "lon": 76.7076266
  },
  {
    "partId": 109728,
    "stateCode": "S13",
    "stateName": "Maharashtra",
    "districtCode": "S1317",
    "districtName": "Parbhani",
    "acNumber": 97,
    "acName": "Gangakhed",
    "partNumber": 131,
    "partName": "Chichatakali",
    "lat": 18.91309975,
    "lon": 76.75570683410183
  },
  {
    "partId": 109729,
    "stateCode": "S13",
    "stateName": "Maharashtra",
    "districtCode": "S1317",
    "districtName": "Parbhani",
    "acNumber": 97,
    "acName": "Gangakhed",
    "partNumber": 132,
    "partName": "Meralasavangi",
    "lat": 18.91309975,
    "lon": 76.75570683410183
  },
  {
    "partId": 109730,
    "stateCode": "S13",
    "stateName": "Maharashtra",
    "districtCode": "S1317",
    "districtName": "Parbhani",
    "acNumber": 97,
    "acName": "Gangakhed",
    "partNumber": 133,
    "partName": "Gaaindagav",
    "lat": 18.91309975,
    "lon": 76.75570683410183
  },
  {
    "partId": 109731,
    "stateCode": "S13",
    "stateName": "Maharashtra",
    "districtCode": "S1317",
    "districtName": "Parbhani",
    "acNumber": 97,
    "acName": "Gangakhed",
    "partNumber": 134,
    "partName": "Gaaindagav",
    "lat": 18.91309975,
    "lon": 76.75570683410183
  },
  {
    "partId": 109732,
    "stateCode": "S13",
    "stateName": "Maharashtra",
    "districtCode": "S1317",
    "districtName": "Parbhani",
    "acNumber": 97,
    "acName": "Gangakhed",
    "partNumber": 135,
    "partName": "Mahatapuri",
    "lat": 18.91309975,
    "lon": 76.75570683410183
  },
  {
    "partId": 109733,
    "stateCode": "S13",
    "stateName": "Maharashtra",
    "districtCode": "S1317",
    "districtName": "Parbhani",
    "acNumber": 97,
    "acName": "Gangakhed",
    "partNumber": 136,
    "partName": "Mahatapuri",
    "lat": 18.91309975,
    "lon": 76.75570683410183
  },
  {
    "partId": 109734,
    "stateCode": "S13",
    "stateName": "Maharashtra",
    "districtCode": "S1317",
    "districtName": "Parbhani",
    "acNumber": 97,
    "acName": "Gangakhed",
    "partNumber": 137,
    "partName": "Mahatapuri",
    "lat": 18.91309975,
    "lon": 76.75570683410183
  },
  {
    "partId": 109735,
    "stateCode": "S13",
    "stateName": "Maharashtra",
    "districtCode": "S1317",
    "districtName": "Parbhani",
    "acNumber": 97,
    "acName": "Gangakhed",
    "partNumber": 138,
    "partName": "Mahatpuri",
    "lat": 18.9978348,
    "lon": 76.7000627
  },
  {
    "partId": 109736,
    "stateCode": "S13",
    "stateName": "Maharashtra",
    "districtCode": "S1317",
    "districtName": "Parbhani",
    "acNumber": 97,
    "acName": "Gangakhed",
    "partNumber": 139,
    "partName": "Bhambaravadi",
    "lat": 18.97900625281863,
    "lon": 76.8040571034216
  },
  {
    "partId": 109737,
    "stateCode": "S13",
    "stateName": "Maharashtra",
    "districtCode": "S1317",
    "districtName": "Parbhani",
    "acNumber": 97,
    "acName": "Gangakhed",
    "partNumber": 140,
    "partName": "Shankaravadi",
    "lat": 18.91309975,
    "lon": 76.75570683410183
  },
  {
    "partId": 109738,
    "stateCode": "S13",
    "stateName": "Maharashtra",
    "districtCode": "S1317",
    "districtName": "Parbhani",
    "acNumber": 97,
    "acName": "Gangakhed",
    "partNumber": 141,
    "partName": "padegaon",
    "lat": 18.9386822,
    "lon": 76.7019939
  },
  {
    "partId": 109739,
    "stateCode": "S13",
    "stateName": "Maharashtra",
    "districtCode": "S1317",
    "districtName": "Parbhani",
    "acNumber": 97,
    "acName": "Gangakhed",
    "partNumber": 142,
    "partName": "padegaon",
    "lat": 18.9386822,
    "lon": 76.7019939
  },
  {
    "partId": 109740,
    "stateCode": "S13",
    "stateName": "Maharashtra",
    "districtCode": "S1317",
    "districtName": "Parbhani",
    "acNumber": 97,
    "acName": "Gangakhed",
    "partNumber": 143,
    "partName": "Banpimpla",
    "lat": 18.9488959,
    "lon": 76.6851336
  },
  {
    "partId": 109741,
    "stateCode": "S13",
    "stateName": "Maharashtra",
    "districtCode": "S1317",
    "districtName": "Parbhani",
    "acNumber": 97,
    "acName": "Gangakhed",
    "partNumber": 144,
    "partName": "Suralavadi",
    "lat": 18.91309975,
    "lon": 76.75570683410183
  },
  {
    "partId": 109742,
    "stateCode": "S13",
    "stateName": "Maharashtra",
    "districtCode": "S1317",
    "districtName": "Parbhani",
    "acNumber": 97,
    "acName": "Gangakhed",
    "partNumber": 145,
    "partName": "shivaji Nagar",
    "lat": 18.9637054,
    "lon": 76.7156625
  },
  {
    "partId": 109743,
    "stateCode": "S13",
    "stateName": "Maharashtra",
    "districtCode": "S1317",
    "districtName": "Parbhani",
    "acNumber": 97,
    "acName": "Gangakhed",
    "partNumber": 146,
    "partName": "maragalwadi",
    "lat": 18.9381067,
    "lon": 76.7430902
  },
  {
    "partId": 109744,
    "stateCode": "S13",
    "stateName": "Maharashtra",
    "districtCode": "S1317",
    "districtName": "Parbhani",
    "acNumber": 97,
    "acName": "Gangakhed",
    "partNumber": 147,
    "partName": "Kasarwadi",
    "lat": 18.91309975,
    "lon": 76.75570683410183
  },
  {
    "partId": 109745,
    "stateCode": "S13",
    "stateName": "Maharashtra",
    "districtCode": "S1317",
    "districtName": "Parbhani",
    "acNumber": 97,
    "acName": "Gangakhed",
    "partNumber": 148,
    "partName": "Godavari Tanda",
    "lat": 18.91309975,
    "lon": 76.75570683410183
  },
  {
    "partId": 109746,
    "stateCode": "S13",
    "stateName": "Maharashtra",
    "districtCode": "S1317",
    "districtName": "Parbhani",
    "acNumber": 97,
    "acName": "Gangakhed",
    "partNumber": 149,
    "partName": "bhendewadi",
    "lat": 18.932167,
    "lon": 76.7458749
  },
  {
    "partId": 109747,
    "stateCode": "S13",
    "stateName": "Maharashtra",
    "districtCode": "S1317",
    "districtName": "Parbhani",
    "acNumber": 97,
    "acName": "Gangakhed",
    "partNumber": 150,
    "partName": "Tokwadi",
    "lat": 18.9295487,
    "lon": 76.75493
  },
  {
    "partId": 109748,
    "stateCode": "S13",
    "stateName": "Maharashtra",
    "districtCode": "S1317",
    "districtName": "Parbhani",
    "acNumber": 97,
    "acName": "Gangakhed",
    "partNumber": 151,
    "partName": "Sangalevadi",
    "lat": 18.91309975,
    "lon": 76.75570683410183
  },
  {
    "partId": 109749,
    "stateCode": "S13",
    "stateName": "Maharashtra",
    "districtCode": "S1317",
    "districtName": "Parbhani",
    "acNumber": 97,
    "acName": "Gangakhed",
    "partNumber": 152,
    "partName": "Dhavalakevadi",
    "lat": 18.97900625281863,
    "lon": 76.8040571034216
  },
  {
    "partId": 109750,
    "stateCode": "S13",
    "stateName": "Maharashtra",
    "districtCode": "S1317",
    "districtName": "Parbhani",
    "acNumber": 97,
    "acName": "Gangakhed",
    "partNumber": 153,
    "partName": "Isad",
    "lat": 18.9094939,
    "lon": 76.7703795
  },
  {
    "partId": 109751,
    "stateCode": "S13",
    "stateName": "Maharashtra",
    "districtCode": "S1317",
    "districtName": "Parbhani",
    "acNumber": 97,
    "acName": "Gangakhed",
    "partNumber": 154,
    "partName": "Isad",
    "lat": 18.9094939,
    "lon": 76.7703795
  },
  {
    "partId": 109752,
    "stateCode": "S13",
    "stateName": "Maharashtra",
    "districtCode": "S1317",
    "districtName": "Parbhani",
    "acNumber": 97,
    "acName": "Gangakhed",
    "partNumber": 155,
    "partName": "Isad",
    "lat": 18.9094939,
    "lon": 76.7703795
  },
  {
    "partId": 109753,
    "stateCode": "S13",
    "stateName": "Maharashtra",
    "districtCode": "S1317",
    "districtName": "Parbhani",
    "acNumber": 97,
    "acName": "Gangakhed",
    "partNumber": 156,
    "partName": "devkatwadi",
    "lat": 18.91309975,
    "lon": 76.75570683410183
  },
  {
    "partId": 109754,
    "stateCode": "S13",
    "stateName": "Maharashtra",
    "districtCode": "S1317",
    "districtName": "Parbhani",
    "acNumber": 97,
    "acName": "Gangakhed",
    "partNumber": 157,
    "partName": "Isad",
    "lat": 18.9094939,
    "lon": 76.7703795
  },
  {
    "partId": 109755,
    "stateCode": "S13",
    "stateName": "Maharashtra",
    "districtCode": "S1317",
    "districtName": "Parbhani",
    "acNumber": 97,
    "acName": "Gangakhed",
    "partNumber": 158,
    "partName": "Arabujavadi",
    "lat": 18.91309975,
    "lon": 76.75570683410183
  },
  {
    "partId": 109756,
    "stateCode": "S13",
    "stateName": "Maharashtra",
    "districtCode": "S1317",
    "districtName": "Parbhani",
    "acNumber": 97,
    "acName": "Gangakhed",
    "partNumber": 159,
    "partName": "Kaundaganv",
    "lat": 18.91309975,
    "lon": 76.75570683410183
  },
  {
    "partId": 109757,
    "stateCode": "S13",
    "stateName": "Maharashtra",
    "districtCode": "S1317",
    "districtName": "Parbhani",
    "acNumber": 97,
    "acName": "Gangakhed",
    "partNumber": 160,
    "partName": "DharamNagari",
    "lat": 18.91309975,
    "lon": 76.75570683410183
  },
  {
    "partId": 109758,
    "stateCode": "S13",
    "stateName": "Maharashtra",
    "districtCode": "S1317",
    "districtName": "Parbhani",
    "acNumber": 97,
    "acName": "Gangakhed",
    "partNumber": 161,
    "partName": "Ileganv",
    "lat": 18.91309975,
    "lon": 76.75570683410183
  },
  {
    "partId": 109759,
    "stateCode": "S13",
    "stateName": "Maharashtra",
    "districtCode": "S1317",
    "districtName": "Parbhani",
    "acNumber": 97,
    "acName": "Gangakhed",
    "partNumber": 162,
    "partName": "Ileganv",
    "lat": 18.91309975,
    "lon": 76.75570683410183
  },
  {
    "partId": 109760,
    "stateCode": "S13",
    "stateName": "Maharashtra",
    "districtCode": "S1317",
    "districtName": "Parbhani",
    "acNumber": 97,
    "acName": "Gangakhed",
    "partNumber": 163,
    "partName": "Maradasaganv",
    "lat": 18.91309975,
    "lon": 76.75570683410183
  },
  {
    "partId": 109761,
    "stateCode": "S13",
    "stateName": "Maharashtra",
    "districtCode": "S1317",
    "districtName": "Parbhani",
    "acNumber": 97,
    "acName": "Gangakhed",
    "partNumber": 164,
    "partName": "Maradasaganv",
    "lat": 18.91309975,
    "lon": 76.75570683410183
  },
  {
    "partId": 109762,
    "stateCode": "S13",
    "stateName": "Maharashtra",
    "districtCode": "S1317",
    "districtName": "Parbhani",
    "acNumber": 97,
    "acName": "Gangakhed",
    "partNumber": 165,
    "partName": "Maradasaganv",
    "lat": 18.91309975,
    "lon": 76.75570683410183
  },
  {
    "partId": 109763,
    "stateCode": "S13",
    "stateName": "Maharashtra",
    "districtCode": "S1317",
    "districtName": "Parbhani",
    "acNumber": 97,
    "acName": "Gangakhed",
    "partNumber": 166,
    "partName": "Navhalgaon",
    "lat": 18.97900625281863,
    "lon": 76.8040571034216
  },
  {
    "partId": 109764,
    "stateCode": "S13",
    "stateName": "Maharashtra",
    "districtCode": "S1317",
    "districtName": "Parbhani",
    "acNumber": 97,
    "acName": "Gangakhed",
    "partNumber": 167,
    "partName": "Kandalgaon",
    "lat": 18.91309975,
    "lon": 76.75570683410183
  },
  {
    "partId": 109765,
    "stateCode": "S13",
    "stateName": "Maharashtra",
    "districtCode": "S1317",
    "districtName": "Parbhani",
    "acNumber": 97,
    "acName": "Gangakhed",
    "partNumber": 168,
    "partName": "Ajamabad",
    "lat": 18.91309975,
    "lon": 76.75570683410183
  },
  {
    "partId": 109766,
    "stateCode": "S13",
    "stateName": "Maharashtra",
    "districtCode": "S1317",
    "districtName": "Parbhani",
    "acNumber": 97,
    "acName": "Gangakhed",
    "partNumber": 169,
    "partName": "Ajamabad",
    "lat": 18.91309975,
    "lon": 76.75570683410183
  },
  {
    "partId": 109767,
    "stateCode": "S13",
    "stateName": "Maharashtra",
    "districtCode": "S1317",
    "districtName": "Parbhani",
    "acNumber": 97,
    "acName": "Gangakhed",
    "partNumber": 170,
    "partName": "Kapashi",
    "lat": 18.97900625281863,
    "lon": 76.8040571034216
  },
  {
    "partId": 109768,
    "stateCode": "S13",
    "stateName": "Maharashtra",
    "districtCode": "S1317",
    "districtName": "Parbhani",
    "acNumber": 97,
    "acName": "Gangakhed",
    "partNumber": 171,
    "partName": "Shirapur",
    "lat": 18.91309975,
    "lon": 76.75570683410183
  },
  {
    "partId": 109769,
    "stateCode": "S13",
    "stateName": "Maharashtra",
    "districtCode": "S1317",
    "districtName": "Parbhani",
    "acNumber": 97,
    "acName": "Gangakhed",
    "partNumber": 172,
    "partName": "Ghoda",
    "lat": 19.0345232,
    "lon": 76.9210285
  },
  {
    "partId": 109770,
    "stateCode": "S13",
    "stateName": "Maharashtra",
    "districtCode": "S1317",
    "districtName": "Parbhani",
    "acNumber": 97,
    "acName": "Gangakhed",
    "partNumber": 173,
    "partName": "Someshwar",
    "lat": 19.0451063,
    "lon": 76.9288498
  },
  {
    "partId": 109771,
    "stateCode": "S13",
    "stateName": "Maharashtra",
    "districtCode": "S1317",
    "districtName": "Parbhani",
    "acNumber": 97,
    "acName": "Gangakhed",
    "partNumber": 174,
    "partName": "Fala",
    "lat": 18.97900625281863,
    "lon": 76.8040571034216
  },
  {
    "partId": 109772,
    "stateCode": "S13",
    "stateName": "Maharashtra",
    "districtCode": "S1317",
    "districtName": "Parbhani",
    "acNumber": 97,
    "acName": "Gangakhed",
    "partNumber": 175,
    "partName": "Fala",
    "lat": 18.91309975,
    "lon": 76.75570683410183
  },
  {
    "partId": 109773,
    "stateCode": "S13",
    "stateName": "Maharashtra",
    "districtCode": "S1317",
    "districtName": "Parbhani",
    "acNumber": 97,
    "acName": "Gangakhed",
    "partNumber": 176,
    "partName": "Mumbar",
    "lat": 18.91309975,
    "lon": 76.75570683410183
  },
  {
    "partId": 109774,
    "stateCode": "S13",
    "stateName": "Maharashtra",
    "districtCode": "S1317",
    "districtName": "Parbhani",
    "acNumber": 97,
    "acName": "Gangakhed",
    "partNumber": 177,
    "partName": "Golegaon",
    "lat": 19.1084941,
    "lon": 76.5742671
  },
  {
    "partId": 109775,
    "stateCode": "S13",
    "stateName": "Maharashtra",
    "districtCode": "S1317",
    "districtName": "Parbhani",
    "acNumber": 97,
    "acName": "Gangakhed",
    "partNumber": 178,
    "partName": "Deulgaon Dudhate",
    "lat": 18.91309975,
    "lon": 76.75570683410183
  },
  {
    "partId": 109776,
    "stateCode": "S13",
    "stateName": "Maharashtra",
    "districtCode": "S1317",
    "districtName": "Parbhani",
    "acNumber": 97,
    "acName": "Gangakhed",
    "partNumber": 179,
    "partName": "Deulgaon Dudhate",
    "lat": 18.91309975,
    "lon": 76.75570683410183
  },
  {
    "partId": 109777,
    "stateCode": "S13",
    "stateName": "Maharashtra",
    "districtCode": "S1317",
    "districtName": "Parbhani",
    "acNumber": 97,
    "acName": "Gangakhed",
    "partNumber": 180,
    "partName": "Deulgaon Dudhate",
    "lat": 18.91309975,
    "lon": 76.75570683410183
  },
  {
    "partId": 109778,
    "stateCode": "S13",
    "stateName": "Maharashtra",
    "districtCode": "S1317",
    "districtName": "Parbhani",
    "acNumber": 97,
    "acName": "Gangakhed",
    "partNumber": 181,
    "partName": "Dhanora Kale",
    "lat": 18.91309975,
    "lon": 76.75570683410183
  },
  {
    "partId": 109779,
    "stateCode": "S13",
    "stateName": "Maharashtra",
    "districtCode": "S1317",
    "districtName": "Parbhani",
    "acNumber": 97,
    "acName": "Gangakhed",
    "partNumber": 182,
    "partName": "Dhanora Kale",
    "lat": 18.91309975,
    "lon": 76.75570683410183
  },
  {
    "partId": 109780,
    "stateCode": "S13",
    "stateName": "Maharashtra",
    "districtCode": "S1317",
    "districtName": "Parbhani",
    "acNumber": 97,
    "acName": "Gangakhed",
    "partNumber": 183,
    "partName": "Hatkarwadi",
    "lat": 19.0893024,
    "lon": 76.6056973
  },
  {
    "partId": 109781,
    "stateCode": "S13",
    "stateName": "Maharashtra",
    "districtCode": "S1317",
    "districtName": "Parbhani",
    "acNumber": 97,
    "acName": "Gangakhed",
    "partNumber": 184,
    "partName": "Kalgaon",
    "lat": 19.0993193,
    "lon": 76.9525123
  },
  {
    "partId": 109782,
    "stateCode": "S13",
    "stateName": "Maharashtra",
    "districtCode": "S1317",
    "districtName": "Parbhani",
    "acNumber": 97,
    "acName": "Gangakhed",
    "partNumber": 185,
    "partName": "Kalgaon",
    "lat": 19.0993193,
    "lon": 76.9525123
  },
  {
    "partId": 109783,
    "stateCode": "S13",
    "stateName": "Maharashtra",
    "districtCode": "S1317",
    "districtName": "Parbhani",
    "acNumber": 97,
    "acName": "Gangakhed",
    "partNumber": 186,
    "partName": "Nila",
    "lat": 19.1472206,
    "lon": 77.0109361
  },
  {
    "partId": 109784,
    "stateCode": "S13",
    "stateName": "Maharashtra",
    "districtCode": "S1317",
    "districtName": "Parbhani",
    "acNumber": 97,
    "acName": "Gangakhed",
    "partNumber": 187,
    "partName": "Nila",
    "lat": 19.1472206,
    "lon": 77.0109361
  },
  {
    "partId": 109785,
    "stateCode": "S13",
    "stateName": "Maharashtra",
    "districtCode": "S1317",
    "districtName": "Parbhani",
    "acNumber": 97,
    "acName": "Gangakhed",
    "partNumber": 188,
    "partName": "Kanadkhed No.1",
    "lat": 18.91309975,
    "lon": 76.75570683410183
  },
  {
    "partId": 109786,
    "stateCode": "S13",
    "stateName": "Maharashtra",
    "districtCode": "S1317",
    "districtName": "Parbhani",
    "acNumber": 97,
    "acName": "Gangakhed",
    "partNumber": 189,
    "partName": "Kanadkhed",
    "lat": 18.91309975,
    "lon": 76.75570683410183
  },
  {
    "partId": 109787,
    "stateCode": "S13",
    "stateName": "Maharashtra",
    "districtCode": "S1317",
    "districtName": "Parbhani",
    "acNumber": 97,
    "acName": "Gangakhed",
    "partNumber": 190,
    "partName": "Purna",
    "lat": 18.91309975,
    "lon": 76.75570683410183
  },
  {
    "partId": 109788,
    "stateCode": "S13",
    "stateName": "Maharashtra",
    "districtCode": "S1317",
    "districtName": "Parbhani",
    "acNumber": 97,
    "acName": "Gangakhed",
    "partNumber": 191,
    "partName": "Purna",
    "lat": 19.18104375,
    "lon": 76.99403314900697
  },
  {
    "partId": 109789,
    "stateCode": "S13",
    "stateName": "Maharashtra",
    "districtCode": "S1317",
    "districtName": "Parbhani",
    "acNumber": 97,
    "acName": "Gangakhed",
    "partNumber": 192,
    "partName": "Purna",
    "lat": 19.18104375,
    "lon": 76.99403314900697
  },
  {
    "partId": 109790,
    "stateCode": "S13",
    "stateName": "Maharashtra",
    "districtCode": "S1317",
    "districtName": "Parbhani",
    "acNumber": 97,
    "acName": "Gangakhed",
    "partNumber": 193,
    "partName": "Purna",
    "lat": 19.18104375,
    "lon": 76.99403314900697
  },
  {
    "partId": 109791,
    "stateCode": "S13",
    "stateName": "Maharashtra",
    "districtCode": "S1317",
    "districtName": "Parbhani",
    "acNumber": 97,
    "acName": "Gangakhed",
    "partNumber": 194,
    "partName": "Purna",
    "lat": 19.18104375,
    "lon": 76.99403314900697
  },
  {
    "partId": 109792,
    "stateCode": "S13",
    "stateName": "Maharashtra",
    "districtCode": "S1317",
    "districtName": "Parbhani",
    "acNumber": 97,
    "acName": "Gangakhed",
    "partNumber": 195,
    "partName": "Purna",
    "lat": 19.18104375,
    "lon": 76.99403314900697
  },
  {
    "partId": 109793,
    "stateCode": "S13",
    "stateName": "Maharashtra",
    "districtCode": "S1317",
    "districtName": "Parbhani",
    "acNumber": 97,
    "acName": "Gangakhed",
    "partNumber": 196,
    "partName": "Purna",
    "lat": 19.18104375,
    "lon": 76.99403314900697
  },
  {
    "partId": 109794,
    "stateCode": "S13",
    "stateName": "Maharashtra",
    "districtCode": "S1317",
    "districtName": "Parbhani",
    "acNumber": 97,
    "acName": "Gangakhed",
    "partNumber": 197,
    "partName": "Purna",
    "lat": 19.18104375,
    "lon": 76.99403314900697
  },
  {
    "partId": 109795,
    "stateCode": "S13",
    "stateName": "Maharashtra",
    "districtCode": "S1317",
    "districtName": "Parbhani",
    "acNumber": 97,
    "acName": "Gangakhed",
    "partNumber": 198,
    "partName": "Purna",
    "lat": 19.18104375,
    "lon": 76.99403314900697
  },
  {
    "partId": 109796,
    "stateCode": "S13",
    "stateName": "Maharashtra",
    "districtCode": "S1317",
    "districtName": "Parbhani",
    "acNumber": 97,
    "acName": "Gangakhed",
    "partNumber": 199,
    "partName": "Purna",
    "lat": 18.97900625281863,
    "lon": 76.8040571034216
  },
  {
    "partId": 109797,
    "stateCode": "S13",
    "stateName": "Maharashtra",
    "districtCode": "S1317",
    "districtName": "Parbhani",
    "acNumber": 97,
    "acName": "Gangakhed",
    "partNumber": 200,
    "partName": "Purna",
    "lat": 19.18104375,
    "lon": 76.99403314900697
  },
  {
    "partId": 109798,
    "stateCode": "S13",
    "stateName": "Maharashtra",
    "districtCode": "S1317",
    "districtName": "Parbhani",
    "acNumber": 97,
    "acName": "Gangakhed",
    "partNumber": 201,
    "partName": "Purna",
    "lat": 19.18104375,
    "lon": 76.99403314900697
  },
  {
    "partId": 109799,
    "stateCode": "S13",
    "stateName": "Maharashtra",
    "districtCode": "S1317",
    "districtName": "Parbhani",
    "acNumber": 97,
    "acName": "Gangakhed",
    "partNumber": 202,
    "partName": "Purna",
    "lat": 19.18104375,
    "lon": 76.99403314900697
  },
  {
    "partId": 109800,
    "stateCode": "S13",
    "stateName": "Maharashtra",
    "districtCode": "S1317",
    "districtName": "Parbhani",
    "acNumber": 97,
    "acName": "Gangakhed",
    "partNumber": 203,
    "partName": "Purna",
    "lat": 19.18104375,
    "lon": 76.99403314900697
  },
  {
    "partId": 109801,
    "stateCode": "S13",
    "stateName": "Maharashtra",
    "districtCode": "S1317",
    "districtName": "Parbhani",
    "acNumber": 97,
    "acName": "Gangakhed",
    "partNumber": 204,
    "partName": "Purna",
    "lat": 19.18104375,
    "lon": 76.99403314900697
  },
  {
    "partId": 109802,
    "stateCode": "S13",
    "stateName": "Maharashtra",
    "districtCode": "S1317",
    "districtName": "Parbhani",
    "acNumber": 97,
    "acName": "Gangakhed",
    "partNumber": 205,
    "partName": "Purna",
    "lat": 19.18104375,
    "lon": 76.99403314900697
  },
  {
    "partId": 109803,
    "stateCode": "S13",
    "stateName": "Maharashtra",
    "districtCode": "S1317",
    "districtName": "Parbhani",
    "acNumber": 97,
    "acName": "Gangakhed",
    "partNumber": 206,
    "partName": "Purna",
    "lat": 18.97900625281863,
    "lon": 76.8040571034216
  },
  {
    "partId": 109804,
    "stateCode": "S13",
    "stateName": "Maharashtra",
    "districtCode": "S1317",
    "districtName": "Parbhani",
    "acNumber": 97,
    "acName": "Gangakhed",
    "partNumber": 207,
    "partName": "Purna",
    "lat": 19.18104375,
    "lon": 76.99403314900697
  },
  {
    "partId": 109805,
    "stateCode": "S13",
    "stateName": "Maharashtra",
    "districtCode": "S1317",
    "districtName": "Parbhani",
    "acNumber": 97,
    "acName": "Gangakhed",
    "partNumber": 208,
    "partName": "Purna",
    "lat": 19.18104375,
    "lon": 76.99403314900697
  },
  {
    "partId": 109806,
    "stateCode": "S13",
    "stateName": "Maharashtra",
    "districtCode": "S1317",
    "districtName": "Parbhani",
    "acNumber": 97,
    "acName": "Gangakhed",
    "partNumber": 209,
    "partName": "Purna",
    "lat": 19.18104375,
    "lon": 76.99403314900697
  },
  {
    "partId": 109807,
    "stateCode": "S13",
    "stateName": "Maharashtra",
    "districtCode": "S1317",
    "districtName": "Parbhani",
    "acNumber": 97,
    "acName": "Gangakhed",
    "partNumber": 210,
    "partName": "Purna",
    "lat": 19.18104375,
    "lon": 76.99403314900697
  },
  {
    "partId": 109808,
    "stateCode": "S13",
    "stateName": "Maharashtra",
    "districtCode": "S1317",
    "districtName": "Parbhani",
    "acNumber": 97,
    "acName": "Gangakhed",
    "partNumber": 211,
    "partName": "Purna",
    "lat": 19.18104375,
    "lon": 76.99403314900697
  },
  {
    "partId": 109809,
    "stateCode": "S13",
    "stateName": "Maharashtra",
    "districtCode": "S1317",
    "districtName": "Parbhani",
    "acNumber": 97,
    "acName": "Gangakhed",
    "partNumber": 212,
    "partName": "Purna",
    "lat": 19.18104375,
    "lon": 76.99403314900697
  },
  {
    "partId": 109810,
    "stateCode": "S13",
    "stateName": "Maharashtra",
    "districtCode": "S1317",
    "districtName": "Parbhani",
    "acNumber": 97,
    "acName": "Gangakhed",
    "partNumber": 213,
    "partName": "Purna",
    "lat": 19.18104375,
    "lon": 76.99403314900697
  },
  {
    "partId": 109811,
    "stateCode": "S13",
    "stateName": "Maharashtra",
    "districtCode": "S1317",
    "districtName": "Parbhani",
    "acNumber": 97,
    "acName": "Gangakhed",
    "partNumber": 214,
    "partName": "Purna",
    "lat": 19.18104375,
    "lon": 76.99403314900697
  },
  {
    "partId": 109812,
    "stateCode": "S13",
    "stateName": "Maharashtra",
    "districtCode": "S1317",
    "districtName": "Parbhani",
    "acNumber": 97,
    "acName": "Gangakhed",
    "partNumber": 215,
    "partName": "Purna",
    "lat": 19.18104375,
    "lon": 76.99403314900697
  },
  {
    "partId": 109813,
    "stateCode": "S13",
    "stateName": "Maharashtra",
    "districtCode": "S1317",
    "districtName": "Parbhani",
    "acNumber": 97,
    "acName": "Gangakhed",
    "partNumber": 216,
    "partName": "Purna",
    "lat": 19.18104375,
    "lon": 76.99403314900697
  },
  {
    "partId": 109814,
    "stateCode": "S13",
    "stateName": "Maharashtra",
    "districtCode": "S1317",
    "districtName": "Parbhani",
    "acNumber": 97,
    "acName": "Gangakhed",
    "partNumber": 217,
    "partName": "Purna",
    "lat": 19.18104375,
    "lon": 76.99403314900697
  },
  {
    "partId": 109815,
    "stateCode": "S13",
    "stateName": "Maharashtra",
    "districtCode": "S1317",
    "districtName": "Parbhani",
    "acNumber": 97,
    "acName": "Gangakhed",
    "partNumber": 218,
    "partName": "Purna",
    "lat": 19.18104375,
    "lon": 76.99403314900697
  },
  {
    "partId": 109816,
    "stateCode": "S13",
    "stateName": "Maharashtra",
    "districtCode": "S1317",
    "districtName": "Parbhani",
    "acNumber": 97,
    "acName": "Gangakhed",
    "partNumber": 219,
    "partName": "Purna",
    "lat": 19.18104375,
    "lon": 76.99403314900697
  },
  {
    "partId": 109817,
    "stateCode": "S13",
    "stateName": "Maharashtra",
    "districtCode": "S1317",
    "districtName": "Parbhani",
    "acNumber": 97,
    "acName": "Gangakhed",
    "partNumber": 220,
    "partName": "Purna",
    "lat": 19.18104375,
    "lon": 76.99403314900697
  },
  {
    "partId": 109818,
    "stateCode": "S13",
    "stateName": "Maharashtra",
    "districtCode": "S1317",
    "districtName": "Parbhani",
    "acNumber": 97,
    "acName": "Gangakhed",
    "partNumber": 221,
    "partName": "Purna",
    "lat": 19.18104375,
    "lon": 76.99403314900697
  },
  {
    "partId": 109819,
    "stateCode": "S13",
    "stateName": "Maharashtra",
    "districtCode": "S1317",
    "districtName": "Parbhani",
    "acNumber": 97,
    "acName": "Gangakhed",
    "partNumber": 222,
    "partName": "Barbadi",
    "lat": 19.0926482,
    "lon": 77.0248461
  },
  {
    "partId": 109820,
    "stateCode": "S13",
    "stateName": "Maharashtra",
    "districtCode": "S1317",
    "districtName": "Parbhani",
    "acNumber": 97,
    "acName": "Gangakhed",
    "partNumber": 223,
    "partName": "Barbadi",
    "lat": 19.0926482,
    "lon": 77.0248461
  },
  {
    "partId": 109821,
    "stateCode": "S13",
    "stateName": "Maharashtra",
    "districtCode": "S1317",
    "districtName": "Parbhani",
    "acNumber": 97,
    "acName": "Gangakhed",
    "partNumber": 224,
    "partName": "Degaon",
    "lat": 19.236372,
    "lon": 77.0343518
  },
  {
    "partId": 109822,
    "stateCode": "S13",
    "stateName": "Maharashtra",
    "districtCode": "S1317",
    "districtName": "Parbhani",
    "acNumber": 97,
    "acName": "Gangakhed",
    "partNumber": 225,
    "partName": "Degaon",
    "lat": 19.236372,
    "lon": 77.0343518
  },
  {
    "partId": 109823,
    "stateCode": "S13",
    "stateName": "Maharashtra",
    "districtCode": "S1317",
    "districtName": "Parbhani",
    "acNumber": 97,
    "acName": "Gangakhed",
    "partNumber": 226,
    "partName": "Suhagan",
    "lat": 18.91309975,
    "lon": 76.75570683410183
  },
  {
    "partId": 109824,
    "stateCode": "S13",
    "stateName": "Maharashtra",
    "districtCode": "S1317",
    "districtName": "Parbhani",
    "acNumber": 97,
    "acName": "Gangakhed",
    "partNumber": 227,
    "partName": "Avhai",
    "lat": 18.91309975,
    "lon": 76.75570683410183
  },
  {
    "partId": 109825,
    "stateCode": "S13",
    "stateName": "Maharashtra",
    "districtCode": "S1317",
    "districtName": "Parbhani",
    "acNumber": 97,
    "acName": "Gangakhed",
    "partNumber": 228,
    "partName": "Avhai",
    "lat": 18.91309975,
    "lon": 76.75570683410183
  },
  {
    "partId": 109826,
    "stateCode": "S13",
    "stateName": "Maharashtra",
    "districtCode": "S1317",
    "districtName": "Parbhani",
    "acNumber": 97,
    "acName": "Gangakhed",
    "partNumber": 229,
    "partName": "Lon Khurd",
    "lat": 18.91309975,
    "lon": 76.75570683410183
  },
  {
    "partId": 109827,
    "stateCode": "S13",
    "stateName": "Maharashtra",
    "districtCode": "S1317",
    "districtName": "Parbhani",
    "acNumber": 97,
    "acName": "Gangakhed",
    "partNumber": 230,
    "partName": "Wai Lasina",
    "lat": 18.91309975,
    "lon": 76.75570683410183
  },
  {
    "partId": 109828,
    "stateCode": "S13",
    "stateName": "Maharashtra",
    "districtCode": "S1317",
    "districtName": "Parbhani",
    "acNumber": 97,
    "acName": "Gangakhed",
    "partNumber": 231,
    "partName": "Pimpala Lokhande",
    "lat": 18.91309975,
    "lon": 76.75570683410183
  },
  {
    "partId": 109829,
    "stateCode": "S13",
    "stateName": "Maharashtra",
    "districtCode": "S1317",
    "districtName": "Parbhani",
    "acNumber": 97,
    "acName": "Gangakhed",
    "partNumber": 232,
    "partName": "Pimpala Lokhande",
    "lat": 18.91309975,
    "lon": 76.75570683410183
  },
  {
    "partId": 109830,
    "stateCode": "S13",
    "stateName": "Maharashtra",
    "districtCode": "S1317",
    "districtName": "Parbhani",
    "acNumber": 97,
    "acName": "Gangakhed",
    "partNumber": 233,
    "partName": "Pangra Lasina",
    "lat": 18.91309975,
    "lon": 76.75570683410183
  },
  {
    "partId": 109831,
    "stateCode": "S13",
    "stateName": "Maharashtra",
    "districtCode": "S1317",
    "districtName": "Parbhani",
    "acNumber": 97,
    "acName": "Gangakhed",
    "partNumber": 234,
    "partName": "Pangra Lasina",
    "lat": 18.91309975,
    "lon": 76.75570683410183
  },
  {
    "partId": 109832,
    "stateCode": "S13",
    "stateName": "Maharashtra",
    "districtCode": "S1317",
    "districtName": "Parbhani",
    "acNumber": 97,
    "acName": "Gangakhed",
    "partNumber": 235,
    "partName": "Gaur",
    "lat": 18.91309975,
    "lon": 76.75570683410183
  },
  {
    "partId": 109833,
    "stateCode": "S13",
    "stateName": "Maharashtra",
    "districtCode": "S1317",
    "districtName": "Parbhani",
    "acNumber": 97,
    "acName": "Gangakhed",
    "partNumber": 236,
    "partName": "Gaur",
    "lat": 18.91309975,
    "lon": 76.75570683410183
  },
  {
    "partId": 109834,
    "stateCode": "S13",
    "stateName": "Maharashtra",
    "districtCode": "S1317",
    "districtName": "Parbhani",
    "acNumber": 97,
    "acName": "Gangakhed",
    "partNumber": 237,
    "partName": "Gaur",
    "lat": 18.91309975,
    "lon": 76.75570683410183
  },
  {
    "partId": 109835,
    "stateCode": "S13",
    "stateName": "Maharashtra",
    "districtCode": "S1317",
    "districtName": "Parbhani",
    "acNumber": 97,
    "acName": "Gangakhed",
    "partNumber": 238,
    "partName": "Bhategaon",
    "lat": 19.1494377,
    "lon": 77.0563942
  },
  {
    "partId": 109836,
    "stateCode": "S13",
    "stateName": "Maharashtra",
    "districtCode": "S1317",
    "districtName": "Parbhani",
    "acNumber": 97,
    "acName": "Gangakhed",
    "partNumber": 239,
    "partName": "Ajdapur",
    "lat": 19.1436428,
    "lon": 77.0332146
  },
  {
    "partId": 109837,
    "stateCode": "S13",
    "stateName": "Maharashtra",
    "districtCode": "S1317",
    "districtName": "Parbhani",
    "acNumber": 97,
    "acName": "Gangakhed",
    "partNumber": 240,
    "partName": "Kantheshwar",
    "lat": 19.123031,
    "lon": 77.0397591
  },
  {
    "partId": 109838,
    "stateCode": "S13",
    "stateName": "Maharashtra",
    "districtCode": "S1317",
    "districtName": "Parbhani",
    "acNumber": 97,
    "acName": "Gangakhed",
    "partNumber": 241,
    "partName": "Mahagaon",
    "lat": 19.1216422,
    "lon": 76.9892692
  },
  {
    "partId": 109839,
    "stateCode": "S13",
    "stateName": "Maharashtra",
    "districtCode": "S1317",
    "districtName": "Parbhani",
    "acNumber": 97,
    "acName": "Gangakhed",
    "partNumber": 242,
    "partName": "Mahagaon",
    "lat": 19.1216422,
    "lon": 76.9892692
  },
  {
    "partId": 109840,
    "stateCode": "S13",
    "stateName": "Maharashtra",
    "districtCode": "S1317",
    "districtName": "Parbhani",
    "acNumber": 97,
    "acName": "Gangakhed",
    "partNumber": 243,
    "partName": "Digras",
    "lat": 18.91309975,
    "lon": 76.75570683410183
  },
  {
    "partId": 109841,
    "stateCode": "S13",
    "stateName": "Maharashtra",
    "districtCode": "S1317",
    "districtName": "Parbhani",
    "acNumber": 97,
    "acName": "Gangakhed",
    "partNumber": 244,
    "partName": "Digras",
    "lat": 18.91309975,
    "lon": 76.75570683410183
  },
  {
    "partId": 109842,
    "stateCode": "S13",
    "stateName": "Maharashtra",
    "districtCode": "S1317",
    "districtName": "Parbhani",
    "acNumber": 97,
    "acName": "Gangakhed",
    "partNumber": 245,
    "partName": "Farakanda",
    "lat": 18.91309975,
    "lon": 76.75570683410183
  },
  {
    "partId": 109843,
    "stateCode": "S13",
    "stateName": "Maharashtra",
    "districtCode": "S1317",
    "districtName": "Parbhani",
    "acNumber": 97,
    "acName": "Gangakhed",
    "partNumber": 246,
    "partName": "Farakanda",
    "lat": 18.91309975,
    "lon": 76.75570683410183
  },
  {
    "partId": 109844,
    "stateCode": "S13",
    "stateName": "Maharashtra",
    "districtCode": "S1317",
    "districtName": "Parbhani",
    "acNumber": 97,
    "acName": "Gangakhed",
    "partNumber": 247,
    "partName": "Gulakhand",
    "lat": 18.91309975,
    "lon": 76.75570683410183
  },
  {
    "partId": 109845,
    "stateCode": "S13",
    "stateName": "Maharashtra",
    "districtCode": "S1317",
    "districtName": "Parbhani",
    "acNumber": 97,
    "acName": "Gangakhed",
    "partNumber": 248,
    "partName": "Jawala pa",
    "lat": 18.91309975,
    "lon": 76.75570683410183
  },
  {
    "partId": 109846,
    "stateCode": "S13",
    "stateName": "Maharashtra",
    "districtCode": "S1317",
    "districtName": "Parbhani",
    "acNumber": 97,
    "acName": "Gangakhed",
    "partNumber": 249,
    "partName": "Wadi (khu )",
    "lat": 18.91309975,
    "lon": 76.75570683410183
  },
  {
    "partId": 109847,
    "stateCode": "S13",
    "stateName": "Maharashtra",
    "districtCode": "S1317",
    "districtName": "Parbhani",
    "acNumber": 97,
    "acName": "Gangakhed",
    "partNumber": 250,
    "partName": "Wadi (bu )",
    "lat": 19.7288972,
    "lon": 76.4755618
  },
  {
    "partId": 109848,
    "stateCode": "S13",
    "stateName": "Maharashtra",
    "districtCode": "S1317",
    "districtName": "Parbhani",
    "acNumber": 97,
    "acName": "Gangakhed",
    "partNumber": 251,
    "partName": "Sarfrajpur",
    "lat": 18.91309975,
    "lon": 76.75570683410183
  },
  {
    "partId": 109849,
    "stateCode": "S13",
    "stateName": "Maharashtra",
    "districtCode": "S1317",
    "districtName": "Parbhani",
    "acNumber": 97,
    "acName": "Gangakhed",
    "partNumber": 252,
    "partName": "Palam",
    "lat": 18.980182550000002,
    "lon": 76.95452309807402
  },
  {
    "partId": 109850,
    "stateCode": "S13",
    "stateName": "Maharashtra",
    "districtCode": "S1317",
    "districtName": "Parbhani",
    "acNumber": 97,
    "acName": "Gangakhed",
    "partNumber": 253,
    "partName": "Palam",
    "lat": 18.980182550000002,
    "lon": 76.95452309807402
  },
  {
    "partId": 109851,
    "stateCode": "S13",
    "stateName": "Maharashtra",
    "districtCode": "S1317",
    "districtName": "Parbhani",
    "acNumber": 97,
    "acName": "Gangakhed",
    "partNumber": 254,
    "partName": "Palam",
    "lat": 18.980182550000002,
    "lon": 76.95452309807402
  },
  {
    "partId": 109852,
    "stateCode": "S13",
    "stateName": "Maharashtra",
    "districtCode": "S1317",
    "districtName": "Parbhani",
    "acNumber": 97,
    "acName": "Gangakhed",
    "partNumber": 255,
    "partName": "Palam",
    "lat": 18.980182550000002,
    "lon": 76.95452309807402
  },
  {
    "partId": 109853,
    "stateCode": "S13",
    "stateName": "Maharashtra",
    "districtCode": "S1317",
    "districtName": "Parbhani",
    "acNumber": 97,
    "acName": "Gangakhed",
    "partNumber": 256,
    "partName": "Palam",
    "lat": 18.980182550000002,
    "lon": 76.95452309807402
  },
  {
    "partId": 109854,
    "stateCode": "S13",
    "stateName": "Maharashtra",
    "districtCode": "S1317",
    "districtName": "Parbhani",
    "acNumber": 97,
    "acName": "Gangakhed",
    "partNumber": 257,
    "partName": "Palam",
    "lat": 18.980182550000002,
    "lon": 76.95452309807402
  },
  {
    "partId": 109855,
    "stateCode": "S13",
    "stateName": "Maharashtra",
    "districtCode": "S1317",
    "districtName": "Parbhani",
    "acNumber": 97,
    "acName": "Gangakhed",
    "partNumber": 258,
    "partName": "Palam",
    "lat": 18.980182550000002,
    "lon": 76.95452309807402
  },
  {
    "partId": 109856,
    "stateCode": "S13",
    "stateName": "Maharashtra",
    "districtCode": "S1317",
    "districtName": "Parbhani",
    "acNumber": 97,
    "acName": "Gangakhed",
    "partNumber": 259,
    "partName": "Palam",
    "lat": 18.980182550000002,
    "lon": 76.95452309807402
  },
  {
    "partId": 109857,
    "stateCode": "S13",
    "stateName": "Maharashtra",
    "districtCode": "S1317",
    "districtName": "Parbhani",
    "acNumber": 97,
    "acName": "Gangakhed",
    "partNumber": 260,
    "partName": "Palam",
    "lat": 18.980182550000002,
    "lon": 76.95452309807402
  },
  {
    "partId": 109858,
    "stateCode": "S13",
    "stateName": "Maharashtra",
    "districtCode": "S1317",
    "districtName": "Parbhani",
    "acNumber": 97,
    "acName": "Gangakhed",
    "partNumber": 261,
    "partName": "Palam",
    "lat": 18.980182550000002,
    "lon": 76.95452309807402
  },
  {
    "partId": 109859,
    "stateCode": "S13",
    "stateName": "Maharashtra",
    "districtCode": "S1317",
    "districtName": "Parbhani",
    "acNumber": 97,
    "acName": "Gangakhed",
    "partNumber": 262,
    "partName": "Palam",
    "lat": 18.980182550000002,
    "lon": 76.95452309807402
  },
  {
    "partId": 109860,
    "stateCode": "S13",
    "stateName": "Maharashtra",
    "districtCode": "S1317",
    "districtName": "Parbhani",
    "acNumber": 97,
    "acName": "Gangakhed",
    "partNumber": 263,
    "partName": "Puyani",
    "lat": 18.91309975,
    "lon": 76.75570683410183
  },
  {
    "partId": 109861,
    "stateCode": "S13",
    "stateName": "Maharashtra",
    "districtCode": "S1317",
    "districtName": "Parbhani",
    "acNumber": 97,
    "acName": "Gangakhed",
    "partNumber": 264,
    "partName": "Adaganv",
    "lat": 18.91309975,
    "lon": 76.75570683410183
  },
  {
    "partId": 109862,
    "stateCode": "S13",
    "stateName": "Maharashtra",
    "districtCode": "S1317",
    "districtName": "Parbhani",
    "acNumber": 97,
    "acName": "Gangakhed",
    "partNumber": 265,
    "partName": "Teljapur",
    "lat": 18.9655318,
    "lon": 76.9379586
  },
  {
    "partId": 109863,
    "stateCode": "S13",
    "stateName": "Maharashtra",
    "districtCode": "S1317",
    "districtName": "Parbhani",
    "acNumber": 97,
    "acName": "Gangakhed",
    "partNumber": 266,
    "partName": "Navha",
    "lat": 18.91309975,
    "lon": 76.75570683410183
  },
  {
    "partId": 109864,
    "stateCode": "S13",
    "stateName": "Maharashtra",
    "districtCode": "S1317",
    "districtName": "Parbhani",
    "acNumber": 97,
    "acName": "Gangakhed",
    "partNumber": 267,
    "partName": "Navha",
    "lat": 18.91309975,
    "lon": 76.75570683410183
  },
  {
    "partId": 109865,
    "stateCode": "S13",
    "stateName": "Maharashtra",
    "districtCode": "S1317",
    "districtName": "Parbhani",
    "acNumber": 97,
    "acName": "Gangakhed",
    "partNumber": 268,
    "partName": "Vanabhujavadi",
    "lat": 18.91309975,
    "lon": 76.75570683410183
  },
  {
    "partId": 109866,
    "stateCode": "S13",
    "stateName": "Maharashtra",
    "districtCode": "S1317",
    "districtName": "Parbhani",
    "acNumber": 97,
    "acName": "Gangakhed",
    "partNumber": 269,
    "partName": "Chateri",
    "lat": 18.91309975,
    "lon": 76.75570683410183
  },
  {
    "partId": 109867,
    "stateCode": "S13",
    "stateName": "Maharashtra",
    "districtCode": "S1317",
    "districtName": "Parbhani",
    "acNumber": 97,
    "acName": "Gangakhed",
    "partNumber": 270,
    "partName": "Chatori",
    "lat": 18.929224,
    "lon": 76.8825012
  },
  {
    "partId": 109868,
    "stateCode": "S13",
    "stateName": "Maharashtra",
    "districtCode": "S1317",
    "districtName": "Parbhani",
    "acNumber": 97,
    "acName": "Gangakhed",
    "partNumber": 271,
    "partName": "Chatori",
    "lat": 18.929224,
    "lon": 76.8825012
  },
  {
    "partId": 109869,
    "stateCode": "S13",
    "stateName": "Maharashtra",
    "districtCode": "S1317",
    "districtName": "Parbhani",
    "acNumber": 97,
    "acName": "Gangakhed",
    "partNumber": 272,
    "partName": "Waranvanti",
    "lat": 18.91309975,
    "lon": 76.75570683410183
  },
  {
    "partId": 109870,
    "stateCode": "S13",
    "stateName": "Maharashtra",
    "districtCode": "S1317",
    "districtName": "Parbhani",
    "acNumber": 97,
    "acName": "Gangakhed",
    "partNumber": 273,
    "partName": "Bothi",
    "lat": 18.8891118,
    "lon": 76.8366837
  },
  {
    "partId": 109871,
    "stateCode": "S13",
    "stateName": "Maharashtra",
    "districtCode": "S1317",
    "districtName": "Parbhani",
    "acNumber": 97,
    "acName": "Gangakhed",
    "partNumber": 274,
    "partName": "Khandali",
    "lat": 18.9034851,
    "lon": 76.8130696
  },
  {
    "partId": 109872,
    "stateCode": "S13",
    "stateName": "Maharashtra",
    "districtCode": "S1317",
    "districtName": "Parbhani",
    "acNumber": 97,
    "acName": "Gangakhed",
    "partNumber": 275,
    "partName": "Limbevadi",
    "lat": 18.91309975,
    "lon": 76.75570683410183
  },
  {
    "partId": 109873,
    "stateCode": "S13",
    "stateName": "Maharashtra",
    "districtCode": "S1317",
    "districtName": "Parbhani",
    "acNumber": 97,
    "acName": "Gangakhed",
    "partNumber": 276,
    "partName": "Pandharaganv",
    "lat": 18.91309975,
    "lon": 76.75570683410183
  },
  {
    "partId": 109874,
    "stateCode": "S13",
    "stateName": "Maharashtra",
    "districtCode": "S1317",
    "districtName": "Parbhani",
    "acNumber": 97,
    "acName": "Gangakhed",
    "partNumber": 277,
    "partName": "Makhani",
    "lat": 18.8838478,
    "lon": 76.7203429
  },
  {
    "partId": 109875,
    "stateCode": "S13",
    "stateName": "Maharashtra",
    "districtCode": "S1317",
    "districtName": "Parbhani",
    "acNumber": 97,
    "acName": "Gangakhed",
    "partNumber": 278,
    "partName": "Makhani",
    "lat": 18.8838478,
    "lon": 76.7203429
  },
  {
    "partId": 109876,
    "stateCode": "S13",
    "stateName": "Maharashtra",
    "districtCode": "S1317",
    "districtName": "Parbhani",
    "acNumber": 97,
    "acName": "Gangakhed",
    "partNumber": 279,
    "partName": "Akoli",
    "lat": 18.97900625281863,
    "lon": 76.8040571034216
  },
  {
    "partId": 109877,
    "stateCode": "S13",
    "stateName": "Maharashtra",
    "districtCode": "S1317",
    "districtName": "Parbhani",
    "acNumber": 97,
    "acName": "Gangakhed",
    "partNumber": 280,
    "partName": "Akoli",
    "lat": 19.5935025,
    "lon": 76.6602373
  },
  {
    "partId": 109878,
    "stateCode": "S13",
    "stateName": "Maharashtra",
    "districtCode": "S1317",
    "districtName": "Parbhani",
    "acNumber": 97,
    "acName": "Gangakhed",
    "partNumber": 281,
    "partName": "Pokharni",
    "lat": 19.114749,
    "lon": 76.7072725
  },
  {
    "partId": 109879,
    "stateCode": "S13",
    "stateName": "Maharashtra",
    "districtCode": "S1317",
    "districtName": "Parbhani",
    "acNumber": 97,
    "acName": "Gangakhed",
    "partNumber": 282,
    "partName": "Pokharni",
    "lat": 19.114749,
    "lon": 76.7072725
  },
  {
    "partId": 109880,
    "stateCode": "S13",
    "stateName": "Maharashtra",
    "districtCode": "S1317",
    "districtName": "Parbhani",
    "acNumber": 97,
    "acName": "Gangakhed",
    "partNumber": 283,
    "partName": "Khandaganv",
    "lat": 18.91309975,
    "lon": 76.75570683410183
  },
  {
    "partId": 109881,
    "stateCode": "S13",
    "stateName": "Maharashtra",
    "districtCode": "S1317",
    "districtName": "Parbhani",
    "acNumber": 97,
    "acName": "Gangakhed",
    "partNumber": 284,
    "partName": "Khandaganv",
    "lat": 18.91309975,
    "lon": 76.75570683410183
  },
  {
    "partId": 109882,
    "stateCode": "S13",
    "stateName": "Maharashtra",
    "districtCode": "S1317",
    "districtName": "Parbhani",
    "acNumber": 97,
    "acName": "Gangakhed",
    "partNumber": 285,
    "partName": "Harangul",
    "lat": 18.9065301,
    "lon": 76.6504526
  },
  {
    "partId": 109883,
    "stateCode": "S13",
    "stateName": "Maharashtra",
    "districtCode": "S1317",
    "districtName": "Parbhani",
    "acNumber": 97,
    "acName": "Gangakhed",
    "partNumber": 286,
    "partName": "Shendagan",
    "lat": 18.91309975,
    "lon": 76.75570683410183
  },
  {
    "partId": 109884,
    "stateCode": "S13",
    "stateName": "Maharashtra",
    "districtCode": "S1317",
    "districtName": "Parbhani",
    "acNumber": 97,
    "acName": "Gangakhed",
    "partNumber": 287,
    "partName": "Ukhali (khu )",
    "lat": 18.91309975,
    "lon": 76.75570683410183
  },
  {
    "partId": 109885,
    "stateCode": "S13",
    "stateName": "Maharashtra",
    "districtCode": "S1317",
    "districtName": "Parbhani",
    "acNumber": 97,
    "acName": "Gangakhed",
    "partNumber": 288,
    "partName": "Ukhali (khu )",
    "lat": 18.91309975,
    "lon": 76.75570683410183
  },
  {
    "partId": 109886,
    "stateCode": "S13",
    "stateName": "Maharashtra",
    "districtCode": "S1317",
    "districtName": "Parbhani",
    "acNumber": 97,
    "acName": "Gangakhed",
    "partNumber": 289,
    "partName": "Dhanagaramoha",
    "lat": 18.91309975,
    "lon": 76.75570683410183
  },
  {
    "partId": 109887,
    "stateCode": "S13",
    "stateName": "Maharashtra",
    "districtCode": "S1317",
    "districtName": "Parbhani",
    "acNumber": 97,
    "acName": "Gangakhed",
    "partNumber": 290,
    "partName": "Dongaraganv (she )",
    "lat": 18.91309975,
    "lon": 76.75570683410183
  },
  {
    "partId": 109888,
    "stateCode": "S13",
    "stateName": "Maharashtra",
    "districtCode": "S1317",
    "districtName": "Parbhani",
    "acNumber": 97,
    "acName": "Gangakhed",
    "partNumber": 291,
    "partName": "Dongaraganv (she )",
    "lat": 18.91309975,
    "lon": 76.75570683410183
  },
  {
    "partId": 109889,
    "stateCode": "S13",
    "stateName": "Maharashtra",
    "districtCode": "S1317",
    "districtName": "Parbhani",
    "acNumber": 97,
    "acName": "Gangakhed",
    "partNumber": 292,
    "partName": "Dongarjawla",
    "lat": 18.91309975,
    "lon": 76.75570683410183
  },
  {
    "partId": 109890,
    "stateCode": "S13",
    "stateName": "Maharashtra",
    "districtCode": "S1317",
    "districtName": "Parbhani",
    "acNumber": 97,
    "acName": "Gangakhed",
    "partNumber": 293,
    "partName": "Sirsam (she)",
    "lat": 18.91309975,
    "lon": 76.75570683410183
  },
  {
    "partId": 109891,
    "stateCode": "S13",
    "stateName": "Maharashtra",
    "districtCode": "S1317",
    "districtName": "Parbhani",
    "acNumber": 97,
    "acName": "Gangakhed",
    "partNumber": 294,
    "partName": "Borda",
    "lat": 18.8246199,
    "lon": 76.7350816
  },
  {
    "partId": 109892,
    "stateCode": "S13",
    "stateName": "Maharashtra",
    "districtCode": "S1317",
    "districtName": "Parbhani",
    "acNumber": 97,
    "acName": "Gangakhed",
    "partNumber": 295,
    "partName": "Borda",
    "lat": 18.8246199,
    "lon": 76.7350816
  },
  {
    "partId": 109893,
    "stateCode": "S13",
    "stateName": "Maharashtra",
    "districtCode": "S1317",
    "districtName": "Parbhani",
    "acNumber": 97,
    "acName": "Gangakhed",
    "partNumber": 296,
    "partName": "Borda",
    "lat": 18.8246199,
    "lon": 76.7350816
  },
  {
    "partId": 109894,
    "stateCode": "S13",
    "stateName": "Maharashtra",
    "districtCode": "S1317",
    "districtName": "Parbhani",
    "acNumber": 97,
    "acName": "Gangakhed",
    "partNumber": 297,
    "partName": "Suppa (j )",
    "lat": 18.91309975,
    "lon": 76.75570683410183
  },
  {
    "partId": 109895,
    "stateCode": "S13",
    "stateName": "Maharashtra",
    "districtCode": "S1317",
    "districtName": "Parbhani",
    "acNumber": 97,
    "acName": "Gangakhed",
    "partNumber": 298,
    "partName": "Vaghadara",
    "lat": 18.91309975,
    "lon": 76.75570683410183
  },
  {
    "partId": 109896,
    "stateCode": "S13",
    "stateName": "Maharashtra",
    "districtCode": "S1317",
    "districtName": "Parbhani",
    "acNumber": 97,
    "acName": "Gangakhed",
    "partNumber": 299,
    "partName": "Khokalevadi",
    "lat": 18.91309975,
    "lon": 76.75570683410183
  },
  {
    "partId": 109897,
    "stateCode": "S13",
    "stateName": "Maharashtra",
    "districtCode": "S1317",
    "districtName": "Parbhani",
    "acNumber": 97,
    "acName": "Gangakhed",
    "partNumber": 300,
    "partName": "Ghatangra",
    "lat": 18.8523508,
    "lon": 76.8250215
  },
  {
    "partId": 109898,
    "stateCode": "S13",
    "stateName": "Maharashtra",
    "districtCode": "S1317",
    "districtName": "Parbhani",
    "acNumber": 97,
    "acName": "Gangakhed",
    "partNumber": 301,
    "partName": "Ghatangra",
    "lat": 18.8523508,
    "lon": 76.8250215
  },
  {
    "partId": 109899,
    "stateCode": "S13",
    "stateName": "Maharashtra",
    "districtCode": "S1317",
    "districtName": "Parbhani",
    "acNumber": 97,
    "acName": "Gangakhed",
    "partNumber": 302,
    "partName": "Gunjeganv",
    "lat": 18.97900625281863,
    "lon": 76.8040571034216
  },
  {
    "partId": 109900,
    "stateCode": "S13",
    "stateName": "Maharashtra",
    "districtCode": "S1317",
    "districtName": "Parbhani",
    "acNumber": 97,
    "acName": "Gangakhed",
    "partNumber": 303,
    "partName": "Gunjeganv",
    "lat": 18.97900625281863,
    "lon": 76.8040571034216
  },
  {
    "partId": 109901,
    "stateCode": "S13",
    "stateName": "Maharashtra",
    "districtCode": "S1317",
    "districtName": "Parbhani",
    "acNumber": 97,
    "acName": "Gangakhed",
    "partNumber": 304,
    "partName": "Ukkadagaon",
    "lat": 18.97900625281863,
    "lon": 76.8040571034216
  },
  {
    "partId": 109902,
    "stateCode": "S13",
    "stateName": "Maharashtra",
    "districtCode": "S1317",
    "districtName": "Parbhani",
    "acNumber": 97,
    "acName": "Gangakhed",
    "partNumber": 305,
    "partName": "Bhalakudaki",
    "lat": 18.97900625281863,
    "lon": 76.8040571034216
  },
  {
    "partId": 109903,
    "stateCode": "S13",
    "stateName": "Maharashtra",
    "districtCode": "S1317",
    "districtName": "Parbhani",
    "acNumber": 97,
    "acName": "Gangakhed",
    "partNumber": 306,
    "partName": "Konneravadi",
    "lat": 18.91309975,
    "lon": 76.75570683410183
  },
  {
    "partId": 109904,
    "stateCode": "S13",
    "stateName": "Maharashtra",
    "districtCode": "S1317",
    "districtName": "Parbhani",
    "acNumber": 97,
    "acName": "Gangakhed",
    "partNumber": 307,
    "partName": "Anandavadi",
    "lat": 18.91309975,
    "lon": 76.75570683410183
  },
  {
    "partId": 109905,
    "stateCode": "S13",
    "stateName": "Maharashtra",
    "districtCode": "S1317",
    "districtName": "Parbhani",
    "acNumber": 97,
    "acName": "Gangakhed",
    "partNumber": 308,
    "partName": "Khadi",
    "lat": 18.9281888,
    "lon": 76.9185662
  },
  {
    "partId": 109906,
    "stateCode": "S13",
    "stateName": "Maharashtra",
    "districtCode": "S1317",
    "districtName": "Parbhani",
    "acNumber": 97,
    "acName": "Gangakhed",
    "partNumber": 309,
    "partName": "Khadi",
    "lat": 18.9281888,
    "lon": 76.9185662
  },
  {
    "partId": 109907,
    "stateCode": "S13",
    "stateName": "Maharashtra",
    "districtCode": "S1317",
    "districtName": "Parbhani",
    "acNumber": 97,
    "acName": "Gangakhed",
    "partNumber": 310,
    "partName": "Khoras",
    "lat": 18.9535789,
    "lon": 76.9562244
  },
  {
    "partId": 109908,
    "stateCode": "S13",
    "stateName": "Maharashtra",
    "districtCode": "S1317",
    "districtName": "Parbhani",
    "acNumber": 97,
    "acName": "Gangakhed",
    "partNumber": 311,
    "partName": "Pethapimpalaganv",
    "lat": 18.91309975,
    "lon": 76.75570683410183
  },
  {
    "partId": 109909,
    "stateCode": "S13",
    "stateName": "Maharashtra",
    "districtCode": "S1317",
    "districtName": "Parbhani",
    "acNumber": 97,
    "acName": "Gangakhed",
    "partNumber": 312,
    "partName": "Pethapimpalaganv",
    "lat": 18.91309975,
    "lon": 76.75570683410183
  },
  {
    "partId": 109910,
    "stateCode": "S13",
    "stateName": "Maharashtra",
    "districtCode": "S1317",
    "districtName": "Parbhani",
    "acNumber": 97,
    "acName": "Gangakhed",
    "partNumber": 313,
    "partName": "Peth Shivani",
    "lat": 19.0008173,
    "lon": 77.0158017
  },
  {
    "partId": 109911,
    "stateCode": "S13",
    "stateName": "Maharashtra",
    "districtCode": "S1317",
    "districtName": "Parbhani",
    "acNumber": 97,
    "acName": "Gangakhed",
    "partNumber": 314,
    "partName": "Peth Shivani",
    "lat": 19.0008173,
    "lon": 77.0158017
  },
  {
    "partId": 109912,
    "stateCode": "S13",
    "stateName": "Maharashtra",
    "districtCode": "S1317",
    "districtName": "Parbhani",
    "acNumber": 97,
    "acName": "Gangakhed",
    "partNumber": 315,
    "partName": "Peth Shivani",
    "lat": 19.0008173,
    "lon": 77.0158017
  },
  {
    "partId": 109913,
    "stateCode": "S13",
    "stateName": "Maharashtra",
    "districtCode": "S1317",
    "districtName": "Parbhani",
    "acNumber": 97,
    "acName": "Gangakhed",
    "partNumber": 316,
    "partName": "Shekharajur",
    "lat": 18.91309975,
    "lon": 76.75570683410183
  },
  {
    "partId": 109914,
    "stateCode": "S13",
    "stateName": "Maharashtra",
    "districtCode": "S1317",
    "districtName": "Parbhani",
    "acNumber": 97,
    "acName": "Gangakhed",
    "partNumber": 317,
    "partName": "Shekharajur",
    "lat": 18.91309975,
    "lon": 76.75570683410183
  },
  {
    "partId": 109915,
    "stateCode": "S13",
    "stateName": "Maharashtra",
    "districtCode": "S1317",
    "districtName": "Parbhani",
    "acNumber": 97,
    "acName": "Gangakhed",
    "partNumber": 318,
    "partName": "Barabadi",
    "lat": 18.97900625281863,
    "lon": 76.8040571034216
  },
  {
    "partId": 109916,
    "stateCode": "S13",
    "stateName": "Maharashtra",
    "districtCode": "S1317",
    "districtName": "Parbhani",
    "acNumber": 97,
    "acName": "Gangakhed",
    "partNumber": 319,
    "partName": "Pimpalgaon Mu.",
    "lat": 18.91309975,
    "lon": 76.75570683410183
  },
  {
    "partId": 109917,
    "stateCode": "S13",
    "stateName": "Maharashtra",
    "districtCode": "S1317",
    "districtName": "Parbhani",
    "acNumber": 97,
    "acName": "Gangakhed",
    "partNumber": 320,
    "partName": "Pimpalgaon",
    "lat": 19.0817868,
    "lon": 77.0476797
  },
  {
    "partId": 109918,
    "stateCode": "S13",
    "stateName": "Maharashtra",
    "districtCode": "S1317",
    "districtName": "Parbhani",
    "acNumber": 97,
    "acName": "Gangakhed",
    "partNumber": 321,
    "partName": "Savangi  Thadi",
    "lat": 18.91309975,
    "lon": 76.75570683410183
  },
  {
    "partId": 109919,
    "stateCode": "S13",
    "stateName": "Maharashtra",
    "districtCode": "S1317",
    "districtName": "Parbhani",
    "acNumber": 97,
    "acName": "Gangakhed",
    "partNumber": 322,
    "partName": "Bhogav",
    "lat": 18.91309975,
    "lon": 76.75570683410183
  },
  {
    "partId": 109920,
    "stateCode": "S13",
    "stateName": "Maharashtra",
    "districtCode": "S1317",
    "districtName": "Parbhani",
    "acNumber": 97,
    "acName": "Gangakhed",
    "partNumber": 323,
    "partName": "Dhangar Takali",
    "lat": 18.91309975,
    "lon": 76.75570683410183
  },
  {
    "partId": 109921,
    "stateCode": "S13",
    "stateName": "Maharashtra",
    "districtCode": "S1317",
    "districtName": "Parbhani",
    "acNumber": 97,
    "acName": "Gangakhed",
    "partNumber": 324,
    "partName": "Dhangar Takali",
    "lat": 18.91309975,
    "lon": 76.75570683410183
  },
  {
    "partId": 109922,
    "stateCode": "S13",
    "stateName": "Maharashtra",
    "districtCode": "S1317",
    "districtName": "Parbhani",
    "acNumber": 97,
    "acName": "Gangakhed",
    "partNumber": 325,
    "partName": "Dhangar Takali",
    "lat": 18.91309975,
    "lon": 76.75570683410183
  },
  {
    "partId": 109923,
    "stateCode": "S13",
    "stateName": "Maharashtra",
    "districtCode": "S1317",
    "districtName": "Parbhani",
    "acNumber": 97,
    "acName": "Gangakhed",
    "partNumber": 326,
    "partName": "Sonna",
    "lat": 19.4628747,
    "lon": 76.8728775
  },
  {
    "partId": 109924,
    "stateCode": "S13",
    "stateName": "Maharashtra",
    "districtCode": "S1317",
    "districtName": "Parbhani",
    "acNumber": 97,
    "acName": "Gangakhed",
    "partNumber": 327,
    "partName": "Narhapur",
    "lat": 18.91309975,
    "lon": 76.75570683410183
  },
  {
    "partId": 109925,
    "stateCode": "S13",
    "stateName": "Maharashtra",
    "districtCode": "S1317",
    "districtName": "Parbhani",
    "acNumber": 97,
    "acName": "Gangakhed",
    "partNumber": 328,
    "partName": "Pimpalgaon Likha",
    "lat": 18.91309975,
    "lon": 76.75570683410183
  },
  {
    "partId": 109926,
    "stateCode": "S13",
    "stateName": "Maharashtra",
    "districtCode": "S1317",
    "districtName": "Parbhani",
    "acNumber": 97,
    "acName": "Gangakhed",
    "partNumber": 329,
    "partName": "Changephal",
    "lat": 18.97900625281863,
    "lon": 76.8040571034216
  },
  {
    "partId": 109927,
    "stateCode": "S13",
    "stateName": "Maharashtra",
    "districtCode": "S1317",
    "districtName": "Parbhani",
    "acNumber": 97,
    "acName": "Gangakhed",
    "partNumber": 330,
    "partName": "Chudawa",
    "lat": 19.1797966,
    "lon": 77.1164523
  },
  {
    "partId": 109928,
    "stateCode": "S13",
    "stateName": "Maharashtra",
    "districtCode": "S1317",
    "districtName": "Parbhani",
    "acNumber": 97,
    "acName": "Gangakhed",
    "partNumber": 331,
    "partName": "Chudawa",
    "lat": 18.91309975,
    "lon": 76.75570683410183
  },
  {
    "partId": 109929,
    "stateCode": "S13",
    "stateName": "Maharashtra",
    "districtCode": "S1317",
    "districtName": "Parbhani",
    "acNumber": 97,
    "acName": "Gangakhed",
    "partNumber": 332,
    "partName": "Chudawa",
    "lat": 19.1797966,
    "lon": 77.1164523
  },
  {
    "partId": 109930,
    "stateCode": "S13",
    "stateName": "Maharashtra",
    "districtCode": "S1317",
    "districtName": "Parbhani",
    "acNumber": 97,
    "acName": "Gangakhed",
    "partNumber": 333,
    "partName": "Rupla",
    "lat": 18.91309975,
    "lon": 76.75570683410183
  },
  {
    "partId": 109931,
    "stateCode": "S13",
    "stateName": "Maharashtra",
    "districtCode": "S1317",
    "districtName": "Parbhani",
    "acNumber": 97,
    "acName": "Gangakhed",
    "partNumber": 334,
    "partName": "Sonkhed",
    "lat": 18.91309975,
    "lon": 76.75570683410183
  },
  {
    "partId": 109932,
    "stateCode": "S13",
    "stateName": "Maharashtra",
    "districtCode": "S1317",
    "districtName": "Parbhani",
    "acNumber": 97,
    "acName": "Gangakhed",
    "partNumber": 335,
    "partName": "Regaon",
    "lat": 18.91309975,
    "lon": 76.75570683410183
  },
  {
    "partId": 109933,
    "stateCode": "S13",
    "stateName": "Maharashtra",
    "districtCode": "S1317",
    "districtName": "Parbhani",
    "acNumber": 97,
    "acName": "Gangakhed",
    "partNumber": 336,
    "partName": "Hiwara Bu",
    "lat": 18.91309975,
    "lon": 76.75570683410183
  },