[
  {
    "partId": 138167,
    "stateCode": "S13",
    "stateName": "Maharashtra",
    "districtCode": "S1325",
    "districtName": "Pune",
    "acNumber": 196,
    "acName": "Ambegaon",
    "partNumber": 1,
    "partName": "Ahupe",
    "lat": 19.1780037,
    "lon": 73.5729718
  },
  {
    "partId": 138168,
    "stateCode": "S13",
    "stateName": "Maharashtra",
    "districtCode": "S1325",
    "districtName": "Pune",
    "acNumber": 196,
    "acName": "Ambegaon",
    "partNumber": 2,
    "partName": "Pimparagane",
    "lat": 19.03169355,
    "lon": 73.95003011520785
  },
  {
    "partId": 138169,
    "stateCode": "S13",
    "stateName": "Maharashtra",
    "districtCode": "S1325",
    "districtName": "Pune",
    "acNumber": 196,
    "acName": "Ambegaon",
    "partNumber": 3,
    "partName": "Don Sadakechiwadi",
    "lat": 19.03169355,
    "lon": 73.95003011520785
  },
  {
    "partId": 138170,
    "stateCode": "S13",
    "stateName": "Maharashtra",
    "districtCode": "S1325",
    "districtName": "Pune",
    "acNumber": 196,
    "acName": "Ambegaon",
    "partNumber": 4,
    "partName": "Tirapad",
    "lat": 19.03169355,
    "lon": 73.95003011520785
  },
  {
    "partId": 138171,
    "stateCode": "S13",
    "stateName": "Maharashtra",
    "districtCode": "S1325",
    "districtName": "Pune",
    "acNumber": 196,
    "acName": "Ambegaon",
    "partNumber": 5,
    "partName": "Nhaved",
    "lat": 19.1637439,
    "lon": 73.6160363
  },
  {
    "partId": 138172,
    "stateCode": "S13",
    "stateName": "Maharashtra",
    "districtCode": "S1325",
    "districtName": "Pune",
    "acNumber": 196,
    "acName": "Ambegaon",
    "partNumber": 6,
    "partName": "Nanavade",
    "lat": 19.03169355,
    "lon": 73.95003011520785
  },
  {
    "partId": 138173,
    "stateCode": "S13",
    "stateName": "Maharashtra",
    "districtCode": "S1325",
    "districtName": "Pune",
    "acNumber": 196,
    "acName": "Ambegaon",
    "partNumber": 7,
    "partName": "Asane",
    "lat": 19.1627551,
    "lon": 73.6668642
  },
  {
    "partId": 138174,
    "stateCode": "S13",
    "stateName": "Maharashtra",
    "districtCode": "S1325",
    "districtName": "Pune",
    "acNumber": 196,
    "acName": "Ambegaon",
    "partNumber": 8,
    "partName": "Malin",
    "lat": 19.1608672,
    "lon": 73.6885014
  },
  {
    "partId": 138175,
    "stateCode": "S13",
    "stateName": "Maharashtra",
    "districtCode": "S1325",
    "districtName": "Pune",
    "acNumber": 196,
    "acName": "Ambegaon",
    "partNumber": 9,
    "partName": "Adiware",
    "lat": 19.1540941,
    "lon": 73.6867791
  },
  {
    "partId": 138176,
    "stateCode": "S13",
    "stateName": "Maharashtra",
    "districtCode": "S1325",
    "districtName": "Pune",
    "acNumber": 196,
    "acName": "Ambegaon",
    "partNumber": 10,
    "partName": "Varasavane",
    "lat": 19.03169355,
    "lon": 73.95003011520785
  },
  {
    "partId": 138177,
    "stateCode": "S13",
    "stateName": "Maharashtra",
    "districtCode": "S1325",
    "districtName": "Pune",
    "acNumber": 196,
    "acName": "Ambegaon",
    "partNumber": 11,
    "partName": "Borghar",
    "lat": 19.03169355,
    "lon": 73.95003011520785
  },
  {
    "partId": 138178,
    "stateCode": "S13",
    "stateName": "Maharashtra",
    "districtCode": "S1325",
    "districtName": "Pune",
    "acNumber": 196,
    "acName": "Ambegaon",
    "partNumber": 12,
    "partName": "Umbarwadi (Borghar)",
    "lat": 19.03169355,
    "lon": 73.95003011520785
  },
  {
    "partId": 138179,
    "stateCode": "S13",
    "stateName": "Maharashtra",
    "districtCode": "S1325",
    "districtName": "Pune",
    "acNumber": 196,
    "acName": "Ambegaon",
    "partNumber": 13,
    "partName": "Panchale Budruk",
    "lat": 19.03169355,
    "lon": 73.95003011520785
  },
  {
    "partId": 138180,
    "stateCode": "S13",
    "stateName": "Maharashtra",
    "districtCode": "S1325",
    "districtName": "Pune",
    "acNumber": 196,
    "acName": "Ambegaon",
    "partNumber": 14,
    "partName": "Kondhare",
    "lat": 19.1491862,
    "lon": 73.6798134
  },
  {
    "partId": 138181,
    "stateCode": "S13",
    "stateName": "Maharashtra",
    "districtCode": "S1325",
    "districtName": "Pune",
    "acNumber": 196,
    "acName": "Ambegaon",
    "partNumber": 15,
    "partName": "Patan",
    "lat": 18.73885695,
    "lon": 73.49017967703324
  },
  {
    "partId": 138182,
    "stateCode": "S13",
    "stateName": "Maharashtra",
    "districtCode": "S1325",
    "districtName": "Pune",
    "acNumber": 196,
    "acName": "Ambegaon",
    "partNumber": 16,
    "partName": "Kondhawal",
    "lat": 19.03169355,
    "lon": 73.95003011520785
  },
  {
    "partId": 138183,
    "stateCode": "S13",
    "stateName": "Maharashtra",
    "districtCode": "S1325",
    "districtName": "Pune",
    "acNumber": 196,
    "acName": "Ambegaon",
    "partNumber": 17,
    "partName": "Pimpari",
    "lat": 18.9302555,
    "lon": 73.5385117
  },
  {
    "partId": 138184,
    "stateCode": "S13",
    "stateName": "Maharashtra",
    "districtCode": "S1325",
    "districtName": "Pune",
    "acNumber": 196,
    "acName": "Ambegaon",
    "partNumber": 18,
    "partName": "Kushire Budruk",
    "lat": 19.03169355,
    "lon": 73.95003011520785
  },
  {
    "partId": 138185,
    "stateCode": "S13",
    "stateName": "Maharashtra",
    "districtCode": "S1325",
    "districtName": "Pune",
    "acNumber": 196,
    "acName": "Ambegaon",
    "partNumber": 19,
    "partName": "Gadekarwadi",
    "lat": 19.03169355,
    "lon": 73.95003011520785
  },
  {
    "partId": 138186,
    "stateCode": "S13",
    "stateName": "Maharashtra",
    "districtCode": "S1325",
    "districtName": "Pune",
    "acNumber": 196,
    "acName": "Ambegaon",
    "partNumber": 20,
    "partName": "Fulvade",
    "lat": 19.03169355,
    "lon": 73.95003011520785
  },
  {
    "partId": 138187,
    "stateCode": "S13",
    "stateName": "Maharashtra",
    "districtCode": "S1325",
    "districtName": "Pune",
    "acNumber": 196,
    "acName": "Ambegaon",
    "partNumber": 21,
    "partName": "Kolatavade",
    "lat": 19.03169355,
    "lon": 73.95003011520785
  },
  {
    "partId": 138188,
    "stateCode": "S13",
    "stateName": "Maharashtra",
    "districtCode": "S1325",
    "districtName": "Pune",
    "acNumber": 196,
    "acName": "Ambegaon",
    "partNumber": 22,
    "partName": "Jambhori",
    "lat": 19.03169355,
    "lon": 73.95003011520785
  },
  {
    "partId": 138189,
    "stateCode": "S13",
    "stateName": "Maharashtra",
    "districtCode": "S1325",
    "districtName": "Pune",
    "acNumber": 196,
    "acName": "Ambegaon",
    "partNumber": 23,
    "partName": "Jambhori",
    "lat": 19.03169355,
    "lon": 73.95003011520785
  },
  {
    "partId": 138190,
    "stateCode": "S13",
    "stateName": "Maharashtra",
    "districtCode": "S1325",
    "districtName": "Pune",
    "acNumber": 196,
    "acName": "Ambegaon",
    "partNumber": 24,
    "partName": "Falode",
    "lat": 19.03169355,
    "lon": 73.95003011520785
  },
  {
    "partId": 138191,
    "stateCode": "S13",
    "stateName": "Maharashtra",
    "districtCode": "S1325",
    "districtName": "Pune",
    "acNumber": 196,
    "acName": "Ambegaon",
    "partNumber": 25,
    "partName": "Rajpur",
    "lat": 19.0900366,
    "lon": 73.6089702
  },
  {
    "partId": 138192,
    "stateCode": "S13",
    "stateName": "Maharashtra",
    "districtCode": "S1325",
    "districtName": "Pune",
    "acNumber": 196,
    "acName": "Ambegaon",
    "partNumber": 26,
    "partName": "Rajevadi",
    "lat": 18.3843334,
    "lon": 74.155524
  },
  {
    "partId": 138193,
    "stateCode": "S13",
    "stateName": "Maharashtra",
    "districtCode": "S1325",
    "districtName": "Pune",
    "acNumber": 196,
    "acName": "Ambegaon",
    "partNumber": 27,
    "partName": "Dimbhe Budruk",
    "lat": 19.0940141,
    "lon": 73.7388101
  },
  {
    "partId": 138194,
    "stateCode": "S13",
    "stateName": "Maharashtra",
    "districtCode": "S1325",
    "districtName": "Pune",
    "acNumber": 196,
    "acName": "Ambegaon",
    "partNumber": 28,
    "partName": "Chapatewadi",
    "lat": 19.03169355,
    "lon": 73.95003011520785
  },
  {
    "partId": 138195,
    "stateCode": "S13",
    "stateName": "Maharashtra",
    "districtCode": "S1325",
    "districtName": "Pune",
    "acNumber": 196,
    "acName": "Ambegaon",
    "partNumber": 29,
    "partName": "Gangapur Khurd",
    "lat": 19.1075665,
    "lon": 73.7973011
  },
  {
    "partId": 138196,
    "stateCode": "S13",
    "stateName": "Maharashtra",
    "districtCode": "S1325",
    "districtName": "Pune",
    "acNumber": 196,
    "acName": "Ambegaon",
    "partNumber": 30,
    "partName": "Amondi",
    "lat": 19.03169355,
    "lon": 73.95003011520785
  },
  {
    "partId": 138197,
    "stateCode": "S13",
    "stateName": "Maharashtra",
    "districtCode": "S1325",
    "districtName": "Pune",
    "acNumber": 196,
    "acName": "Ambegaon",
    "partNumber": 31,
    "partName": "Falakewadi",
    "lat": 19.03169355,
    "lon": 73.95003011520785
  },
  {
    "partId": 138198,
    "stateCode": "S13",
    "stateName": "Maharashtra",
    "districtCode": "S1325",
    "districtName": "Pune",
    "acNumber": 196,
    "acName": "Ambegaon",
    "partNumber": 32,
    "partName": "Giravali",
    "lat": 19.03169355,
    "lon": 73.95003011520785
  },
  {
    "partId": 138199,
    "stateCode": "S13",
    "stateName": "Maharashtra",
    "districtCode": "S1325",
    "districtName": "Pune",
    "acNumber": 196,
    "acName": "Ambegaon",
    "partNumber": 33,
    "partName": "Girvali",
    "lat": 19.03169355,
    "lon": 73.95003011520785
  },
  {
    "partId": 138200,
    "stateCode": "S13",
    "stateName": "Maharashtra",
    "districtCode": "S1325",
    "districtName": "Pune",
    "acNumber": 196,
    "acName": "Ambegaon",
    "partNumber": 34,
    "partName": "Gangapur Budruk",
    "lat": 19.03169355,
    "lon": 73.95003011520785
  },
  {
    "partId": 138201,
    "stateCode": "S13",
    "stateName": "Maharashtra",
    "districtCode": "S1325",
    "districtName": "Pune",
    "acNumber": 196,
    "acName": "Ambegaon",
    "partNumber": 35,
    "partName": "Gangapur Budruk",
    "lat": 19.03169355,
    "lon": 73.95003011520785
  },
  {
    "partId": 138202,
    "stateCode": "S13",
    "stateName": "Maharashtra",
    "districtCode": "S1325",
    "districtName": "Pune",
    "acNumber": 196,
    "acName": "Ambegaon",
    "partNumber": 36,
    "partName": "Shinoli",
    "lat": 19.0773359,
    "lon": 73.7772796229501
  },
  {
    "partId": 138203,
    "stateCode": "S13",
    "stateName": "Maharashtra",
    "districtCode": "S1325",
    "districtName": "Pune",
    "acNumber": 196,
    "acName": "Ambegaon",
    "partNumber": 37,
    "partName": "Shinoli",
    "lat": 19.0773359,
    "lon": 73.7772796229501
  },
  {
    "partId": 138204,
    "stateCode": "S13",
    "stateName": "Maharashtra",
    "districtCode": "S1325",
    "districtName": "Pune",
    "acNumber": 196,
    "acName": "Ambegaon",
    "partNumber": 38,
    "partName": "Shinoli",
    "lat": 19.0773359,
    "lon": 73.7772796229501
  },
  {
    "partId": 138205,
    "stateCode": "S13",
    "stateName": "Maharashtra",
    "districtCode": "S1325",
    "districtName": "Pune",
    "acNumber": 196,
    "acName": "Ambegaon",
    "partNumber": 39,
    "partName": "Kanse",
    "lat": 19.03169355,
    "lon": 73.95003011520785
  },
  {
    "partId": 138206,
    "stateCode": "S13",
    "stateName": "Maharashtra",
    "districtCode": "S1325",
    "districtName": "Pune",
    "acNumber": 196,
    "acName": "Ambegaon",
    "partNumber": 40,
    "partName": "Supedhar",
    "lat": 19.03169355,
    "lon": 73.95003011520785
  },
  {
    "partId": 138207,
    "stateCode": "S13",
    "stateName": "Maharashtra",
    "districtCode": "S1325",
    "districtName": "Pune",
    "acNumber": 196,
    "acName": "Ambegaon",
    "partNumber": 41,
    "partName": "Dimbhe Khurd",
    "lat": 19.03169355,
    "lon": 73.95003011520785
  },
  {
    "partId": 138208,
    "stateCode": "S13",
    "stateName": "Maharashtra",
    "districtCode": "S1325",
    "districtName": "Pune",
    "acNumber": 196,
    "acName": "Ambegaon",
    "partNumber": 42,
    "partName": "Gohe Khurd",
    "lat": 19.03169355,
    "lon": 73.95003011520785
  },
  {
    "partId": 138209,
    "stateCode": "S13",
    "stateName": "Maharashtra",
    "districtCode": "S1325",
    "districtName": "Pune",
    "acNumber": 196,
    "acName": "Ambegaon",
    "partNumber": 43,
    "partName": "Pokhari",
    "lat": 19.4529281,
    "lon": 74.1707316
  },
  {
    "partId": 138210,
    "stateCode": "S13",
    "stateName": "Maharashtra",
    "districtCode": "S1325",
    "districtName": "Pune",
    "acNumber": 196,
    "acName": "Ambegaon",
    "partNumber": 44,
    "partName": "Chikhali",
    "lat": 18.6491989,
    "lon": 73.7705978
  },
  {
    "partId": 138211,
    "stateCode": "S13",
    "stateName": "Maharashtra",
    "districtCode": "S1325",
    "districtName": "Pune",
    "acNumber": 196,
    "acName": "Ambegaon",
    "partNumber": 45,
    "partName": "Taleghar",
    "lat": 19.0859717,
    "lon": 73.6359934
  },
  {
    "partId": 138212,
    "stateCode": "S13",
    "stateName": "Maharashtra",
    "districtCode": "S1325",
    "districtName": "Pune",
    "acNumber": 196,
    "acName": "Ambegaon",
    "partNumber": 46,
    "partName": "Nigadale",
    "lat": 19.03169355,
    "lon": 73.95003011520785
  },
  {
    "partId": 138213,
    "stateCode": "S13",
    "stateName": "Maharashtra",
    "districtCode": "S1325",
    "districtName": "Pune",
    "acNumber": 196,
    "acName": "Ambegaon",
    "partNumber": 47,
    "partName": "Gohe Budruk",
    "lat": 19.03169355,
    "lon": 73.95003011520785
  },
  {
    "partId": 138214,
    "stateCode": "S13",
    "stateName": "Maharashtra",
    "districtCode": "S1325",
    "districtName": "Pune",
    "acNumber": 196,
    "acName": "Ambegaon",
    "partNumber": 48,
    "partName": "Gohe Budruk",
    "lat": 19.03169355,
    "lon": 73.95003011520785
  },
  {
    "partId": 138215,
    "stateCode": "S13",
    "stateName": "Maharashtra",
    "districtCode": "S1325",
    "districtName": "Pune",
    "acNumber": 196,
    "acName": "Ambegaon",
    "partNumber": 49,
    "partName": "Gohe Budruk",
    "lat": 19.03169355,
    "lon": 73.95003011520785
  },
  {
    "partId": 138216,
    "stateCode": "S13",
    "stateName": "Maharashtra",
    "districtCode": "S1325",
    "districtName": "Pune",
    "acNumber": 196,
    "acName": "Ambegaon",
    "partNumber": 50,
    "partName": "Fadalewadi Ugalewadi",
    "lat": 18.98990760890625,
    "lon": 73.95687265311894
  },
  {
    "partId": 138217,
    "stateCode": "S13",
    "stateName": "Maharashtra",
    "districtCode": "S1325",
    "districtName": "Pune",
    "acNumber": 196,
    "acName": "Ambegaon",
    "partNumber": 51,
    "partName": "PokharkarWadi",
    "lat": 19.03169355,
    "lon": 73.95003011520785
  },
  {
    "partId": 138218,
    "stateCode": "S13",
    "stateName": "Maharashtra",
    "districtCode": "S1325",
    "districtName": "Pune",
    "acNumber": 196,
    "acName": "Ambegaon",
    "partNumber": 52,
    "partName": "Pimpalgaon  Tarfe Ghoda",
    "lat": 19.03169355,
    "lon": 73.95003011520785
  },
  {
    "partId": 138219,
    "stateCode": "S13",
    "stateName": "Maharashtra",
    "districtCode": "S1325",
    "districtName": "Pune",
    "acNumber": 196,
    "acName": "Ambegaon",
    "partNumber": 53,
    "partName": "Koldara",
    "lat": 19.03169355,
    "lon": 73.95003011520785
  },
  {
    "partId": 138220,
    "stateCode": "S13",
    "stateName": "Maharashtra",
    "districtCode": "S1325",
    "districtName": "Pune",
    "acNumber": 196,
    "acName": "Ambegaon",
    "partNumber": 54,
    "partName": "Gonavadi",
    "lat": 19.03169355,
    "lon": 73.95003011520785
  },
  {
    "partId": 138221,
    "stateCode": "S13",
    "stateName": "Maharashtra",
    "districtCode": "S1325",
    "districtName": "Pune",
    "acNumber": 196,
    "acName": "Ambegaon",
    "partNumber": 55,
    "partName": "Kadewadi",
    "lat": 19.03169355,
    "lon": 73.95003011520785
  },
  {
    "partId": 138222,
    "stateCode": "S13",
    "stateName": "Maharashtra",
    "districtCode": "S1325",
    "districtName": "Pune",
    "acNumber": 196,
    "acName": "Ambegaon",
    "partNumber": 56,
    "partName": "Thakaravadi (chas )",
    "lat": 19.03169355,
    "lon": 73.95003011520785
  },
  {
    "partId": 138223,
    "stateCode": "S13",
    "stateName": "Maharashtra",
    "districtCode": "S1325",
    "districtName": "Pune",
    "acNumber": 196,
    "acName": "Ambegaon",
    "partNumber": 57,
    "partName": "Thakarwadi (Chas)",
    "lat": 19.03169355,
    "lon": 73.95003011520785
  },
  {
    "partId": 138224,
    "stateCode": "S13",
    "stateName": "Maharashtra",
    "districtCode": "S1325",
    "districtName": "Pune",
    "acNumber": 196,
    "acName": "Ambegaon",
    "partNumber": 58,
    "partName": "Mahalunge Padawal",
    "lat": 19.065744,
    "lon": 73.914392
  },
  {
    "partId": 138225,
    "stateCode": "S13",
    "stateName": "Maharashtra",
    "districtCode": "S1325",
    "districtName": "Pune",
    "acNumber": 196,
    "acName": "Ambegaon",
    "partNumber": 59,
    "partName": "Mahalunge Padawal",
    "lat": 19.065744,
    "lon": 73.914392
  },
  {
    "partId": 138226,
    "stateCode": "S13",
    "stateName": "Maharashtra",
    "districtCode": "S1325",
    "districtName": "Pune",
    "acNumber": 196,
    "acName": "Ambegaon",
    "partNumber": 60,
    "partName": "Mahalunge Padawal",
    "lat": 19.065744,
    "lon": 73.914392
  },
  {
    "partId": 138227,
    "stateCode": "S13",
    "stateName": "Maharashtra",
    "districtCode": "S1325",
    "districtName": "Pune",
    "acNumber": 196,
    "acName": "Ambegaon",
    "partNumber": 61,
    "partName": "Mahalunge Padawal",
    "lat": 19.065744,
    "lon": 73.914392
  },
  {
    "partId": 138228,
    "stateCode": "S13",
    "stateName": "Maharashtra",
    "districtCode": "S1325",
    "districtName": "Pune",
    "acNumber": 196,
    "acName": "Ambegaon",
    "partNumber": 62,
    "partName": "Mahalunge Padawal",
    "lat": 19.065744,
    "lon": 73.914392
  },
  {
    "partId": 138229,
    "stateCode": "S13",
    "stateName": "Maharashtra",
    "districtCode": "S1325",
    "districtName": "Pune",
    "acNumber": 196,
    "acName": "Ambegaon",
    "partNumber": 63,
    "partName": "Fulevadi ( Mhalunge Padawal )",
    "lat": 19.03169355,
    "lon": 73.95003011520785
  },
  {
    "partId": 138230,
    "stateCode": "S13",
    "stateName": "Maharashtra",
    "districtCode": "S1325",
    "districtName": "Pune",
    "acNumber": 196,
    "acName": "Ambegaon",
    "partNumber": 64,
    "partName": "Lauki",
    "lat": 19.0600001,
    "lon": 73.9831852
  },
  {
    "partId": 138231,
    "stateCode": "S13",
    "stateName": "Maharashtra",
    "districtCode": "S1325",
    "districtName": "Pune",
    "acNumber": 196,
    "acName": "Ambegaon",
    "partNumber": 65,
    "partName": "Ranjani",
    "lat": 18.4957068,
    "lon": 73.81206814297786
  },
  {
    "partId": 138232,
    "stateCode": "S13",
    "stateName": "Maharashtra",
    "districtCode": "S1325",
    "districtName": "Pune",
    "acNumber": 196,
    "acName": "Ambegaon",
    "partNumber": 66,
    "partName": "Ranjani",
    "lat": 18.4957068,
    "lon": 73.81206814297786
  },
  {
    "partId": 138233,
    "stateCode": "S13",
    "stateName": "Maharashtra",
    "districtCode": "S1325",
    "districtName": "Pune",
    "acNumber": 196,
    "acName": "Ambegaon",
    "partNumber": 67,
    "partName": "Ranjani",
    "lat": 18.4957068,
    "lon": 73.81206814297786
  },
  {
    "partId": 138234,
    "stateCode": "S13",
    "stateName": "Maharashtra",
    "districtCode": "S1325",
    "districtName": "Pune",
    "acNumber": 196,
    "acName": "Ambegaon",
    "partNumber": 68,
    "partName": "Jadhav Wadi",
    "lat": 19.03169355,
    "lon": 73.95003011520785
  },
  {
    "partId": 138235,
    "stateCode": "S13",
    "stateName": "Maharashtra",
    "districtCode": "S1325",
    "districtName": "Pune",
    "acNumber": 196,
    "acName": "Ambegaon",
    "partNumber": 69,
    "partName": "Kalamb",
    "lat": 19.0439728,
    "lon": 73.9562197
  },
  {
    "partId": 138236,
    "stateCode": "S13",
    "stateName": "Maharashtra",
    "districtCode": "S1325",
    "districtName": "Pune",
    "acNumber": 196,
    "acName": "Ambegaon",
    "partNumber": 70,
    "partName": "Kalamb",
    "lat": 19.0439728,
    "lon": 73.9562197
  },
  {
    "partId": 138237,
    "stateCode": "S13",
    "stateName": "Maharashtra",
    "districtCode": "S1325",
    "districtName": "Pune",
    "acNumber": 196,
    "acName": "Ambegaon",
    "partNumber": 71,
    "partName": "Kalamb",
    "lat": 19.0439728,
    "lon": 73.9562197
  },
  {
    "partId": 138238,
    "stateCode": "S13",
    "stateName": "Maharashtra",
    "districtCode": "S1325",
    "districtName": "Pune",
    "acNumber": 196,
    "acName": "Ambegaon",
    "partNumber": 72,
    "partName": "Varapemala",
    "lat": 19.03169355,
    "lon": 73.95003011520785
  },
  {
    "partId": 138239,
    "stateCode": "S13",
    "stateName": "Maharashtra",
    "districtCode": "S1325",
    "districtName": "Pune",
    "acNumber": 196,
    "acName": "Ambegaon",
    "partNumber": 73,
    "partName": "Nandur",
    "lat": 18.5275776,
    "lon": 74.199297
  },
  {
    "partId": 138240,
    "stateCode": "S13",
    "stateName": "Maharashtra",
    "districtCode": "S1325",
    "districtName": "Pune",
    "acNumber": 196,
    "acName": "Ambegaon",
    "partNumber": 74,
    "partName": "Vitthalawadi",
    "lat": 19.03169355,
    "lon": 73.95003011520785
  },
  {
    "partId": 138241,
    "stateCode": "S13",
    "stateName": "Maharashtra",
    "districtCode": "S1325",
    "districtName": "Pune",
    "acNumber": 196,
    "acName": "Ambegaon",
    "partNumber": 75,
    "partName": "Sakore",
    "lat": 18.5621448,
    "lon": 73.9088317
  },
  {
    "partId": 138242,
    "stateCode": "S13",
    "stateName": "Maharashtra",
    "districtCode": "S1325",
    "districtName": "Pune",
    "acNumber": 196,
    "acName": "Ambegaon",
    "partNumber": 76,
    "partName": "Sakore",
    "lat": 18.5621448,
    "lon": 73.9088317
  },
  {
    "partId": 138243,
    "stateCode": "S13",
    "stateName": "Maharashtra",
    "districtCode": "S1325",
    "districtName": "Pune",
    "acNumber": 196,
    "acName": "Ambegaon",
    "partNumber": 77,
    "partName": "Chas",
    "lat": 19.03169355,
    "lon": 73.95003011520785
  },
  {
    "partId": 138244,
    "stateCode": "S13",
    "stateName": "Maharashtra",
    "districtCode": "S1325",
    "districtName": "Pune",
    "acNumber": 196,
    "acName": "Ambegaon",
    "partNumber": 78,
    "partName": "Chas",
    "lat": 19.03169355,
    "lon": 73.95003011520785
  },
  {
    "partId": 138245,
    "stateCode": "S13",
    "stateName": "Maharashtra",
    "districtCode": "S1325",
    "districtName": "Pune",
    "acNumber": 196,
    "acName": "Ambegaon",
    "partNumber": 79,
    "partName": "Chincholi",
    "lat": 19.03169355,
    "lon": 73.95003011520785
  },
  {
    "partId": 138246,
    "stateCode": "S13",
    "stateName": "Maharashtra",
    "districtCode": "S1325",
    "districtName": "Pune",
    "acNumber": 196,
    "acName": "Ambegaon",
    "partNumber": 80,
    "partName": "Dhondamal",
    "lat": 19.03169355,
    "lon": 73.95003011520785
  },
  {
    "partId": 138247,
    "stateCode": "S13",
    "stateName": "Maharashtra",
    "districtCode": "S1325",
    "districtName": "Pune",
    "acNumber": 196,
    "acName": "Ambegaon",
    "partNumber": 81,
    "partName": "Ghodegaon",
    "lat": 19.0466022,
    "lon": 73.8386714
  },
  {
    "partId": 138248,
    "stateCode": "S13",
    "stateName": "Maharashtra",
    "districtCode": "S1325",
    "districtName": "Pune",
    "acNumber": 196,
    "acName": "Ambegaon",
    "partNumber": 82,
    "partName": "Ghodegaon",
    "lat": 19.0466022,
    "lon": 73.8386714
  },
  {
    "partId": 138249,
    "stateCode": "S13",
    "stateName": "Maharashtra",
    "districtCode": "S1325",
    "districtName": "Pune",
    "acNumber": 196,
    "acName": "Ambegaon",
    "partNumber": 83,
    "partName": "Ghodegaon",
    "lat": 19.0466022,
    "lon": 73.8386714
  },
  {
    "partId": 138250,
    "stateCode": "S13",
    "stateName": "Maharashtra",
    "districtCode": "S1325",
    "districtName": "Pune",
    "acNumber": 196,
    "acName": "Ambegaon",
    "partNumber": 84,
    "partName": "Ghodegaon",
    "lat": 19.0466022,
    "lon": 73.8386714
  },
  {
    "partId": 138251,
    "stateCode": "S13",
    "stateName": "Maharashtra",
    "districtCode": "S1325",
    "districtName": "Pune",
    "acNumber": 196,
    "acName": "Ambegaon",
    "partNumber": 85,
    "partName": "Ghodegaon",
    "lat": 19.0466022,
    "lon": 73.8386714
  },
  {
    "partId": 138252,
    "stateCode": "S13",
    "stateName": "Maharashtra",
    "districtCode": "S1325",
    "districtName": "Pune",
    "acNumber": 196,
    "acName": "Ambegaon",
    "partNumber": 86,
    "partName": "Ghodegaon",
    "lat": 19.0466022,
    "lon": 73.8386714
  },
  {
    "partId": 138253,
    "stateCode": "S13",
    "stateName": "Maharashtra",
    "districtCode": "S1325",
    "districtName": "Pune",
    "acNumber": 196,
    "acName": "Ambegaon",
    "partNumber": 87,
    "partName": "Ghodegaon",
    "lat": 19.0466022,
    "lon": 73.8386714
  },
  {
    "partId": 138254,
    "stateCode": "S13",
    "stateName": "Maharashtra",
    "districtCode": "S1325",
    "districtName": "Pune",
    "acNumber": 196,
    "acName": "Ambegaon",
    "partNumber": 88,
    "partName": "Ghodegaon",
    "lat": 19.0466022,
    "lon": 73.8386714
  },
  {
    "partId": 138255,
    "stateCode": "S13",
    "stateName": "Maharashtra",
    "districtCode": "S1325",
    "districtName": "Pune",
    "acNumber": 196,
    "acName": "Ambegaon",
    "partNumber": 89,
    "partName": "Ghodegaon",
    "lat": 19.0466022,
    "lon": 73.8386714
  },
  {
    "partId": 138256,
    "stateCode": "S13",
    "stateName": "Maharashtra",
    "districtCode": "S1325",
    "districtName": "Pune",
    "acNumber": 196,
    "acName": "Ambegaon",
    "partNumber": 90,
    "partName": "Ambegaon Gavathan",
    "lat": 19.03169355,
    "lon": 73.95003011520785
  },
  {
    "partId": 138257,
    "stateCode": "S13",
    "stateName": "Maharashtra",
    "districtCode": "S1325",
    "districtName": "Pune",
    "acNumber": 196,
    "acName": "Ambegaon",
    "partNumber": 91,
    "partName": "Sal",
    "lat": 19.03169355,
    "lon": 73.95003011520785
  },
  {
    "partId": 138258,
    "stateCode": "S13",
    "stateName": "Maharashtra",
    "districtCode": "S1325",
    "districtName": "Pune",
    "acNumber": 196,
    "acName": "Ambegaon",
    "partNumber": 92,
    "partName": "Babulavadi",
    "lat": 19.03169355,
    "lon": 73.95003011520785
  },
  {
    "partId": 138259,
    "stateCode": "S13",
    "stateName": "Maharashtra",
    "districtCode": "S1325",
    "districtName": "Pune",
    "acNumber": 196,
    "acName": "Ambegaon",
    "partNumber": 93,
    "partName": "Talekarvadi",
    "lat": 19.03169355,
    "lon": 73.95003011520785
  },
  {
    "partId": 138260,
    "stateCode": "S13",
    "stateName": "Maharashtra",
    "districtCode": "S1325",
    "districtName": "Pune",
    "acNumber": 196,
    "acName": "Ambegaon",
    "partNumber": 94,
    "partName": "Ambedara",
    "lat": 19.03169355,
    "lon": 73.95003011520785
  },
  {
    "partId": 138261,
    "stateCode": "S13",
    "stateName": "Maharashtra",
    "districtCode": "S1325",
    "districtName": "Pune",
    "acNumber": 196,
    "acName": "Ambegaon",
    "partNumber": 95,
    "partName": "Kolavadi",
    "lat": 18.8187004,
    "lon": 73.5038052
  },
  {
    "partId": 138262,
    "stateCode": "S13",
    "stateName": "Maharashtra",
    "districtCode": "S1325",
    "districtName": "Pune",
    "acNumber": 196,
    "acName": "Ambegaon",
    "partNumber": 96,
    "partName": "Kotamdara",
    "lat": 19.03169355,
    "lon": 73.95003011520785
  },
  {
    "partId": 138263,
    "stateCode": "S13",
    "stateName": "Maharashtra",
    "districtCode": "S1325",
    "districtName": "Pune",
    "acNumber": 196,
    "acName": "Ambegaon",
    "partNumber": 97,
    "partName": "Chinchodi",
    "lat": 18.98990760890625,
    "lon": 73.95687265311894
  },
  {
    "partId": 138264,
    "stateCode": "S13",
    "stateName": "Maharashtra",
    "districtCode": "S1325",
    "districtName": "Pune",
    "acNumber": 196,
    "acName": "Ambegaon",
    "partNumber": 98,
    "partName": "Narodi",
    "lat": 18.98990760890625,
    "lon": 73.95687265311894
  },
  {
    "partId": 138265,
    "stateCode": "S13",
    "stateName": "Maharashtra",
    "districtCode": "S1325",
    "districtName": "Pune",
    "acNumber": 196,
    "acName": "Ambegaon",
    "partNumber": 99,
    "partName": "Narodi",
    "lat": 18.98990760890625,
    "lon": 73.95687265311894
  },
  {
    "partId": 138266,
    "stateCode": "S13",
    "stateName": "Maharashtra",
    "districtCode": "S1325",
    "districtName": "Pune",
    "acNumber": 196,
    "acName": "Ambegaon",
    "partNumber": 100,
    "partName": "Narodi",
    "lat": 19.03169355,
    "lon": 73.95003011520785
  },
  {
    "partId": 138267,
    "stateCode": "S13",
    "stateName": "Maharashtra",
    "districtCode": "S1325",
    "districtName": "Pune",
    "acNumber": 196,
    "acName": "Ambegaon",
    "partNumber": 101,
    "partName": "Narodi",
    "lat": 19.03169355,
    "lon": 73.95003011520785
  },
  {
    "partId": 138268,
    "stateCode": "S13",
    "stateName": "Maharashtra",
    "districtCode": "S1325",
    "districtName": "Pune",
    "acNumber": 196,
    "acName": "Ambegaon",
    "partNumber": 102,
    "partName": "Narodi Phata",
    "lat": 19.03169355,
    "lon": 73.95003011520785
  },
  {
    "partId": 146647,
    "stateCode": "S13",
    "stateName": "Maharashtra",
    "districtCode": "S1325",
    "districtName": "Pune",
    "acNumber": 196,
    "acName": "Ambegaon",
    "partNumber": 103,
    "partName": "Pingalwadi",
    "lat": 19.03169355,
    "lon": 73.95003011520785
  },
  {
    "partId": 138269,
    "stateCode": "S13",
    "stateName": "Maharashtra",
    "districtCode": "S1325",
    "districtName": "Pune",
    "acNumber": 196,
    "acName": "Ambegaon",
    "partNumber": 104,
    "partName": "Wadgaon Kashimbeg",
    "lat": 19.03169355,
    "lon": 73.95003011520785
  },
  {
    "partId": 138270,
    "stateCode": "S13",
    "stateName": "Maharashtra",
    "districtCode": "S1325",
    "districtName": "Pune",
    "acNumber": 196,
    "acName": "Ambegaon",
    "partNumber": 105,
    "partName": "Wadgaon Kashimbeg",
    "lat": 19.03169355,
    "lon": 73.95003011520785
  },
  {
    "partId": 138271,
    "stateCode": "S13",
    "stateName": "Maharashtra",
    "districtCode": "S1325",
    "districtName": "Pune",
    "acNumber": 196,
    "acName": "Ambegaon",
    "partNumber": 106,
    "partName": "Takevadi",
    "lat": 19.03169355,
    "lon": 73.95003011520785
  },
  {
    "partId": 138272,
    "stateCode": "S13",
    "stateName": "Maharashtra",
    "districtCode": "S1325",
    "districtName": "Pune",
    "acNumber": 196,
    "acName": "Ambegaon",
    "partNumber": 107,
    "partName": "Sulatanpur",
    "lat": 19.03169355,
    "lon": 73.95003011520785
  },
  {
    "partId": 138273,
    "stateCode": "S13",
    "stateName": "Maharashtra",
    "districtCode": "S1325",
    "districtName": "Pune",
    "acNumber": 196,
    "acName": "Ambegaon",
    "partNumber": 108,
    "partName": "Eklahare",
    "lat": 19.03169355,
    "lon": 73.95003011520785
  },
  {
    "partId": 138274,
    "stateCode": "S13",
    "stateName": "Maharashtra",
    "districtCode": "S1325",
    "districtName": "Pune",
    "acNumber": 196,
    "acName": "Ambegaon",
    "partNumber": 109,
    "partName": "Eklahare",
    "lat": 19.03169355,
    "lon": 73.95003011520785
  },
  {
    "partId": 138275,
    "stateCode": "S13",
    "stateName": "Maharashtra",
    "districtCode": "S1325",
    "districtName": "Pune",
    "acNumber": 196,
    "acName": "Ambegaon",
    "partNumber": 110,
    "partName": "Chandoli Budruk",
    "lat": 19.0216669,
    "lon": 73.9764145
  },
  {
    "partId": 138276,
    "stateCode": "S13",
    "stateName": "Maharashtra",
    "districtCode": "S1325",
    "districtName": "Pune",
    "acNumber": 196,
    "acName": "Ambegaon",
    "partNumber": 111,
    "partName": "Chandoli Budruk",
    "lat": 19.0216669,
    "lon": 73.9764145
  },
  {
    "partId": 138277,
    "stateCode": "S13",
    "stateName": "Maharashtra",
    "districtCode": "S1325",
    "districtName": "Pune",
    "acNumber": 196,
    "acName": "Ambegaon",
    "partNumber": 112,
    "partName": "Chandoli Budruk",
    "lat": 19.0216669,
    "lon": 73.9764145
  },
  {
    "partId": 138278,
    "stateCode": "S13",
    "stateName": "Maharashtra",
    "districtCode": "S1325",
    "districtName": "Pune",
    "acNumber": 196,
    "acName": "Ambegaon",
    "partNumber": 113,
    "partName": "Thonrandale",
    "lat": 18.98990760890625,
    "lon": 73.95687265311894
  },
  {
    "partId": 138279,
    "stateCode": "S13",
    "stateName": "Maharashtra",
    "districtCode": "S1325",
    "districtName": "Pune",
    "acNumber": 196,
    "acName": "Ambegaon",
    "partNumber": 114,
    "partName": "Thonrandale",
    "lat": 19.03169355,
    "lon": 73.95003011520785
  },
  {
    "partId": 138280,
    "stateCode": "S13",
    "stateName": "Maharashtra",
    "districtCode": "S1325",
    "districtName": "Pune",
    "acNumber": 196,
    "acName": "Ambegaon",
    "partNumber": 115,
    "partName": "Nagapur",
    "lat": 19.03169355,
    "lon": 73.95003011520785
  },
  {
    "partId": 138281,
    "stateCode": "S13",
    "stateName": "Maharashtra",
    "districtCode": "S1325",
    "districtName": "Pune",
    "acNumber": 196,
    "acName": "Ambegaon",
    "partNumber": 116,
    "partName": "Nagapur",
    "lat": 19.03169355,
    "lon": 73.95003011520785
  },
  {
    "partId": 138282,
    "stateCode": "S13",
    "stateName": "Maharashtra",
    "districtCode": "S1325",
    "districtName": "Pune",
    "acNumber": 196,
    "acName": "Ambegaon",
    "partNumber": 117,
    "partName": "Valati Ganjave vasti",
    "lat": 18.98990760890625,
    "lon": 73.95687265311894
  },
  {
    "partId": 138283,
    "stateCode": "S13",
    "stateName": "Maharashtra",
    "districtCode": "S1325",
    "districtName": "Pune",
    "acNumber": 196,
    "acName": "Ambegaon",
    "partNumber": 118,
    "partName": "Valati",
    "lat": 19.03169355,
    "lon": 73.95003011520785
  },
  {
    "partId": 138284,
    "stateCode": "S13",
    "stateName": "Maharashtra",
    "districtCode": "S1325",
    "districtName": "Pune",
    "acNumber": 196,
    "acName": "Ambegaon",
    "partNumber": 119,
    "partName": "Valati",
    "lat": 19.03169355,
    "lon": 73.95003011520785
  },
  {
    "partId": 138285,
    "stateCode": "S13",
    "stateName": "Maharashtra",
    "districtCode": "S1325",
    "districtName": "Pune",
    "acNumber": 196,
    "acName": "Ambegaon",
    "partNumber": 120,
    "partName": "Bhagadi",
    "lat": 19.03169355,
    "lon": 73.95003011520785
  },
  {
    "partId": 138286,
    "stateCode": "S13",
    "stateName": "Maharashtra",
    "districtCode": "S1325",
    "districtName": "Pune",
    "acNumber": 196,
    "acName": "Ambegaon",
    "partNumber": 121,
    "partName": "Jambut",
    "lat": 18.9050995,
    "lon": 74.179528
  },
  {
    "partId": 138287,
    "stateCode": "S13",
    "stateName": "Maharashtra",
    "districtCode": "S1325",
    "districtName": "Pune",
    "acNumber": 196,
    "acName": "Ambegaon",
    "partNumber": 122,
    "partName": "Jambut",
    "lat": 18.9050995,
    "lon": 74.179528
  },
  {
    "partId": 138288,
    "stateCode": "S13",
    "stateName": "Maharashtra",
    "districtCode": "S1325",
    "districtName": "Pune",
    "acNumber": 196,
    "acName": "Ambegaon",
    "partNumber": 123,
    "partName": "Jambut",
    "lat": 18.9050995,
    "lon": 74.179528
  },
  {
    "partId": 138289,
    "stateCode": "S13",
    "stateName": "Maharashtra",
    "districtCode": "S1325",
    "districtName": "Pune",
    "acNumber": 196,
    "acName": "Ambegaon",
    "partNumber": 124,
    "partName": "Jambut (Sharad Wadi )",
    "lat": 18.98990760890625,
    "lon": 73.95687265311894
  },
  {
    "partId": 138290,
    "stateCode": "S13",
    "stateName": "Maharashtra",
    "districtCode": "S1325",
    "districtName": "Pune",
    "acNumber": 196,
    "acName": "Ambegaon",
    "partNumber": 125,
    "partName": "Pimparkhed",
    "lat": 18.9947348,
    "lon": 74.1418887
  },
  {
    "partId": 138291,
    "stateCode": "S13",
    "stateName": "Maharashtra",
    "districtCode": "S1325",
    "districtName": "Pune",
    "acNumber": 196,
    "acName": "Ambegaon",
    "partNumber": 126,
    "partName": "Pimparkhed",
    "lat": 18.9947348,
    "lon": 74.1418887
  },
  {
    "partId": 138292,
    "stateCode": "S13",
    "stateName": "Maharashtra",
    "districtCode": "S1325",
    "districtName": "Pune",
    "acNumber": 196,
    "acName": "Ambegaon",
    "partNumber": 127,
    "partName": "Dabhade Mala",
    "lat": 19.03169355,
    "lon": 73.95003011520785
  },
  {
    "partId": 138293,
    "stateCode": "S13",
    "stateName": "Maharashtra",
    "districtCode": "S1325",
    "districtName": "Pune",
    "acNumber": 196,
    "acName": "Ambegaon",
    "partNumber": 128,
    "partName": "Kathapur Khurd",
    "lat": 19.03169355,
    "lon": 73.95003011520785
  },
  {
    "partId": 138294,
    "stateCode": "S13",
    "stateName": "Maharashtra",
    "districtCode": "S1325",
    "districtName": "Pune",
    "acNumber": 196,
    "acName": "Ambegaon",
    "partNumber": 129,
    "partName": "Shigave",
    "lat": 19.03169355,
    "lon": 73.95003011520785
  },
  {
    "partId": 138295,
    "stateCode": "S13",
    "stateName": "Maharashtra",
    "districtCode": "S1325",
    "districtName": "Pune",
    "acNumber": 196,
    "acName": "Ambegaon",
    "partNumber": 130,
    "partName": "Shigave",
    "lat": 19.03169355,
    "lon": 73.95003011520785
  },
  {
    "partId": 138296,
    "stateCode": "S13",
    "stateName": "Maharashtra",
    "districtCode": "S1325",
    "districtName": "Pune",
    "acNumber": 196,
    "acName": "Ambegaon",
    "partNumber": 131,
    "partName": "Shigave",
    "lat": 19.03169355,
    "lon": 73.95003011520785
  },
  {
    "partId": 138297,
    "stateCode": "S13",
    "stateName": "Maharashtra",
    "districtCode": "S1325",
    "districtName": "Pune",
    "acNumber": 196,
    "acName": "Ambegaon",
    "partNumber": 132,
    "partName": "Javale",
    "lat": 19.03169355,
    "lon": 73.95003011520785
  },
  {
    "partId": 138298,
    "stateCode": "S13",
    "stateName": "Maharashtra",
    "districtCode": "S1325",
    "districtName": "Pune",
    "acNumber": 196,
    "acName": "Ambegaon",
    "partNumber": 133,
    "partName": "Bharadi",
    "lat": 19.03169355,
    "lon": 73.95003011520785
  },
  {
    "partId": 138299,
    "stateCode": "S13",
    "stateName": "Maharashtra",
    "districtCode": "S1325",
    "districtName": "Pune",
    "acNumber": 196,
    "acName": "Ambegaon",
    "partNumber": 134,
    "partName": "Bharadi",
    "lat": 19.03169355,
    "lon": 73.95003011520785
  },
  {
    "partId": 138300,
    "stateCode": "S13",
    "stateName": "Maharashtra",
    "districtCode": "S1325",
    "districtName": "Pune",
    "acNumber": 196,
    "acName": "Ambegaon",
    "partNumber": 135,
    "partName": "Khadaki",
    "lat": 18.3401363,
    "lon": 74.6836531
  },
  {
    "partId": 138301,
    "stateCode": "S13",
    "stateName": "Maharashtra",
    "districtCode": "S1325",
    "districtName": "Pune",
    "acNumber": 196,
    "acName": "Ambegaon",
    "partNumber": 136,
    "partName": "Khadaki",
    "lat": 18.3401363,
    "lon": 74.6836531
  },
  {
    "partId": 138302,
    "stateCode": "S13",
    "stateName": "Maharashtra",
    "districtCode": "S1325",
    "districtName": "Pune",
    "acNumber": 196,
    "acName": "Ambegaon",
    "partNumber": 137,
    "partName": "Chandoli Khurd",
    "lat": 19.03169355,
    "lon": 73.95003011520785
  },
  {
    "partId": 138303,
    "stateCode": "S13",
    "stateName": "Maharashtra",
    "districtCode": "S1325",
    "districtName": "Pune",
    "acNumber": 196,
    "acName": "Ambegaon",
    "partNumber": 138,
    "partName": "Chandoli Khurd",
    "lat": 19.03169355,
    "lon": 73.95003011520785
  },
  {
    "partId": 138304,
    "stateCode": "S13",
    "stateName": "Maharashtra",
    "districtCode": "S1325",
    "districtName": "Pune",
    "acNumber": 196,
    "acName": "Ambegaon",
    "partNumber": 139,
    "partName": "Pimpalgaon Tarfe Mahalunge",
    "lat": 19.003326899999998,
    "lon": 73.98825976873658
  },
  {
    "partId": 138305,
    "stateCode": "S13",
    "stateName": "Maharashtra",
    "districtCode": "S1325",
    "districtName": "Pune",
    "acNumber": 196,
    "acName": "Ambegaon",
    "partNumber": 140,
    "partName": "Pimpalgaon Tarfe Mahalauge",
    "lat": 19.03169355,
    "lon": 73.95003011520785
  },
  {
    "partId": 138306,
    "stateCode": "S13",
    "stateName": "Maharashtra",
    "districtCode": "S1325",
    "districtName": "Pune",
    "acNumber": 196,
    "acName": "Ambegaon",
    "partNumber": 141,
    "partName": "Pimpalgaon Tarfe Mahalunge",
    "lat": 19.003326899999998,
    "lon": 73.98825976873658
  },
  {
    "partId": 138307,
    "stateCode": "S13",
    "stateName": "Maharashtra",
    "districtCode": "S1325",
    "districtName": "Pune",
    "acNumber": 196,
    "acName": "Ambegaon",
    "partNumber": 142,
    "partName": "Pimpalgaon Tarfe Mahalunge",
    "lat": 19.003326899999998,
    "lon": 73.98825976873658
  },
  {
    "partId": 138308,
    "stateCode": "S13",
    "stateName": "Maharashtra",
    "districtCode": "S1325",
    "districtName": "Pune",
    "acNumber": 196,
    "acName": "Ambegaon",
    "partNumber": 143,
    "partName": "Manchar",
    "lat": 19.0033298,
    "lon": 73.942711
  },
  {
    "partId": 138309,
    "stateCode": "S13",
    "stateName": "Maharashtra",
    "districtCode": "S1325",
    "districtName": "Pune",
    "acNumber": 196,
    "acName": "Ambegaon",
    "partNumber": 144,
    "partName": "Manchar",
    "lat": 19.03169355,
    "lon": 73.95003011520785
  },
  {
    "partId": 138310,
    "stateCode": "S13",
    "stateName": "Maharashtra",
    "districtCode": "S1325",
    "districtName": "Pune",
    "acNumber": 196,
    "acName": "Ambegaon",
    "partNumber": 145,
    "partName": "Manchar",
    "lat": 19.03169355,
    "lon": 73.95003011520785
  },
  {
    "partId": 138311,
    "stateCode": "S13",
    "stateName": "Maharashtra",
    "districtCode": "S1325",
    "districtName": "Pune",
    "acNumber": 196,
    "acName": "Ambegaon",
    "partNumber": 146,
    "partName": "Manchar",
    "lat": 19.0033298,
    "lon": 73.942711
  },
  {
    "partId": 138312,
    "stateCode": "S13",
    "stateName": "Maharashtra",
    "districtCode": "S1325",
    "districtName": "Pune",
    "acNumber": 196,
    "acName": "Ambegaon",
    "partNumber": 147,
    "partName": "Manchar",
    "lat": 19.0033298,
    "lon": 73.942711
  },
  {
    "partId": 138313,
    "stateCode": "S13",
    "stateName": "Maharashtra",
    "districtCode": "S1325",
    "districtName": "Pune",
    "acNumber": 196,
    "acName": "Ambegaon",
    "partNumber": 148,
    "partName": "Mordewadi Manchar",
    "lat": 19.03169355,
    "lon": 73.95003011520785
  },
  {
    "partId": 138314,
    "stateCode": "S13",
    "stateName": "Maharashtra",
    "districtCode": "S1325",
    "districtName": "Pune",
    "acNumber": 196,
    "acName": "Ambegaon",
    "partNumber": 149,
    "partName": "Nighotwadi",
    "lat": 18.9996811,
    "lon": 73.9246202
  },
  {
    "partId": 138315,
    "stateCode": "S13",
    "stateName": "Maharashtra",
    "districtCode": "S1325",
    "districtName": "Pune",
    "acNumber": 196,
    "acName": "Ambegaon",
    "partNumber": 150,
    "partName": "Manchar",
    "lat": 19.0033298,
    "lon": 73.942711
  },
  {
    "partId": 138316,
    "stateCode": "S13",
    "stateName": "Maharashtra",
    "districtCode": "S1325",
    "districtName": "Pune",
    "acNumber": 196,
    "acName": "Ambegaon",
    "partNumber": 151,
    "partName": "Londhemala (Manchar)",
    "lat": 19.03169355,
    "lon": 73.95003011520785
  },
  {
    "partId": 138317,
    "stateCode": "S13",
    "stateName": "Maharashtra",
    "districtCode": "S1325",
    "districtName": "Pune",
    "acNumber": 196,
    "acName": "Ambegaon",
    "partNumber": 152,
    "partName": "Londhemala (Manchar)",
    "lat": 19.03169355,
    "lon": 73.95003011520785
  },
  {
    "partId": 138318,
    "stateCode": "S13",
    "stateName": "Maharashtra",
    "districtCode": "S1325",
    "districtName": "Pune",
    "acNumber": 196,
    "acName": "Ambegaon",
    "partNumber": 153,
    "partName": "Londhemala (Manchar)",
    "lat": 19.03169355,
    "lon": 73.95003011520785
  },
  {
    "partId": 138319,
    "stateCode": "S13",
    "stateName": "Maharashtra",
    "districtCode": "S1325",
    "districtName": "Pune",
    "acNumber": 196,
    "acName": "Ambegaon",
    "partNumber": 154,
    "partName": "Manchar",
    "lat": 19.0033298,
    "lon": 73.942711
  },
  {
    "partId": 138320,
    "stateCode": "S13",
    "stateName": "Maharashtra",
    "districtCode": "S1325",
    "districtName": "Pune",
    "acNumber": 196,
    "acName": "Ambegaon",
    "partNumber": 155,
    "partName": "Manchar",
    "lat": 19.0033298,
    "lon": 73.942711
  },
  {
    "partId": 138321,
    "stateCode": "S13",
    "stateName": "Maharashtra",
    "districtCode": "S1325",
    "districtName": "Pune",
    "acNumber": 196,
    "acName": "Ambegaon",
    "partNumber": 156,
    "partName": "Mulewadi Manchar",
    "lat": 19.03169355,
    "lon": 73.95003011520785
  },
  {
    "partId": 138322,
    "stateCode": "S13",
    "stateName": "Maharashtra",
    "districtCode": "S1325",
    "districtName": "Pune",
    "acNumber": 196,
    "acName": "Ambegaon",
    "partNumber": 157,
    "partName": "Mulewadi Manchar",
    "lat": 19.03169355,
    "lon": 73.95003011520785
  },
  {
    "partId": 138323,
    "stateCode": "S13",
    "stateName": "Maharashtra",
    "districtCode": "S1325",
    "districtName": "Pune",
    "acNumber": 196,
    "acName": "Ambegaon",
    "partNumber": 158,
    "partName": "Mordewadi Manchar",
    "lat": 19.03169355,
    "lon": 73.95003011520785
  },
  {
    "partId": 138324,
    "stateCode": "S13",
    "stateName": "Maharashtra",
    "districtCode": "S1325",
    "districtName": "Pune",
    "acNumber": 196,
    "acName": "Ambegaon",
    "partNumber": 159,
    "partName": "Walunjwadi",
    "lat": 19.03169355,
    "lon": 73.95003011520785
  },
  {
    "partId": 138325,
    "stateCode": "S13",
    "stateName": "Maharashtra",
    "districtCode": "S1325",
    "districtName": "Pune",
    "acNumber": 196,
    "acName": "Ambegaon",
    "partNumber": 160,
    "partName": "Landewadi (Shewalewadi)",
    "lat": 19.03169355,
    "lon": 73.95003011520785
  },
  {
    "partId": 138326,
    "stateCode": "S13",
    "stateName": "Maharashtra",
    "districtCode": "S1325",
    "districtName": "Pune",
    "acNumber": 196,
    "acName": "Ambegaon",
    "partNumber": 161,
    "partName": "Landewadi (Shewalewadi)",
    "lat": 19.03169355,
    "lon": 73.95003011520785
  },
  {
    "partId": 138327,
    "stateCode": "S13",
    "stateName": "Maharashtra",
    "districtCode": "S1325",
    "districtName": "Pune",
    "acNumber": 196,
    "acName": "Ambegaon",
    "partNumber": 162,
    "partName": "Landevadi Shevalavadi",
    "lat": 19.03169355,
    "lon": 73.95003011520785
  },
  {
    "partId": 138328,
    "stateCode": "S13",
    "stateName": "Maharashtra",
    "districtCode": "S1325",
    "districtName": "Pune",
    "acNumber": 196,
    "acName": "Ambegaon",
    "partNumber": 163,
    "partName": "Landevadi Shevalavadi",
    "lat": 19.03169355,
    "lon": 73.95003011520785
  },
  {
    "partId": 138329,
    "stateCode": "S13",
    "stateName": "Maharashtra",
    "districtCode": "S1325",
    "districtName": "Pune",
    "acNumber": 196,
    "acName": "Ambegaon",
    "partNumber": 164,
    "partName": "Kalevadi Darekarwadi",
    "lat": 19.03169355,
    "lon": 73.95003011520785
  },
  {
    "partId": 138330,
    "stateCode": "S13",
    "stateName": "Maharashtra",
    "districtCode": "S1325",
    "districtName": "Pune",
    "acNumber": 196,
    "acName": "Ambegaon",
    "partNumber": 165,
    "partName": "Dhakale",
    "lat": 19.03169355,
    "lon": 73.95003011520785
  },
  {
    "partId": 138331,
    "stateCode": "S13",
    "stateName": "Maharashtra",
    "districtCode": "S1325",
    "districtName": "Pune",
    "acNumber": 196,
    "acName": "Ambegaon",
    "partNumber": 166,
    "partName": "Kurwandi",
    "lat": 19.03169355,
    "lon": 73.95003011520785
  },
  {
    "partId": 138332,
    "stateCode": "S13",
    "stateName": "Maharashtra",
    "districtCode": "S1325",
    "districtName": "Pune",
    "acNumber": 196,
    "acName": "Ambegaon",
    "partNumber": 167,
    "partName": "Kurvandi",
    "lat": 19.03169355,
    "lon": 73.95003011520785
  },
  {
    "partId": 138333,
    "stateCode": "S13",
    "stateName": "Maharashtra",
    "districtCode": "S1325",
    "districtName": "Pune",
    "acNumber": 196,
    "acName": "Ambegaon",
    "partNumber": 168,
    "partName": "Kurwandi Matewadi",
    "lat": 19.03169355,
    "lon": 73.95003011520785
  },
  {
    "partId": 138334,
    "stateCode": "S13",
    "stateName": "Maharashtra",
    "districtCode": "S1325",
    "districtName": "Pune",
    "acNumber": 196,
    "acName": "Ambegaon",
    "partNumber": 169,
    "partName": "Kolharavadi",
    "lat": 19.03169355,
    "lon": 73.95003011520785
  },
  {
    "partId": 138335,
    "stateCode": "S13",
    "stateName": "Maharashtra",
    "districtCode": "S1325",
    "districtName": "Pune",
    "acNumber": 196,
    "acName": "Ambegaon",
    "partNumber": 170,
    "partName": "Thougaon",
    "lat": 19.03169355,
    "lon": 73.95003011520785
  },
  {
    "partId": 138336,
    "stateCode": "S13",
    "stateName": "Maharashtra",
    "districtCode": "S1325",
    "districtName": "Pune",
    "acNumber": 196,
    "acName": "Ambegaon",
    "partNumber": 171,
    "partName": "Nighotwadi",
    "lat": 18.9996811,
    "lon": 73.9246202
  },
  {
    "partId": 138337,
    "stateCode": "S13",
    "stateName": "Maharashtra",
    "districtCode": "S1325",
    "districtName": "Pune",
    "acNumber": 196,
    "acName": "Ambegaon",
    "partNumber": 172,
    "partName": "Nighotavadi",
    "lat": 19.03169355,
    "lon": 73.95003011520785
  },
  {
    "partId": 138338,
    "stateCode": "S13",
    "stateName": "Maharashtra",
    "districtCode": "S1325",
    "districtName": "Pune",
    "acNumber": 196,
    "acName": "Ambegaon",
    "partNumber": 173,
    "partName": "Nighot wadi dasturwadi",
    "lat": 19.03169355,
    "lon": 73.95003011520785
  },
  {
    "partId": 138339,
    "stateCode": "S13",
    "stateName": "Maharashtra",
    "districtCode": "S1325",
    "districtName": "Pune",
    "acNumber": 196,
    "acName": "Ambegaon",
    "partNumber": 174,
    "partName": "Shevalavadi Manchar",
    "lat": 19.03169355,
    "lon": 73.95003011520785
  },
  {
    "partId": 138340,
    "stateCode": "S13",
    "stateName": "Maharashtra",
    "districtCode": "S1325",
    "districtName": "Pune",
    "acNumber": 196,
    "acName": "Ambegaon",
    "partNumber": 175,
    "partName": "Shevalavadi Manchar",
    "lat": 19.03169355,
    "lon": 73.95003011520785
  },
  {
    "partId": 138341,
    "stateCode": "S13",
    "stateName": "Maharashtra",
    "districtCode": "S1325",
    "districtName": "Pune",
    "acNumber": 196,
    "acName": "Ambegaon",
    "partNumber": 176,
    "partName": "Awasari Khurd",
    "lat": 18.9705415,
    "lon": 73.9654514
  },
  {
    "partId": 138342,
    "stateCode": "S13",
    "stateName": "Maharashtra",
    "districtCode": "S1325",
    "districtName": "Pune",
    "acNumber": 196,
    "acName": "Ambegaon",
    "partNumber": 177,
    "partName": "Awasari Khurd",
    "lat": 18.9705415,
    "lon": 73.9654514
  },
  {
    "partId": 138343,
    "stateCode": "S13",
    "stateName": "Maharashtra",
    "districtCode": "S1325",
    "districtName": "Pune",
    "acNumber": 196,
    "acName": "Ambegaon",
    "partNumber": 178,
    "partName": "Awasari Khurd",
    "lat": 18.9705415,
    "lon": 73.9654514
  },
  {
    "partId": 138344,
    "stateCode": "S13",
    "stateName": "Maharashtra",
    "districtCode": "S1325",
    "districtName": "Pune",
    "acNumber": 196,
    "acName": "Ambegaon",
    "partNumber": 179,
    "partName": "Awasari khurd",
    "lat": 18.9705415,
    "lon": 73.9654514
  },
  {
    "partId": 138345,
    "stateCode": "S13",
    "stateName": "Maharashtra",
    "districtCode": "S1325",
    "districtName": "Pune",
    "acNumber": 196,
    "acName": "Ambegaon",
    "partNumber": 180,
    "partName": "Awasari khurd",
    "lat": 18.9705415,
    "lon": 73.9654514
  },
  {
    "partId": 138346,
    "stateCode": "S13",
    "stateName": "Maharashtra",
    "districtCode": "S1325",
    "districtName": "Pune",
    "acNumber": 196,
    "acName": "Ambegaon",
    "partNumber": 181,
    "partName": "Bhoravadi",
    "lat": 19.12306565,
    "lon": 74.05290254013345
  },
  {
    "partId": 138347,
    "stateCode": "S13",
    "stateName": "Maharashtra",
    "districtCode": "S1325",
    "districtName": "Pune",
    "acNumber": 196,
    "acName": "Ambegaon",
    "partNumber": 182,
    "partName": "Bhorwadi",
    "lat": 19.12306565,
    "lon": 74.05290254013345
  },
  {
    "partId": 138348,
    "stateCode": "S13",
    "stateName": "Maharashtra",
    "districtCode": "S1325",
    "districtName": "Pune",
    "acNumber": 196,
    "acName": "Ambegaon",
    "partNumber": 183,
    "partName": "Tambdemala",
    "lat": 19.03169355,
    "lon": 73.95003011520785
  },
  {
    "partId": 138349,
    "stateCode": "S13",
    "stateName": "Maharashtra",
    "districtCode": "S1325",
    "districtName": "Pune",
    "acNumber": 196,
    "acName": "Ambegaon",
    "partNumber": 184,
    "partName": "Wayalmala awasari Khurd",
    "lat": 19.03169355,
    "lon": 73.95003011520785
  },
  {
    "partId": 138350,
    "stateCode": "S13",
    "stateName": "Maharashtra",
    "districtCode": "S1325",
    "districtName": "Pune",
    "acNumber": 196,
    "acName": "Ambegaon",
    "partNumber": 185,
    "partName": "Awasari budruk",
    "lat": 19.03169355,
    "lon": 73.95003011520785
  },
  {
    "partId": 138351,
    "stateCode": "S13",
    "stateName": "Maharashtra",
    "districtCode": "S1325",
    "districtName": "Pune",
    "acNumber": 196,
    "acName": "Ambegaon",
    "partNumber": 186,
    "partName": "Awasari budruk",
    "lat": 19.03169355,
    "lon": 73.95003011520785
  },
  {
    "partId": 138352,
    "stateCode": "S13",
    "stateName": "Maharashtra",
    "districtCode": "S1325",
    "districtName": "Pune",
    "acNumber": 196,
    "acName": "Ambegaon",
    "partNumber": 187,
    "partName": "Awasari budruk",
    "lat": 19.03169355,
    "lon": 73.95003011520785
  },
  {
    "partId": 138353,
    "stateCode": "S13",
    "stateName": "Maharashtra",
    "districtCode": "S1325",
    "districtName": "Pune",
    "acNumber": 196,
    "acName": "Ambegaon",
    "partNumber": 188,
    "partName": "Awasari budruk",
    "lat": 18.98990760890625,
    "lon": 73.95687265311894
  },
  {
    "partId": 138354,
    "stateCode": "S13",
    "stateName": "Maharashtra",
    "districtCode": "S1325",
    "districtName": "Pune",
    "acNumber": 196,
    "acName": "Ambegaon",
    "partNumber": 189,
    "partName": "Mengadewadi",
    "lat": 18.98990760890625,
    "lon": 73.95687265311894
  },
  {
    "partId": 138355,
    "stateCode": "S13",
    "stateName": "Maharashtra",
    "districtCode": "S1325",
    "districtName": "Pune",
    "acNumber": 196,
    "acName": "Ambegaon",
    "partNumber": 190,
    "partName": "Mengadevadi",
    "lat": 19.03169355,
    "lon": 73.95003011520785
  },
  {
    "partId": 138356,
    "stateCode": "S13",
    "stateName": "Maharashtra",
    "districtCode": "S1325",
    "districtName": "Pune",
    "acNumber": 196,
    "acName": "Ambegaon",
    "partNumber": 191,
    "partName": "Niragudsar",
    "lat": 19.03169355,
    "lon": 73.95003011520785
  },
  {
    "partId": 138357,
    "stateCode": "S13",
    "stateName": "Maharashtra",
    "districtCode": "S1325",
    "districtName": "Pune",
    "acNumber": 196,
    "acName": "Ambegaon",
    "partNumber": 192,
    "partName": "Niragudasar",
    "lat": 19.03169355,
    "lon": 73.95003011520785
  },
  {
    "partId": 138358,
    "stateCode": "S13",
    "stateName": "Maharashtra",
    "districtCode": "S1325",
    "districtName": "Pune",
    "acNumber": 196,
    "acName": "Ambegaon",
    "partNumber": 193,
    "partName": "Niragudasar",
    "lat": 19.03169355,
    "lon": 73.95003011520785
  },
  {
    "partId": 138359,
    "stateCode": "S13",
    "stateName": "Maharashtra",
    "districtCode": "S1325",
    "districtName": "Pune",
    "acNumber": 196,
    "acName": "Ambegaon",
    "partNumber": 194,
    "partName": "Belasaravadi",
    "lat": 19.03169355,
    "lon": 73.95003011520785
  },
  {
    "partId": 138360,
    "stateCode": "S13",
    "stateName": "Maharashtra",
    "districtCode": "S1325",
    "districtName": "Pune",
    "acNumber": 196,
    "acName": "Ambegaon",
    "partNumber": 195,
    "partName": "Paragaon Tarfe Awsari Budruk",
    "lat": 19.03169355,
    "lon": 73.95003011520785
  },
  {
    "partId": 138361,
    "stateCode": "S13",
    "stateName": "Maharashtra",
    "districtCode": "S1325",
    "districtName": "Pune",
    "acNumber": 196,
    "acName": "Ambegaon",
    "partNumber": 196,
    "partName": "Paragav",
    "lat": 19.03169355,
    "lon": 73.95003011520785
  },
  {
    "partId": 138362,
    "stateCode": "S13",
    "stateName": "Maharashtra",
    "districtCode": "S1325",
    "districtName": "Pune",
    "acNumber": 196,
    "acName": "Ambegaon",
    "partNumber": 197,
    "partName": "Paragav",
    "lat": 19.03169355,
    "lon": 73.95003011520785
  },
  {
    "partId": 138363,
    "stateCode": "S13",
    "stateName": "Maharashtra",
    "districtCode": "S1325",
    "districtName": "Pune",
    "acNumber": 196,
    "acName": "Ambegaon",
    "partNumber": 198,
    "partName": "Kathapur budruk",
    "lat": 19.03169355,
    "lon": 73.95003011520785
  },
  {
    "partId": 138364,
    "stateCode": "S13",
    "stateName": "Maharashtra",
    "districtCode": "S1325",
    "districtName": "Pune",
    "acNumber": 196,
    "acName": "Ambegaon",
    "partNumber": 199,
    "partName": "Kathapur Budruk",
    "lat": 19.03169355,
    "lon": 73.95003011520785
  },
  {
    "partId": 138365,
    "stateCode": "S13",
    "stateName": "Maharashtra",
    "districtCode": "S1325",
    "districtName": "Pune",
    "acNumber": 196,
    "acName": "Ambegaon",
    "partNumber": 200,
    "partName": "Devagav",
    "lat": 19.03169355,
    "lon": 73.95003011520785
  },
  {
    "partId": 138366,
    "stateCode": "S13",
    "stateName": "Maharashtra",
    "districtCode": "S1325",
    "districtName": "Pune",
    "acNumber": 196,
    "acName": "Ambegaon",
    "partNumber": 201,
    "partName": "Chandoh",
    "lat": 18.9881406,
    "lon": 74.1684104
  },
  {
    "partId": 138367,
    "stateCode": "S13",
    "stateName": "Maharashtra",
    "districtCode": "S1325",
    "districtName": "Pune",
    "acNumber": 196,
    "acName": "Ambegaon",
    "partNumber": 202,
    "partName": "Vadner Khurd",
    "lat": 19.03169355,
    "lon": 73.95003011520785
  },
  {
    "partId": 138368,
    "stateCode": "S13",
    "stateName": "Maharashtra",
    "districtCode": "S1325",
    "districtName": "Pune",
    "acNumber": 196,
    "acName": "Ambegaon",
    "partNumber": 203,
    "partName": "Vadner khurd",
    "lat": 19.03169355,
    "lon": 73.95003011520785
  },
  {
    "partId": 138369,
    "stateCode": "S13",
    "stateName": "Maharashtra",
    "districtCode": "S1325",
    "districtName": "Pune",
    "acNumber": 196,
    "acName": "Ambegaon",
    "partNumber": 204,
    "partName": "Fakate",
    "lat": 19.03169355,
    "lon": 73.95003011520785
  },
  {
    "partId": 138370,
    "stateCode": "S13",
    "stateName": "Maharashtra",
    "districtCode": "S1325",
    "districtName": "Pune",
    "acNumber": 196,
    "acName": "Ambegaon",
    "partNumber": 205,
    "partName": "Lakhangaon",
    "lat": 19.03169355,
    "lon": 73.95003011520785
  },
  {
    "partId": 138371,
    "stateCode": "S13",
    "stateName": "Maharashtra",
    "districtCode": "S1325",
    "districtName": "Pune",
    "acNumber": 196,
    "acName": "Ambegaon",
    "partNumber": 206,
    "partName": "Lakhangaon",
    "lat": 19.03169355,
    "lon": 73.95003011520785
  },
  {
    "partId": 138372,
    "stateCode": "S13",
    "stateName": "Maharashtra",
    "districtCode": "S1325",
    "districtName": "Pune",
    "acNumber": 196,
    "acName": "Ambegaon",
    "partNumber": 207,
    "partName": "Pondewadi",
    "lat": 19.03169355,
    "lon": 73.95003011520785
  },
  {
    "partId": 138373,
    "stateCode": "S13",
    "stateName": "Maharashtra",
    "districtCode": "S1325",
    "districtName": "Pune",
    "acNumber": 196,
    "acName": "Ambegaon",
    "partNumber": 208,
    "partName": "Pondewadi",
    "lat": 19.03169355,
    "lon": 73.95003011520785
  },
  {
    "partId": 138374,
    "stateCode": "S13",
    "stateName": "Maharashtra",
    "districtCode": "S1325",
    "districtName": "Pune",
    "acNumber": 196,
    "acName": "Ambegaon",
    "partNumber": 209,
    "partName": "Jarkarwadi",
    "lat": 19.03169355,
    "lon": 73.95003011520785
  },
  {
    "partId": 138375,
    "stateCode": "S13",
    "stateName": "Maharashtra",
    "districtCode": "S1325",
    "districtName": "Pune",
    "acNumber": 196,
    "acName": "Ambegaon",
    "partNumber": 210,
    "partName": "Jarkarwadi",
    "lat": 19.03169355,
    "lon": 73.95003011520785
  },
  {
    "partId": 138376,
    "stateCode": "S13",
    "stateName": "Maharashtra",
    "districtCode": "S1325",
    "districtName": "Pune",
    "acNumber": 196,
    "acName": "Ambegaon",
    "partNumber": 211,
    "partName": "jarkarwadi badhekarvasti",
    "lat": 19.03169355,
    "lon": 73.95003011520785
  },
  {
    "partId": 138377,
    "stateCode": "S13",
    "stateName": "Maharashtra",
    "districtCode": "S1325",
    "districtName": "Pune",
    "acNumber": 196,
    "acName": "Ambegaon",
    "partNumber": 212,
    "partName": "Gavadevadi",
    "lat": 18.98990760890625,
    "lon": 73.95687265311894
  },
  {
    "partId": 138378,
    "stateCode": "S13",
    "stateName": "Maharashtra",
    "districtCode": "S1325",
    "districtName": "Pune",
    "acNumber": 196,
    "acName": "Ambegaon",
    "partNumber": 213,
    "partName": "Gavadevadi",
    "lat": 19.03169355,
    "lon": 73.95003011520785
  },
  {
    "partId": 138379,
    "stateCode": "S13",
    "stateName": "Maharashtra",
    "districtCode": "S1325",
    "districtName": "Pune",
    "acNumber": 196,
    "acName": "Ambegaon",
    "partNumber": 214,
    "partName": "Gavadevadi",
    "lat": 19.03169355,
    "lon": 73.95003011520785
  },
  {
    "partId": 138380,
    "stateCode": "S13",
    "stateName": "Maharashtra",
    "districtCode": "S1325",
    "districtName": "Pune",
    "acNumber": 196,
    "acName": "Ambegaon",
    "partNumber": 215,
    "partName": "Tavharevadi",
    "lat": 19.03169355,
    "lon": 73.95003011520785
  },
  {
    "partId": 138381,
    "stateCode": "S13",
    "stateName": "Maharashtra",
    "districtCode": "S1325",
    "districtName": "Pune",
    "acNumber": 196,
    "acName": "Ambegaon",
    "partNumber": 216,
    "partName": "Karegav",
    "lat": 19.03169355,
    "lon": 73.95003011520785
  },
  {
    "partId": 138382,
    "stateCode": "S13",
    "stateName": "Maharashtra",
    "districtCode": "S1325",
    "districtName": "Pune",
    "acNumber": 196,
    "acName": "Ambegaon",
    "partNumber": 217,
    "partName": "Bhavadi",
    "lat": 19.03169355,
    "lon": 73.95003011520785
  },
  {
    "partId": 138383,
    "stateCode": "S13",
    "stateName": "Maharashtra",
    "districtCode": "S1325",
    "districtName": "Pune",
    "acNumber": 196,
    "acName": "Ambegaon",
    "partNumber": 218,
    "partName": "Peth",
    "lat": 18.929375800000003,
    "lon": 73.92553872057121
  },
  {
    "partId": 138384,
    "stateCode": "S13",
    "stateName": "Maharashtra",
    "districtCode": "S1325",
    "districtName": "Pune",
    "acNumber": 196,
    "acName": "Ambegaon",
    "partNumber": 219,
    "partName": "Peth",
    "lat": 18.929375800000003,
    "lon": 73.92553872057121
  },
  {
    "partId": 138385,
    "stateCode": "S13",
    "stateName": "Maharashtra",
    "districtCode": "S1325",
    "districtName": "Pune",
    "acNumber": 196,
    "acName": "Ambegaon",
    "partNumber": 220,
    "partName": "Peth",
    "lat": 18.929375800000003,
    "lon": 73.92553872057121
  },
  {
    "partId": 138386,
    "stateCode": "S13",
    "stateName": "Maharashtra",
    "districtCode": "S1325",
    "districtName": "Pune",
    "acNumber": 196,
    "acName": "Ambegaon",
    "partNumber": 221,
    "partName": "Peth",
    "lat": 18.929375800000003,
    "lon": 73.92553872057121
  },
  {
    "partId": 138387,
    "stateCode": "S13",
    "stateName": "Maharashtra",
    "districtCode": "S1325",
    "districtName": "Pune",
    "acNumber": 196,
    "acName": "Ambegaon",
    "partNumber": 222,
    "partName": "Pargaon Tarfe Khed",
    "lat": 19.03169355,
    "lon": 73.95003011520785
  },
  {
    "partId": 138388,
    "stateCode": "S13",
    "stateName": "Maharashtra",
    "districtCode": "S1325",
    "districtName": "Pune",
    "acNumber": 196,
    "acName": "Ambegaon",
    "partNumber": 223,
    "partName": "Pargaon Tarfe Khed",
    "lat": 19.03169355,
    "lon": 73.95003011520785
  },
  {
    "partId": 138389,
    "stateCode": "S13",
    "stateName": "Maharashtra",
    "districtCode": "S1325",
    "districtName": "Pune",
    "acNumber": 196,
    "acName": "Ambegaon",
    "partNumber": 224,
    "partName": "Pargaon Tarfe Khed Gangewadi",
    "lat": 19.03169355,
    "lon": 73.95003011520785
  },
  {
    "partId": 138390,
    "stateCode": "S13",
    "stateName": "Maharashtra",
    "districtCode": "S1325",
    "districtName": "Pune",
    "acNumber": 196,
    "acName": "Ambegaon",
    "partNumber": 225,
    "partName": "Shiradale",
    "lat": 19.03169355,
    "lon": 73.95003011520785
  },
  {
    "partId": 138391,
    "stateCode": "S13",
    "stateName": "Maharashtra",
    "districtCode": "S1325",
    "districtName": "Pune",
    "acNumber": 196,
    "acName": "Ambegaon",
    "partNumber": 226,
    "partName": "Ranmala",
    "lat": 19.03169355,
    "lon": 73.95003011520785
  },
  {
    "partId": 138392,
    "stateCode": "S13",
    "stateName": "Maharashtra",
    "districtCode": "S1325",
    "districtName": "Pune",
    "acNumber": 196,
    "acName": "Ambegaon",
    "partNumber": 227,
    "partName": "Dhamani",
    "lat": 19.03169355,
    "lon": 73.95003011520785
  },
  {
    "partId": 138393,
    "stateCode": "S13",
    "stateName": "Maharashtra",
    "districtCode": "S1325",
    "districtName": "Pune",
    "acNumber": 196,
    "acName": "Ambegaon",
    "partNumber": 228,
    "partName": "Dhamani",
    "lat": 18.98990760890625,
    "lon": 73.95687265311894
  },
  {
    "partId": 138394,
    "stateCode": "S13",
    "stateName": "Maharashtra",
    "districtCode": "S1325",
    "districtName": "Pune",
    "acNumber": 196,
    "acName": "Ambegaon",
    "partNumber": 229,
    "partName": "Dhamani",
    "lat": 19.03169355,
    "lon": 73.95003011520785
  },
  {
    "partId": 138395,
    "stateCode": "S13",
    "stateName": "Maharashtra",
    "districtCode": "S1325",
    "districtName": "Pune",
    "acNumber": 196,
    "acName": "Ambegaon",
    "partNumber": 230,
    "partName": "Pahadadara",
    "lat": 18.98990760890625,
    "lon": 73.95687265311894
  },
  {
    "partId": 138396,
    "stateCode": "S13",
    "stateName": "Maharashtra",
    "districtCode": "S1325",
    "districtName": "Pune",
    "acNumber": 196,
    "acName": "Ambegaon",
    "partNumber": 231,
    "partName": "Khadakavadi",
    "lat": 18.98990760890625,
    "lon": 73.95687265311894
  },
  {
    "partId": 138397,
    "stateCode": "S13",
    "stateName": "Maharashtra",
    "districtCode": "S1325",
    "districtName": "Pune",
    "acNumber": 196,
    "acName": "Ambegaon",
    "partNumber": 232,
    "partName": "Khadakavadi",
    "lat": 19.03169355,
    "lon": 73.95003011520785
  },
  {
    "partId": 138398,
    "stateCode": "S13",
    "stateName": "Maharashtra",
    "districtCode": "S1325",
    "districtName": "Pune",
    "acNumber": 196,
    "acName": "Ambegaon",
    "partNumber": 233,
    "partName": "Walunjnagar",
    "lat": 19.03169355,
    "lon": 73.95003011520785
  },
  {
    "partId": 138399,
    "stateCode": "S13",
    "stateName": "Maharashtra",
    "districtCode": "S1325",
    "districtName": "Pune",
    "acNumber": 196,
    "acName": "Ambegaon",
    "partNumber": 234,
    "partName": "Loni",
    "lat": 18.4908467,
    "lon": 74.0208082
  },
  {
    "partId": 138400,
    "stateCode": "S13",
    "stateName": "Maharashtra",
    "districtCode": "S1325",
    "districtName": "Pune",
    "acNumber": 196,
    "acName": "Ambegaon",
    "partNumber": 235,
    "partName": "Loni",
    "lat": 18.4908467,
    "lon": 74.0208082
  },
  {
    "partId": 138401,
    "stateCode": "S13",
    "stateName": "Maharashtra",
    "districtCode": "S1325",
    "districtName": "Pune",
    "acNumber": 196,
    "acName": "Ambegaon",
    "partNumber": 236,
    "partName": "Loni",
    "lat": 18.98990760890625,
    "lon": 73.95687265311894
  },
  {
    "partId": 138402,
    "stateCode": "S13",
    "stateName": "Maharashtra",
    "districtCode": "S1325",
    "districtName": "Pune",
    "acNumber": 196,
    "acName": "Ambegaon",
    "partNumber": 237,
    "partName": "Savindane",
    "lat": 19.03169355,
    "lon": 73.95003011520785
  },
  {
    "partId": 138403,
    "stateCode": "S13",
    "stateName": "Maharashtra",
    "districtCode": "S1325",
    "districtName": "Pune",
    "acNumber": 196,
    "acName": "Ambegaon",
    "partNumber": 238,
    "partName": "Savindane",
    "lat": 19.03169355,
    "lon": 73.95003011520785
  },
  {
    "partId": 138404,
    "stateCode": "S13",
    "stateName": "Maharashtra",
    "districtCode": "S1325",
    "districtName": "Pune",
    "acNumber": 196,
    "acName": "Ambegaon",
    "partNumber": 239,
    "partName": "Savindane",
    "lat": 19.03169355,
    "lon": 73.95003011520785
  },
  {
    "partId": 138405,
    "stateCode": "S13",
    "stateName": "Maharashtra",
    "districtCode": "S1325",
    "districtName": "Pune",
    "acNumber": 196,
    "acName": "Ambegaon",
    "partNumber": 240,
    "partName": "Savindane",
    "lat": 18.98990760890625,
    "lon": 73.95687265311894
  },
  {
    "partId": 138406,
    "stateCode": "S13",
    "stateName": "Maharashtra",
    "districtCode": "S1325",
    "districtName": "Pune",
    "acNumber": 196,
    "acName": "Ambegaon",
    "partNumber": 241,
    "partName": "Savindane",
    "lat": 19.03169355,
    "lon": 73.95003011520785
  },
  {
    "partId": 138407,
    "stateCode": "S13",
    "stateName": "Maharashtra",
    "districtCode": "S1325",
    "districtName": "Pune",
    "acNumber": 196,
    "acName": "Ambegaon",
    "partNumber": 242,
    "partName": "Kavathe yamai",
    "lat": 19.03169355,
    "lon": 73.95003011520785
  },
  {
    "partId": 138408,
    "stateCode": "S13",
    "stateName": "Maharashtra",
    "districtCode": "S1325",
    "districtName": "Pune",
    "acNumber": 196,
    "acName": "Ambegaon",
    "partNumber": 243,
    "partName": "Kavathe yamai",
    "lat": 19.03169355,
    "lon": 73.95003011520785
  },
  {
    "partId": 138409,
    "stateCode": "S13",
    "stateName": "Maharashtra",
    "districtCode": "S1325",
    "districtName": "Pune",
    "acNumber": 196,
    "acName": "Ambegaon",
    "partNumber": 244,
    "partName": "Kavathe yamai",
    "lat": 19.03169355,
    "lon": 73.95003011520785
  },
  {
    "partId": 138410,
    "stateCode": "S13",
    "stateName": "Maharashtra",
    "districtCode": "S1325",
    "districtName": "Pune",
    "acNumber": 196,
    "acName": "Ambegaon",
    "partNumber": 245,
    "partName": "Kavathe Yamai",
    "lat": 18.98990760890625,
    "lon": 73.95687265311894
  },
  {
    "partId": 138411,
    "stateCode": "S13",
    "stateName": "Maharashtra",
    "districtCode": "S1325",
    "districtName": "Pune",
    "acNumber": 196,
    "acName": "Ambegaon",
    "partNumber": 246,
    "partName": "Kavathe Yamai Ganeshnagar",
    "lat": 19.03169355,
    "lon": 73.95003011520785
  },
  {
    "partId": 138412,
    "stateCode": "S13",
    "stateName": "Maharashtra",
    "districtCode": "S1325",
    "districtName": "Pune",
    "acNumber": 196,
    "acName": "Ambegaon",
    "partNumber": 247,
    "partName": "Nimgaon dude",
    "lat": 19.03169355,
    "lon": 73.95003011520785
  },
  {
    "partId": 138413,
    "stateCode": "S13",
    "stateName": "Maharashtra",
    "districtCode": "S1325",
    "districtName": "Pune",
    "acNumber": 196,
    "acName": "Ambegaon",
    "partNumber": 248,
    "partName": "Dudevadi",
    "lat": 19.03169355,
    "lon": 73.95003011520785
  },
  {
    "partId": 138414,
    "stateCode": "S13",
    "stateName": "Maharashtra",
    "districtCode": "S1325",
    "districtName": "Pune",
    "acNumber": 196,
    "acName": "Ambegaon",
    "partNumber": 249,
    "partName": "Takali Haji",
    "lat": 18.9059221,
    "lon": 74.2444905
  },
  {
    "partId": 138415,
    "stateCode": "S13",
    "stateName": "Maharashtra",
    "districtCode": "S1325",
    "districtName": "Pune",
    "acNumber": 196,
    "acName": "Ambegaon",
    "partNumber": 250,
    "partName": "Takali Haji",
    "lat": 18.9059221,
    "lon": 74.2444905
  },
  {
    "partId": 138416,
    "stateCode": "S13",
    "stateName": "Maharashtra",
    "districtCode": "S1325",
    "districtName": "Pune",
    "acNumber": 196,
    "acName": "Ambegaon",
    "partNumber": 251,
    "partName": "Takali Haji",
    "lat": 18.9059221,
    "lon": 74.2444905
  },
  {
    "partId": 138417,
    "stateCode": "S13",
    "stateName": "Maharashtra",
    "districtCode": "S1325",
    "districtName": "Pune",
    "acNumber": 196,
    "acName": "Ambegaon",
    "partNumber": 252,
    "partName": "Takali haji",
    "lat": 18.9059221,
    "lon": 74.2444905
  },
  {
    "partId": 146664,
    "stateCode": "S13",
    "stateName": "Maharashtra",
    "districtCode": "S1325",
    "districtName": "Pune",
    "acNumber": 196,
    "acName": "Ambegaon",
    "partNumber": 253,
    "partName": "Malwadi",
    "lat": 19.03169355,
    "lon": 73.95003011520785
  },
  {
    "partId": 138418,
    "stateCode": "S13",
    "stateName": "Maharashtra",
    "districtCode": "S1325",
    "districtName": "Pune",
    "acNumber": 196,
    "acName": "Ambegaon",
    "partNumber": 254,
    "partName": "Takali haji",
    "lat": 18.9059221,
    "lon": 74.2444905
  },
  {
    "partId": 138419,
    "stateCode": "S13",
    "stateName": "Maharashtra",
    "districtCode": "S1325",
    "districtName": "Pune",
    "acNumber": 196,
    "acName": "Ambegaon",
    "partNumber": 255,
    "partName": "Shingarwadi Takalihaji",
    "lat": 19.03169355,
    "lon": 73.95003011520785
  },
  {
    "partId": 138420,
    "stateCode": "S13",
    "stateName": "Maharashtra",
    "districtCode": "S1325",
    "districtName": "Pune",
    "acNumber": 196,
    "acName": "Ambegaon",
    "partNumber": 256,
    "partName": "Mhase Budruk",
    "lat": 19.03169355,
    "lon": 73.95003011520785
  },
  {
    "partId": 138421,
    "stateCode": "S13",
    "stateName": "Maharashtra",
    "districtCode": "S1325",
    "districtName": "Pune",
    "acNumber": 196,
    "acName": "Ambegaon",
    "partNumber": 257,
    "partName": "Dongaragan",
    "lat": 19.03169355,
    "lon": 73.95003011520785
  },
  {
    "partId": 138422,
    "stateCode": "S13",
    "stateName": "Maharashtra",
    "districtCode": "S1325",
    "districtName": "Pune",
    "acNumber": 196,
    "acName": "Ambegaon",
    "partNumber": 258,
    "partName": "Amadabad",
    "lat": 19.03169355,
    "lon": 73.95003011520785
  },
  {
    "partId": 138423,
    "stateCode": "S13",
    "stateName": "Maharashtra",
    "districtCode": "S1325",
    "districtName": "Pune",
    "acNumber": 196,
    "acName": "Ambegaon",
    "partNumber": 259,
    "partName": "Amadabad",
    "lat": 19.03169355,
    "lon": 73.95003011520785
  },
  {
    "partId": 138424,
    "stateCode": "S13",
    "stateName": "Maharashtra",
    "districtCode": "S1325",
    "districtName": "Pune",
    "acNumber": 196,
    "acName": "Ambegaon",
    "partNumber": 260,
    "partName": "Raavadevadi",
    "lat": 19.03169355,
    "lon": 73.95003011520785
  },
  {
    "partId": 138425,
    "stateCode": "S13",
    "stateName": "Maharashtra",
    "districtCode": "S1325",
    "districtName": "Pune",
    "acNumber": 196,
    "acName": "Ambegaon",
    "partNumber": 261,
    "partName": "Malathan",
    "lat": 19.03169355,
    "lon": 73.95003011520785
  },
  {
    "partId": 138426,
    "stateCode": "S13",
    "stateName": "Maharashtra",
    "districtCode": "S1325",
    "districtName": "Pune",
    "acNumber": 196,
    "acName": "Ambegaon",
    "partNumber": 262,
    "partName": "Malathan",
    "lat": 19.03169355,
    "lon": 73.95003011520785
  },
  {
    "partId": 138427,
    "stateCode": "S13",
    "stateName": "Maharashtra",
    "districtCode": "S1325",
    "districtName": "Pune",
    "acNumber": 196,
    "acName": "Ambegaon",
    "partNumber": 263,
    "partName": "Malathan",
    "lat": 19.03169355,
    "lon": 73.95003011520785
  },
  {
    "partId": 138428,
    "stateCode": "S13",
    "stateName": "Maharashtra",
    "districtCode": "S1325",
    "districtName": "Pune",
    "acNumber": 196,
    "acName": "Ambegaon",
    "partNumber": 264,
    "partName": "Malathan Shindevadi",
    "lat": 19.03169355,
    "lon": 73.95003011520785
  },
  {
    "partId": 138429,
    "stateCode": "S13",
    "stateName": "Maharashtra",
    "districtCode": "S1325",
    "districtName": "Pune",
    "acNumber": 196,
    "acName": "Ambegaon",
    "partNumber": 265,
    "partName": "Munjalavadi",
    "lat": 19.03169355,
    "lon": 73.95003011520785
  },
  {
    "partId": 138430,
    "stateCode": "S13",
    "stateName": "Maharashtra",
    "districtCode": "S1325",
    "districtName": "Pune",
    "acNumber": 196,
    "acName": "Ambegaon",
    "partNumber": 266,
    "partName": "Madanlevadi",
    "lat": 19.03169355,
    "lon": 73.95003011520785
  },
  {
    "partId": 138431,
    "stateCode": "S13",
    "stateName": "Maharashtra",
    "districtCode": "S1325",
    "districtName": "Pune",
    "acNumber": 196,
    "acName": "Ambegaon",
    "partNumber": 267,
    "partName": "Vadagaonpir",
    "lat": 19.03169355,
    "lon": 73.95003011520785
  },
  {
    "partId": 138432,
    "stateCode": "S13",
    "stateName": "Maharashtra",
    "districtCode": "S1325",
    "districtName": "Pune",
    "acNumber": 196,
    "acName": "Ambegaon",
    "partNumber": 268,
    "partName": "pimpalwadi Pabal",
    "lat": 19.03169355,
    "lon": 73.95003011520785
  },
  {
    "partId": 138433,
    "stateCode": "S13",
    "stateName": "Maharashtra",
    "districtCode": "S1325",
    "districtName": "Pune",
    "acNumber": 196,
    "acName": "Ambegaon",
    "partNumber": 269,
    "partName": "Pabal",
    "lat": 18.8315338,
    "lon": 74.0536443
  },
  {
    "partId": 138434,
    "stateCode": "S13",
    "stateName": "Maharashtra",
    "districtCode": "S1325",
    "districtName": "Pune",
    "acNumber": 196,
    "acName": "Ambegaon",
    "partNumber": 270,
    "partName": "Pabal (futanavadi )",
    "lat": 19.03169355,
    "lon": 73.95003011520785
  },
  {
    "partId": 138435,
    "stateCode": "S13",
    "stateName": "Maharashtra",
    "districtCode": "S1325",
    "districtName": "Pune",
    "acNumber": 196,
    "acName": "Ambegaon",
    "partNumber": 271,
    "partName": "Pabal",
    "lat": 18.8315338,
    "lon": 74.0536443
  },
  {
    "partId": 138436,
    "stateCode": "S13",
    "stateName": "Maharashtra",
    "districtCode": "S1325",
    "districtName": "Pune",
    "acNumber": 196,
    "acName": "Ambegaon",
    "partNumber": 272,
    "partName": "Pabal",
    "lat": 18.8315338,
    "lon": 74.0536443
  },
  {
    "partId": 138437,
    "stateCode": "S13",
    "stateName": "Maharashtra",
    "districtCode": "S1325",
    "districtName": "Pune",
    "acNumber": 196,
    "acName": "Ambegaon",
    "partNumber": 273,
    "partName": "Pabal",
    "lat": 18.8315338,
    "lon": 74.0536443
  },
  {
    "partId": 138438,
    "stateCode": "S13",
    "stateName": "Maharashtra",
    "districtCode": "S1325",
    "districtName": "Pune",
    "acNumber": 196,
    "acName": "Ambegaon",
    "partNumber": 274,
    "partName": "Pabal",
    "lat": 18.98990760890625,
    "lon": 73.95687265311894
  },
  {
    "partId": 138439,
    "stateCode": "S13",
    "stateName": "Maharashtra",
    "districtCode": "S1325",
    "districtName": "Pune",
    "acNumber": 196,
    "acName": "Ambegaon",
    "partNumber": 275,
    "partName": "Pabal",
    "lat": 18.8315338,
    "lon": 74.0536443
  },
  {
    "partId": 138440,
    "stateCode": "S13",
    "stateName": "Maharashtra",
    "districtCode": "S1325",
    "districtName": "Pune",
    "acNumber": 196,
    "acName": "Ambegaon",
    "partNumber": 276,
    "partName": "Khairenagar Pabal",
    "lat": 19.03169355,
    "lon": 73.95003011520785
  },
  {
    "partId": 138441,
    "stateCode": "S13",
    "stateName": "Maharashtra",
    "districtCode": "S1325",
    "districtName": "Pune",
    "acNumber": 196,
    "acName": "Ambegaon",
    "partNumber": 277,
    "partName": "Midagulavadi",
    "lat": 19.03169355,
    "lon": 73.95003011520785
  },
  {
    "partId": 138442,
    "stateCode": "S13",
    "stateName": "Maharashtra",
    "districtCode": "S1325",
    "districtName": "Pune",
    "acNumber": 196,
    "acName": "Ambegaon",
    "partNumber": 278,
    "partName": "Kanhur Mesai",
    "lat": 19.03169355,
    "lon": 73.95003011520785
  },
  {
    "partId": 138443,
    "stateCode": "S13",
    "stateName": "Maharashtra",
    "districtCode": "S1325",
    "districtName": "Pune",
    "acNumber": 196,
    "acName": "Ambegaon",
    "partNumber": 279,
    "partName": "Kanhur mesai",
    "lat": 19.03169355,
    "lon": 73.95003011520785
  },
  {
    "partId": 138444,
    "stateCode": "S13",
    "stateName": "Maharashtra",
    "districtCode": "S1325",
    "districtName": "Pune",
    "acNumber": 196,
    "acName": "Ambegaon",
    "partNumber": 280,
    "partName": "Phalakewadi (Kanhur Mesai)",
    "lat": 19.03169355,
    "lon": 73.95003011520785
  },
  {
    "partId": 138445,
    "stateCode": "S13",
    "stateName": "Maharashtra",
    "districtCode": "S1325",
    "districtName": "Pune",
    "acNumber": 196,
    "acName": "Ambegaon",
    "partNumber": 281,
    "partName": "Kanhuramesai",
    "lat": 19.03169355,
    "lon": 73.95003011520785
  },
  {
    "partId": 138446,
    "stateCode": "S13",
    "stateName": "Maharashtra",
    "districtCode": "S1325",
    "districtName": "Pune",
    "acNumber": 196,
    "acName": "Ambegaon",
    "partNumber": 282,
    "partName": "Kanhuramesai",
    "lat": 19.03169355,
    "lon": 73.95003011520785
  },
  {
    "partId": 138447,
    "stateCode": "S13",
    "stateName": "Maharashtra",
    "districtCode": "S1325",
    "districtName": "Pune",
    "acNumber": 196,
    "acName": "Ambegaon",
    "partNumber": 283,
    "partName": "Chincholi Morachi",
    "lat": 19.03169355,
    "lon": 73.95003011520785
  },
  {
    "partId": 138448,
    "stateCode": "S13",
    "stateName": "Maharashtra",
    "districtCode": "S1325",
    "districtName": "Pune",
    "acNumber": 196,
    "acName": "Ambegaon",
    "partNumber": 284,
    "partName": "Chincholi morachi",
    "lat": 19.03169355,
    "lon": 73.95003011520785
  },
  {
    "partId": 138449,
    "stateCode": "S13",
    "stateName": "Maharashtra",
    "districtCode": "S1325",
    "districtName": "Pune",
    "acNumber": 196,
    "acName": "Ambegaon",
    "partNumber": 285,
    "partName": "Shastabad",
    "lat": 19.03169355,
    "lon": 73.95003011520785
  },
  {
    "partId": 138450,
    "stateCode": "S13",
    "stateName": "Maharashtra",
    "districtCode": "S1325",
    "districtName": "Pune",
    "acNumber": 196,
    "acName": "Ambegaon",
    "partNumber": 286,
    "partName": "Lakhewadi",
    "lat": 18.8247214,
    "lon": 74.1960168
  },
  {
    "partId": 138451,
    "stateCode": "S13",
    "stateName": "Maharashtra",
    "districtCode": "S1325",
    "districtName": "Pune",
    "acNumber": 196,
    "acName": "Ambegaon",
    "partNumber": 287,
    "partName": "Sonesangavi",
    "lat": 19.03169355,
    "lon": 73.95003011520785
  },
  {
    "partId": 138452,
    "stateCode": "S13",
    "stateName": "Maharashtra",
    "districtCode": "S1325",
    "districtName": "Pune",
    "acNumber": 196,
    "acName": "Ambegaon",
    "partNumber": 288,
    "partName": "Sonesangavi",
    "lat": 19.03169355,
    "lon": 73.95003011520785
  },
  {
    "partId": 138453,
    "stateCode": "S13",
    "stateName": "Maharashtra",
    "districtCode": "S1325",
    "districtName": "Pune",
    "acNumber": 196,
    "acName": "Ambegaon",
    "partNumber": 289,
    "partName": "Nimagavabhogi",
    "lat": 19.03169355,
    "lon": 73.95003011520785
  },
  {
    "partId": 138454,
    "stateCode": "S13",
    "stateName": "Maharashtra",
    "districtCode": "S1325",
    "districtName": "Pune",
    "acNumber": 196,
    "acName": "Ambegaon",
    "partNumber": 290,
    "partName": "Nimagavabhogi",
    "lat": 19.03169355,
    "lon": 73.95003011520785
  },
  {
    "partId": 138455,
    "stateCode": "S13",
    "stateName": "Maharashtra",
    "districtCode": "S1325",
    "districtName": "Pune",
    "acNumber": 196,
    "acName": "Ambegaon",
    "partNumber": 291,
    "partName": "Karegaon",
    "lat": 18.7828131,
    "lon": 74.2966193
  },
  {
    "partId": 138456,
    "stateCode": "S13",
    "stateName": "Maharashtra",
    "districtCode": "S1325",
    "districtName": "Pune",
    "acNumber": 196,
    "acName": "Ambegaon",
    "partNumber": 292,
    "partName": "Karegaon",
    "lat": 18.7828131,
    "lon": 74.2966193
  },
  {
    "partId": 138457,
    "stateCode": "S13",
    "stateName": "Maharashtra",
    "districtCode": "S1325",
    "districtName": "Pune",
    "acNumber": 196,
    "acName": "Ambegaon",
    "partNumber": 293,
    "partName": "Karegaon",
    "lat": 18.7828131,
    "lon": 74.2966193
  },
  {
    "partId": 138458,
    "stateCode": "S13",
    "stateName": "Maharashtra",
    "districtCode": "S1325",
    "districtName": "Pune",
    "acNumber": 196,
    "acName": "Ambegaon",
    "partNumber": 294,
    "partName": "Dhok sangavi",
    "lat": 19.03169355,
    "lon": 73.95003011520785
  },
  {
    "partId": 138459,
    "stateCode": "S13",
    "stateName": "Maharashtra",
    "districtCode": "S1325",
    "districtName": "Pune",
    "acNumber": 196,
    "acName": "Ambegaon",
    "partNumber": 295,
    "partName": "Dhok Sangavi",
    "lat": 19.03169355,
    "lon": 73.95003011520785
  },
  {
    "partId": 146751,
    "stateCode": "S13",
    "stateName": "Maharashtra",
    "districtCode": "S1325",
    "districtName": "Pune",
    "acNumber": 196,
    "acName": "Ambegaon",
    "partNumber": 296,
    "partName": "Dhoksangavi",
    "lat": 19.03169355,
    "lon": 73.95003011520785
  },
  {
    "partId": 138460,
    "stateCode": "S13",
    "stateName": "Maharashtra",
    "districtCode": "S1325",
    "districtName": "Pune",
    "acNumber": 196,
    "acName": "Ambegaon",
    "partNumber": 297,
    "partName": "Pimparidumala",
    "lat": 19.03169355,
    "lon": 73.95003011520785
  },
  {
    "partId": 138461,
    "stateCode": "S13",
    "stateName": "Maharashtra",
    "districtCode": "S1325",
    "districtName": "Pune",
    "acNumber": 196,
    "acName": "Ambegaon",
    "partNumber": 298,
    "partName": "Vaghale",
    "lat": 19.03169355,
    "lon": 73.95003011520785
  },
  {
    "partId": 138462,
    "stateCode": "S13",
    "stateName": "Maharashtra",
    "districtCode": "S1325",
    "districtName": "Pune",
    "acNumber": 196,
    "acName": "Ambegaon",
    "partNumber": 299,
    "partName": "Vaghale",
    "lat": 19.03169355,
    "lon": 73.95003011520785
  },
  {
    "partId": 138463,
    "stateCode": "S13",
    "stateName": "Maharashtra",
    "districtCode": "S1325",
    "districtName": "Pune",
    "acNumber": 196,
    "acName": "Ambegaon",
    "partNumber": 300,
    "partName": "Varude",
    "lat": 19.03169355,
    "lon": 73.95003011520785
  },
  {
    "partId": 138464,
    "stateCode": "S13",
    "stateName": "Maharashtra",
    "districtCode": "S1325",
    "districtName": "Pune",
    "acNumber": 196,
    "acName": "Ambegaon",
    "partNumber": 301,
    "partName": "Varude shingadawadi",
    "lat": 19.03169355,
    "lon": 73.95003011520785
  },
  {
    "partId": 138465,
    "stateCode": "S13",
    "stateName": "Maharashtra",
    "districtCode": "S1325",
    "districtName": "Pune",
    "acNumber": 196,
    "acName": "Ambegaon",
    "partNumber": 302,
    "partName": "Khairewadi",
    "lat": 18.791999,
    "lon": 74.1321158
  },
  {
    "partId": 138466,
    "stateCode": "S13",
    "stateName": "Maharashtra",
    "districtCode": "S1325",
    "districtName": "Pune",
    "acNumber": 196,
    "acName": "Ambegaon",
    "partNumber": 303,
    "partName": "Hivare",
    "lat": 18.7709373,
    "lon": 74.1301283
  },
  {
    "partId": 138467,
    "stateCode": "S13",
    "stateName": "Maharashtra",
    "districtCode": "S1325",
    "districtName": "Pune",
    "acNumber": 196,
    "acName": "Ambegaon",
    "partNumber": 304,
    "partName": "Hivare",
    "lat": 18.7709373,
    "lon": 74.1301283
  },
  {
    "partId": 138468,
    "stateCode": "S13",
    "stateName": "Maharashtra",
    "districtCode": "S1325",
    "districtName": "Pune",
    "acNumber": 196,
    "acName": "Ambegaon",
    "partNumber": 305,
    "partName": "Dhamari",
    "lat": 18.7916803,
    "lon": 74.096484
  },
  {
    "partId": 138469,
    "stateCode": "S13",
    "stateName": "Maharashtra",
    "districtCode": "S1325",
    "districtName": "Pune",
    "acNumber": 196,
    "acName": "Ambegaon",
    "partNumber": 306,
    "partName": "Dhamari",
    "lat": 18.7916803,
    "lon": 74.096484
  },
  {
    "partId": 138470,
    "stateCode": "S13",
    "stateName": "Maharashtra",
    "districtCode": "S1325",
    "districtName": "Pune",
    "acNumber": 196,
    "acName": "Ambegaon",
    "partNumber": 307,
    "partName": "Dhamari",
    "lat": 18.7916803,
    "lon": 74.096484
  },
  {
    "partId": 138471,
    "stateCode": "S13",
    "stateName": "Maharashtra",
    "districtCode": "S1325",
    "districtName": "Pune",
    "acNumber": 196,
    "acName": "Ambegaon",
    "partNumber": 308,
    "partName": "Kendur",
    "lat": 18.98990760890625,
    "lon": 73.95687265311894
  },
  {
    "partId": 138472,
    "stateCode": "S13",
    "stateName": "Maharashtra",
    "districtCode": "S1325",
    "districtName": "Pune",
    "acNumber": 196,
    "acName": "Ambegaon",
    "partNumber": 309,
    "partName": "Kendur",
    "lat": 18.782005,
    "lon": 74.038183
  },
  {
    "partId": 138473,
    "stateCode": "S13",
    "stateName": "Maharashtra",
    "districtCode": "S1325",
    "districtName": "Pune",
    "acNumber": 196,
    "acName": "Ambegaon",
    "partNumber": 310,
    "partName": "Kendur",
    "lat": 18.782005,
    "lon": 74.038183
  },
  {
    "partId": 138474,
    "stateCode": "S13",
    "stateName": "Maharashtra",
    "districtCode": "S1325",
    "districtName": "Pune",
    "acNumber": 196,
    "acName": "Ambegaon",
    "partNumber": 311,
    "partName": "Kendur",
    "lat": 18.98990760890625,
    "lon": 73.95687265311894
  },
  {
    "partId": 138475,
    "stateCode": "S13",
    "stateName": "Maharashtra",
    "districtCode": "S1325",
    "districtName": "Pune",
    "acNumber": 196,
    "acName": "Ambegaon",
    "partNumber": 312,
    "partName": "Thitewadi (Kendur)",
    "lat": 18.98990760890625,
    "lon": 73.95687265311894
  },
  {
    "partId": 138476,
    "stateCode": "S13",
    "stateName": "Maharashtra",
    "districtCode": "S1325",
    "districtName": "Pune",
    "acNumber": 196,
    "acName": "Ambegaon",
    "partNumber": 313,
    "partName": "Kendur",
    "lat": 18.782005,
    "lon": 74.038183
  },
  {
    "partId": 138477,
    "stateCode": "S13",
    "stateName": "Maharashtra",
    "districtCode": "S1325",
    "districtName": "Pune",
    "acNumber": 196,
    "acName": "Ambegaon",
    "partNumber": 314,
    "partName": "Kendur Parhadwadi",
    "lat": 19.03169355,
    "lon": 73.95003011520785
  },
  {
    "partId": 138478,
    "stateCode": "S13",
    "stateName": "Maharashtra",
    "districtCode": "S1325",
    "districtName": "Pune",
    "acNumber": 196,
    "acName": "Ambegaon",
    "partNumber": 315,
    "partName": "Kendur Parhadwadi",
    "lat": 19.03169355,
    "lon": 73.95003011520785
  },
  {
    "partId": 138479,
    "stateCode": "S13",
    "stateName": "Maharashtra",
    "districtCode": "S1325",
    "districtName": "Pune",
    "acNumber": 196,
    "acName": "Ambegaon",
    "partNumber": 316,
    "partName": "Karandi",
    "lat": 19.03169355,
    "lon": 73.95003011520785
  },
  {
    "partId": 138480,
    "stateCode": "S13",
    "stateName": "Maharashtra",
    "districtCode": "S1325",
    "districtName": "Pune",
    "acNumber": 196,
    "acName": "Ambegaon",
    "partNumber": 317,
    "partName": "Karandi",
    "lat": 19.03169355,
    "lon": 73.95003011520785
  },
  {
    "partId": 138481,
    "stateCode": "S13",
    "stateName": "Maharashtra",
    "districtCode": "S1325",
    "districtName": "Pune",
    "acNumber": 196,
    "acName": "Ambegaon",
    "partNumber": 318,
    "partName": "Karandi",
    "lat": 19.03169355,
    "lon": 73.95003011520785
  },
  {
    "partId": 138482,
    "stateCode": "S13",
    "stateName": "Maharashtra",
    "districtCode": "S1325",
    "districtName": "Pune",
    "acNumber": 196,
    "acName": "Ambegaon",
    "partNumber": 319,
    "partName": "Jategaon khurd",
    "lat": 18.98990760890625,
    "lon": 73.95687265311894
  },
  {
    "partId": 138483,
    "stateCode": "S13",
    "stateName": "Maharashtra",
    "districtCode": "S1325",
    "districtName": "Pune",
    "acNumber": 196,
    "acName": "Ambegaon",
    "partNumber": 320,
    "partName": "Jategaon Khurd",
    "lat": 19.03169355,
    "lon": 73.95003011520785
  },
  {
    "partId": 138484,
    "stateCode": "S13",
    "stateName": "Maharashtra",
    "districtCode": "S1325",
    "districtName": "Pune",
    "acNumber": 196,
    "acName": "Ambegaon",
    "partNumber": 321,
    "partName": "Jategaon Budruk",
    "lat": 19.03169355,
    "lon": 73.95003011520785
  },
  {
    "partId": 138485,
    "stateCode": "S13",
    "stateName": "Maharashtra",
    "districtCode": "S1325",
    "districtName": "Pune",
    "acNumber": 196,
    "acName": "Ambegaon",
    "partNumber": 322,
    "partName": "Jategaon Budruk",
    "lat": 19.03169355,
    "lon": 73.95003011520785
  },
  {
    "partId": 138486,
    "stateCode": "S13",
    "stateName": "Maharashtra",
    "districtCode": "S1325",
    "districtName": "Pune",
    "acNumber": 196,
    "acName": "Ambegaon",
    "partNumber": 323,
    "partName": "Mukhai",
    "lat": 18.7447194,
    "lon": 74.0985051
  },
  {
    "partId": 138487,
    "stateCode": "S13",
    "stateName": "Maharashtra",
    "districtCode": "S1325",
    "districtName": "Pune",
    "acNumber": 196,
    "acName": "Ambegaon",
    "partNumber": 324,
    "partName": "Mukhai",
    "lat": 18.7447194,
    "lon": 74.0985051
  },
  {
    "partId": 138488,
    "stateCode": "S13",
    "stateName": "Maharashtra",
    "districtCode": "S1325",
    "districtName": "Pune",
    "acNumber": 196,
    "acName": "Ambegaon",
    "partNumber": 325,
    "partName": "Mukhai",
    "lat": 18.7447194,
    "lon": 74.0985051
  },
  {
    "partId": 138489,
    "stateCode": "S13",
    "stateName": "Maharashtra",
    "districtCode": "S1325",
    "districtName": "Pune",
    "acNumber": 196,
    "acName": "Ambegaon",
    "partNumber": 326,
    "partName": "Pimpale khalsa",
    "lat": 19.03169355,
    "lon": 73.95003011520785
  },
  {
    "partId": 138490,
    "stateCode": "S13",
    "stateName": "Maharashtra",
    "districtCode": "S1325",
    "districtName": "Pune",
    "acNumber": 196,
    "acName": "Ambegaon",
    "partNumber": 327,
    "partName": "Pimpale Khalasa",
    "lat": 19.03169355,
    "lon": 73.95003011520785
  },
  {
    "partId": 138491,
    "stateCode": "S13",
    "stateName": "Maharashtra",
    "districtCode": "S1325",
    "districtName": "Pune",
    "acNumber": 196,
    "acName": "Ambegaon",
    "partNumber": 328,
    "partName": "Burunjwadi",
    "lat": 19.03169355,
    "lon": 73.95003011520785
  },
  {
    "partId": 138492,
    "stateCode": "S13",
    "stateName": "Maharashtra",
    "districtCode": "S1325",
    "districtName": "Pune",
    "acNumber": 196,
    "acName": "Ambegaon",
    "partNumber": 329,
    "partName": "Ganegaon    Khalasa",
    "lat": 19.03169355,
    "lon": 73.95003011520785
  },
  {
    "partId": 138493,
    "stateCode": "S13",
    "stateName": "Maharashtra",
    "districtCode": "S1325",
    "districtName": "Pune",
    "acNumber": 196,
    "acName": "Ambegaon",
    "partNumber": 330,
    "partName": "Ganegaon    Khalasa",
    "lat": 19.03169355,
    "lon": 73.95003011520785
  },
  {
    "partId": 138494,
    "stateCode": "S13",
    "stateName": "Maharashtra",
    "districtCode": "S1325",
    "districtName": "Pune",
    "acNumber": 196,
    "acName": "Ambegaon",
    "partNumber": 331,
    "partName": "Ganegaon khalsa",
    "lat": 19.03169355,
    "lon": 73.95003011520785
  },
  {
    "partId": 138495,
    "stateCode": "S13",
    "stateName": "Maharashtra",
    "districtCode": "S1325",
    "districtName": "Pune",
    "acNumber": 196,
    "acName": "Ambegaon",
    "partNumber": 332,
    "partName": "Khandale",
    "lat": 18.4706911,
    "lon": 73.8558424
  },
  {
    "partId": 138496,
    "stateCode": "S13",
    "stateName": "Maharashtra",
    "districtCode": "S1325",
    "districtName": "Pune",
    "acNumber": 196,
    "acName": "Ambegaon",
    "partNumber": 333,
    "partName": "Khandale",
    "lat": 18.4706911,
    "lon": 73.8558424
  },
  {
    "partId": 138497,
    "stateCode": "S13",
    "stateName": "Maharashtra",
    "districtCode": "S1325",
    "districtName": "Pune",
    "acNumber": 196,
    "acName": "Ambegaon",
    "partNumber": 334,
    "partName": "Ranjangaon Ganpati",
    "lat": 19.03169355,
    "lon": 73.95003011520785
  },
  {
    "partId": 138498,
    "stateCode": "S13",
    "stateName": "Maharashtra",
    "districtCode": "S1325",
    "districtName": "Pune",
    "acNumber": 196,
    "acName": "Ambegaon",
    "partNumber": 335,
    "partName": "Ranjangaon Ganpati",
    "lat": 19.03169355,
    "lon": 73.95003011520785
  },
  {
    "partId": 138499,
    "stateCode": "S13",
    "stateName": "Maharashtra",
    "districtCode": "S1325",
    "districtName": "Pune",
    "acNumber": 196,
    "acName": "Ambegaon",
    "partNumber": 336,
    "partName": "Ranjangaon Ganpati",
    "lat": 19.03169355,
    "lon": 73.95003011520785
  },
  {
    "partId": 138500,
    "stateCode": "S13",
    "stateName": "Maharashtra",
    "districtCode": "S1325",
    "districtName": "Pune",
    "acNumber": 196,
    "acName": "Ambegaon",
    "partNumber": 337,
    "partName": "Ranjangaon Ganpati",
    "lat": 19.03169355,
    "lon": 73.95003011520785
  },