[
  {
    "partId": 171024,
    "stateCode": "S13",
    "stateName": "Maharashtra",
    "districtCode": "S1306",
    "districtName": "Washim",
    "acNumber": 35,
    "acName": "Karanja",
    "partNumber": 1,
    "partName": "Dhangarakhed",
    "lat": 20.54567395,
    "lon": 77.49342395401547
  },
  {
    "partId": 171025,
    "stateCode": "S13",
    "stateName": "Maharashtra",
    "districtCode": "S1306",
    "districtName": "Washim",
    "acNumber": 35,
    "acName": "Karanja",
    "partNumber": 2,
    "partName": "Shahadattapur",
    "lat": 20.54567395,
    "lon": 77.49342395401547
  },
  {
    "partId": 171026,
    "stateCode": "S13",
    "stateName": "Maharashtra",
    "districtCode": "S1306",
    "districtName": "Washim",
    "acNumber": 35,
    "acName": "Karanja",
    "partNumber": 3,
    "partName": "Dhanaj Khu",
    "lat": 20.54567395,
    "lon": 77.49342395401547
  },
  {
    "partId": 171027,
    "stateCode": "S13",
    "stateName": "Maharashtra",
    "districtCode": "S1306",
    "districtName": "Washim",
    "acNumber": 35,
    "acName": "Karanja",
    "partNumber": 4,
    "partName": "Ramtek",
    "lat": 20.7044778,
    "lon": 77.6218843
  },
  {
    "partId": 171028,
    "stateCode": "S13",
    "stateName": "Maharashtra",
    "districtCode": "S1306",
    "districtName": "Washim",
    "acNumber": 35,
    "acName": "Karanja",
    "partNumber": 5,
    "partName": "Dhotra Jahangir",
    "lat": 20.54567395,
    "lon": 77.49342395401547
  },
  {
    "partId": 171029,
    "stateCode": "S13",
    "stateName": "Maharashtra",
    "districtCode": "S1306",
    "districtName": "Washim",
    "acNumber": 35,
    "acName": "Karanja",
    "partNumber": 6,
    "partName": "Rahati",
    "lat": 20.6902261,
    "lon": 77.6085269
  },
  {
    "partId": 171030,
    "stateCode": "S13",
    "stateName": "Maharashtra",
    "districtCode": "S1306",
    "districtName": "Washim",
    "acNumber": 35,
    "acName": "Karanja",
    "partNumber": 7,
    "partName": "Hinganavadi",
    "lat": 20.54567395,
    "lon": 77.49342395401547
  },
  {
    "partId": 171031,
    "stateCode": "S13",
    "stateName": "Maharashtra",
    "districtCode": "S1306",
    "districtName": "Washim",
    "acNumber": 35,
    "acName": "Karanja",
    "partNumber": 8,
    "partName": "Malegaon",
    "lat": 20.2585033,
    "lon": 76.97657401490227
  },
  {
    "partId": 171032,
    "stateCode": "S13",
    "stateName": "Maharashtra",
    "districtCode": "S1306",
    "districtName": "Washim",
    "acNumber": 35,
    "acName": "Karanja",
    "partNumber": 9,
    "partName": "Dongargaon",
    "lat": 20.6768163,
    "lon": 77.5639164
  },
  {
    "partId": 171033,
    "stateCode": "S13",
    "stateName": "Maharashtra",
    "districtCode": "S1306",
    "districtName": "Washim",
    "acNumber": 35,
    "acName": "Karanja",
    "partNumber": 10,
    "partName": "Sirasoli",
    "lat": 20.287417750000003,
    "lon": 77.23696550258964
  },
  {
    "partId": 171034,
    "stateCode": "S13",
    "stateName": "Maharashtra",
    "districtCode": "S1306",
    "districtName": "Washim",
    "acNumber": 35,
    "acName": "Karanja",
    "partNumber": 11,
    "partName": "Amboda",
    "lat": 20.6825276,
    "lon": 77.604171
  },
  {
    "partId": 171035,
    "stateCode": "S13",
    "stateName": "Maharashtra",
    "districtCode": "S1306",
    "districtName": "Washim",
    "acNumber": 35,
    "acName": "Karanja",
    "partNumber": 12,
    "partName": "Mhasala",
    "lat": 20.54567395,
    "lon": 77.49342395401547
  },
  {
    "partId": 171036,
    "stateCode": "S13",
    "stateName": "Maharashtra",
    "districtCode": "S1306",
    "districtName": "Washim",
    "acNumber": 35,
    "acName": "Karanja",
    "partNumber": 13,
    "partName": "Belakhed",
    "lat": 20.54567395,
    "lon": 77.49342395401547
  },
  {
    "partId": 171037,
    "stateCode": "S13",
    "stateName": "Maharashtra",
    "districtCode": "S1306",
    "districtName": "Washim",
    "acNumber": 35,
    "acName": "Karanja",
    "partNumber": 14,
    "partName": "Dhanaj Bu",
    "lat": 20.6550127,
    "lon": 77.6258755
  },
  {
    "partId": 171038,
    "stateCode": "S13",
    "stateName": "Maharashtra",
    "districtCode": "S1306",
    "districtName": "Washim",
    "acNumber": 35,
    "acName": "Karanja",
    "partNumber": 15,
    "partName": "Dhanaj Bu",
    "lat": 20.6550127,
    "lon": 77.6258755
  },
  {
    "partId": 171039,
    "stateCode": "S13",
    "stateName": "Maharashtra",
    "districtCode": "S1306",
    "districtName": "Washim",
    "acNumber": 35,
    "acName": "Karanja",
    "partNumber": 16,
    "partName": "Dhanaj Bu",
    "lat": 20.6550127,
    "lon": 77.6258755
  },
  {
    "partId": 171040,
    "stateCode": "S13",
    "stateName": "Maharashtra",
    "districtCode": "S1306",
    "districtName": "Washim",
    "acNumber": 35,
    "acName": "Karanja",
    "partNumber": 17,
    "partName": "Dhanaj Bu",
    "lat": 20.6550127,
    "lon": 77.6258755
  },
  {
    "partId": 171041,
    "stateCode": "S13",
    "stateName": "Maharashtra",
    "districtCode": "S1306",
    "districtName": "Washim",
    "acNumber": 35,
    "acName": "Karanja",
    "partNumber": 18,
    "partName": "Bhivari",
    "lat": 20.54567395,
    "lon": 77.49342395401547
  },
  {
    "partId": 171042,
    "stateCode": "S13",
    "stateName": "Maharashtra",
    "districtCode": "S1306",
    "districtName": "Washim",
    "acNumber": 35,
    "acName": "Karanja",
    "partNumber": 19,
    "partName": "Pimpalgaon Bu",
    "lat": 20.1343807,
    "lon": 77.3402953
  },
  {
    "partId": 171043,
    "stateCode": "S13",
    "stateName": "Maharashtra",
    "districtCode": "S1306",
    "districtName": "Washim",
    "acNumber": 35,
    "acName": "Karanja",
    "partNumber": 20,
    "partName": "Shivna Bu",
    "lat": 20.54567395,
    "lon": 77.49342395401547
  },
  {
    "partId": 171044,
    "stateCode": "S13",
    "stateName": "Maharashtra",
    "districtCode": "S1306",
    "districtName": "Washim",
    "acNumber": 35,
    "acName": "Karanja",
    "partNumber": 21,
    "partName": "Bembala",
    "lat": 20.6440093,
    "lon": 77.4691701
  },
  {
    "partId": 171045,
    "stateCode": "S13",
    "stateName": "Maharashtra",
    "districtCode": "S1306",
    "districtName": "Washim",
    "acNumber": 35,
    "acName": "Karanja",
    "partNumber": 22,
    "partName": "Bembala",
    "lat": 20.6440093,
    "lon": 77.4691701
  },
  {
    "partId": 171046,
    "stateCode": "S13",
    "stateName": "Maharashtra",
    "districtCode": "S1306",
    "districtName": "Washim",
    "acNumber": 35,
    "acName": "Karanja",
    "partNumber": 23,
    "partName": "Takali Kh",
    "lat": 20.6480955,
    "lon": 77.5055087
  },
  {
    "partId": 171047,
    "stateCode": "S13",
    "stateName": "Maharashtra",
    "districtCode": "S1306",
    "districtName": "Washim",
    "acNumber": 35,
    "acName": "Karanja",
    "partNumber": 24,
    "partName": "Kamtha",
    "lat": 20.54567395,
    "lon": 77.49342395401547
  },
  {
    "partId": 171048,
    "stateCode": "S13",
    "stateName": "Maharashtra",
    "districtCode": "S1306",
    "districtName": "Washim",
    "acNumber": 35,
    "acName": "Karanja",
    "partNumber": 25,
    "partName": "Nagalavadi",
    "lat": 20.54567395,
    "lon": 77.49342395401547
  },
  {
    "partId": 171049,
    "stateCode": "S13",
    "stateName": "Maharashtra",
    "districtCode": "S1306",
    "districtName": "Washim",
    "acNumber": 35,
    "acName": "Karanja",
    "partNumber": 26,
    "partName": "Ladegaon",
    "lat": 20.6325232,
    "lon": 77.5375128
  },
  {
    "partId": 171050,
    "stateCode": "S13",
    "stateName": "Maharashtra",
    "districtCode": "S1306",
    "districtName": "Washim",
    "acNumber": 35,
    "acName": "Karanja",
    "partNumber": 27,
    "partName": "Ladegaon",
    "lat": 20.6325232,
    "lon": 77.5375128
  },
  {
    "partId": 171051,
    "stateCode": "S13",
    "stateName": "Maharashtra",
    "districtCode": "S1306",
    "districtName": "Washim",
    "acNumber": 35,
    "acName": "Karanja",
    "partNumber": 28,
    "partName": "Kamargaon",
    "lat": 20.6176824,
    "lon": 77.5003266
  },
  {
    "partId": 171052,
    "stateCode": "S13",
    "stateName": "Maharashtra",
    "districtCode": "S1306",
    "districtName": "Washim",
    "acNumber": 35,
    "acName": "Karanja",
    "partNumber": 29,
    "partName": "Kamargaon",
    "lat": 20.6176824,
    "lon": 77.5003266
  },
  {
    "partId": 171053,
    "stateCode": "S13",
    "stateName": "Maharashtra",
    "districtCode": "S1306",
    "districtName": "Washim",
    "acNumber": 35,
    "acName": "Karanja",
    "partNumber": 30,
    "partName": "Kamargaon",
    "lat": 20.6176824,
    "lon": 77.5003266
  },
  {
    "partId": 171054,
    "stateCode": "S13",
    "stateName": "Maharashtra",
    "districtCode": "S1306",
    "districtName": "Washim",
    "acNumber": 35,
    "acName": "Karanja",
    "partNumber": 31,
    "partName": "Kamargaon",
    "lat": 20.6176824,
    "lon": 77.5003266
  },
  {
    "partId": 171055,
    "stateCode": "S13",
    "stateName": "Maharashtra",
    "districtCode": "S1306",
    "districtName": "Washim",
    "acNumber": 35,
    "acName": "Karanja",
    "partNumber": 32,
    "partName": "Kamargaon",
    "lat": 20.6176824,
    "lon": 77.5003266
  },
  {
    "partId": 171056,
    "stateCode": "S13",
    "stateName": "Maharashtra",
    "districtCode": "S1306",
    "districtName": "Washim",
    "acNumber": 35,
    "acName": "Karanja",
    "partNumber": 33,
    "partName": "Kamargaon",
    "lat": 20.6176824,
    "lon": 77.5003266
  },
  {
    "partId": 171057,
    "stateCode": "S13",
    "stateName": "Maharashtra",
    "districtCode": "S1306",
    "districtName": "Washim",
    "acNumber": 35,
    "acName": "Karanja",
    "partNumber": 34,
    "partName": "Bhambadevi",
    "lat": 20.54567395,
    "lon": 77.49342395401547
  },
  {
    "partId": 171058,
    "stateCode": "S13",
    "stateName": "Maharashtra",
    "districtCode": "S1306",
    "districtName": "Washim",
    "acNumber": 35,
    "acName": "Karanja",
    "partNumber": 35,
    "partName": "Bhambadevi",
    "lat": 20.54567395,
    "lon": 77.49342395401547
  },
  {
    "partId": 171059,
    "stateCode": "S13",
    "stateName": "Maharashtra",
    "districtCode": "S1306",
    "districtName": "Washim",
    "acNumber": 35,
    "acName": "Karanja",
    "partNumber": 36,
    "partName": "Meha",
    "lat": 20.6291696,
    "lon": 77.6429772
  },
  {
    "partId": 171060,
    "stateCode": "S13",
    "stateName": "Maharashtra",
    "districtCode": "S1306",
    "districtName": "Washim",
    "acNumber": 35,
    "acName": "Karanja",
    "partNumber": 37,
    "partName": "Pimpri Modak",
    "lat": 20.54567395,
    "lon": 77.49342395401547
  },
  {
    "partId": 171061,
    "stateCode": "S13",
    "stateName": "Maharashtra",
    "districtCode": "S1306",
    "districtName": "Washim",
    "acNumber": 35,
    "acName": "Karanja",
    "partNumber": 38,
    "partName": "Pimpri Modak",
    "lat": 20.54567395,
    "lon": 77.49342395401547
  },
  {
    "partId": 171062,
    "stateCode": "S13",
    "stateName": "Maharashtra",
    "districtCode": "S1306",
    "districtName": "Washim",
    "acNumber": 35,
    "acName": "Karanja",
    "partNumber": 39,
    "partName": "Dhotra Deshmukh",
    "lat": 20.54567395,
    "lon": 77.49342395401547
  },
  {
    "partId": 171063,
    "stateCode": "S13",
    "stateName": "Maharashtra",
    "districtCode": "S1306",
    "districtName": "Washim",
    "acNumber": 35,
    "acName": "Karanja",
    "partNumber": 40,
    "partName": "Hivara Lahe",
    "lat": 20.54567395,
    "lon": 77.49342395401547
  },
  {
    "partId": 171064,
    "stateCode": "S13",
    "stateName": "Maharashtra",
    "districtCode": "S1306",
    "districtName": "Washim",
    "acNumber": 35,
    "acName": "Karanja",
    "partNumber": 41,
    "partName": "Hivara Lahe",
    "lat": 20.54567395,
    "lon": 77.49342395401547
  },
  {
    "partId": 171065,
    "stateCode": "S13",
    "stateName": "Maharashtra",
    "districtCode": "S1306",
    "districtName": "Washim",
    "acNumber": 35,
    "acName": "Karanja",
    "partNumber": 42,
    "partName": "Brahmanwada",
    "lat": 20.317987,
    "lon": 76.9734764
  },
  {
    "partId": 171066,
    "stateCode": "S13",
    "stateName": "Maharashtra",
    "districtCode": "S1306",
    "districtName": "Washim",
    "acNumber": 35,
    "acName": "Karanja",
    "partNumber": 43,
    "partName": "Bhuloda",
    "lat": 20.5941027,
    "lon": 77.5250673
  },
  {
    "partId": 171067,
    "stateCode": "S13",
    "stateName": "Maharashtra",
    "districtCode": "S1306",
    "districtName": "Washim",
    "acNumber": 35,
    "acName": "Karanja",
    "partNumber": 44,
    "partName": "Vilegaon",
    "lat": 20.5895028,
    "lon": 77.4709511
  },
  {
    "partId": 171068,
    "stateCode": "S13",
    "stateName": "Maharashtra",
    "districtCode": "S1306",
    "districtName": "Washim",
    "acNumber": 35,
    "acName": "Karanja",
    "partNumber": 45,
    "partName": "Vilegaon",
    "lat": 20.5895028,
    "lon": 77.4709511
  },
  {
    "partId": 171069,
    "stateCode": "S13",
    "stateName": "Maharashtra",
    "districtCode": "S1306",
    "districtName": "Washim",
    "acNumber": 35,
    "acName": "Karanja",
    "partNumber": 46,
    "partName": "Khanapur",
    "lat": 20.6067165,
    "lon": 77.4451268
  },
  {
    "partId": 171070,
    "stateCode": "S13",
    "stateName": "Maharashtra",
    "districtCode": "S1306",
    "districtName": "Washim",
    "acNumber": 35,
    "acName": "Karanja",
    "partNumber": 47,
    "partName": "Kherda Bu",
    "lat": 20.2066088,
    "lon": 77.4363613
  },
  {
    "partId": 171071,
    "stateCode": "S13",
    "stateName": "Maharashtra",
    "districtCode": "S1306",
    "districtName": "Washim",
    "acNumber": 35,
    "acName": "Karanja",
    "partNumber": 48,
    "partName": "Kherda Bu",
    "lat": 20.2066088,
    "lon": 77.4363613
  },
  {
    "partId": 171072,
    "stateCode": "S13",
    "stateName": "Maharashtra",
    "districtCode": "S1306",
    "districtName": "Washim",
    "acNumber": 35,
    "acName": "Karanja",
    "partNumber": 49,
    "partName": "Mungutpur",
    "lat": 20.54567395,
    "lon": 77.49342395401547
  },
  {
    "partId": 171073,
    "stateCode": "S13",
    "stateName": "Maharashtra",
    "districtCode": "S1306",
    "districtName": "Washim",
    "acNumber": 35,
    "acName": "Karanja",
    "partNumber": 50,
    "partName": "Tarakheda",
    "lat": 20.54567395,
    "lon": 77.49342395401547
  },
  {
    "partId": 171074,
    "stateCode": "S13",
    "stateName": "Maharashtra",
    "districtCode": "S1306",
    "districtName": "Washim",
    "acNumber": 35,
    "acName": "Karanja",
    "partNumber": 51,
    "partName": "Viragavhan",
    "lat": 20.54567395,
    "lon": 77.49342395401547
  },
  {
    "partId": 171075,
    "stateCode": "S13",
    "stateName": "Maharashtra",
    "districtCode": "S1306",
    "districtName": "Washim",
    "acNumber": 35,
    "acName": "Karanja",
    "partNumber": 52,
    "partName": "Naregaon",
    "lat": 20.5792179,
    "lon": 77.5621569
  },
  {
    "partId": 171076,
    "stateCode": "S13",
    "stateName": "Maharashtra",
    "districtCode": "S1306",
    "districtName": "Washim",
    "acNumber": 35,
    "acName": "Karanja",
    "partNumber": 53,
    "partName": "Shemalai",
    "lat": 20.54567395,
    "lon": 77.49342395401547
  },
  {
    "partId": 171077,
    "stateCode": "S13",
    "stateName": "Maharashtra",
    "districtCode": "S1306",
    "districtName": "Washim",
    "acNumber": 35,
    "acName": "Karanja",
    "partNumber": 54,
    "partName": "Vapati",
    "lat": 20.54567395,
    "lon": 77.49342395401547
  },
  {
    "partId": 171078,
    "stateCode": "S13",
    "stateName": "Maharashtra",
    "districtCode": "S1306",
    "districtName": "Washim",
    "acNumber": 35,
    "acName": "Karanja",
    "partNumber": 55,
    "partName": "Palana",
    "lat": 20.573804,
    "lon": 77.4089169
  },
  {
    "partId": 171079,
    "stateCode": "S13",
    "stateName": "Maharashtra",
    "districtCode": "S1306",
    "districtName": "Washim",
    "acNumber": 35,
    "acName": "Karanja",
    "partNumber": 56,
    "partName": "Kajaleshvar",
    "lat": 20.54567395,
    "lon": 77.49342395401547
  },
  {
    "partId": 171080,
    "stateCode": "S13",
    "stateName": "Maharashtra",
    "districtCode": "S1306",
    "districtName": "Washim",
    "acNumber": 35,
    "acName": "Karanja",
    "partNumber": 57,
    "partName": "Kajaleshvar",
    "lat": 20.54567395,
    "lon": 77.49342395401547
  },
  {
    "partId": 171081,
    "stateCode": "S13",
    "stateName": "Maharashtra",
    "districtCode": "S1306",
    "districtName": "Washim",
    "acNumber": 35,
    "acName": "Karanja",
    "partNumber": 58,
    "partName": "Kajaleshvar",
    "lat": 20.54567395,
    "lon": 77.49342395401547
  },
  {
    "partId": 171082,
    "stateCode": "S13",
    "stateName": "Maharashtra",
    "districtCode": "S1306",
    "districtName": "Washim",
    "acNumber": 35,
    "acName": "Karanja",
    "partNumber": 59,
    "partName": "Janori",
    "lat": 20.54567395,
    "lon": 77.49342395401547
  },
  {
    "partId": 171083,
    "stateCode": "S13",
    "stateName": "Maharashtra",
    "districtCode": "S1306",
    "districtName": "Washim",
    "acNumber": 35,
    "acName": "Karanja",
    "partNumber": 60,
    "partName": "Bambarda",
    "lat": 20.5689625,
    "lon": 77.4990177
  },
  {
    "partId": 171084,
    "stateCode": "S13",
    "stateName": "Maharashtra",
    "districtCode": "S1306",
    "districtName": "Washim",
    "acNumber": 35,
    "acName": "Karanja",
    "partNumber": 61,
    "partName": "Kupati",
    "lat": 20.5696154,
    "lon": 77.5238871
  },
  {
    "partId": 171085,
    "stateCode": "S13",
    "stateName": "Maharashtra",
    "districtCode": "S1306",
    "districtName": "Washim",
    "acNumber": 35,
    "acName": "Karanja",
    "partNumber": 62,
    "partName": "Loni Arab",
    "lat": 20.5725886,
    "lon": 77.5968218
  },
  {
    "partId": 171086,
    "stateCode": "S13",
    "stateName": "Maharashtra",
    "districtCode": "S1306",
    "districtName": "Washim",
    "acNumber": 35,
    "acName": "Karanja",
    "partNumber": 63,
    "partName": "Nimbha Jahangir",
    "lat": 20.54567395,
    "lon": 77.49342395401547
  },
  {
    "partId": 171087,
    "stateCode": "S13",
    "stateName": "Maharashtra",
    "districtCode": "S1306",
    "districtName": "Washim",
    "acNumber": 35,
    "acName": "Karanja",
    "partNumber": 64,
    "partName": "Donad Bk",
    "lat": 20.5479773,
    "lon": 77.637527
  },
  {
    "partId": 171088,
    "stateCode": "S13",
    "stateName": "Maharashtra",
    "districtCode": "S1306",
    "districtName": "Washim",
    "acNumber": 35,
    "acName": "Karanja",
    "partNumber": 65,
    "partName": "Donad Bk",
    "lat": 20.5479773,
    "lon": 77.637527
  },
  {
    "partId": 171089,
    "stateCode": "S13",
    "stateName": "Maharashtra",
    "districtCode": "S1306",
    "districtName": "Washim",
    "acNumber": 35,
    "acName": "Karanja",
    "partNumber": 66,
    "partName": "Karli",
    "lat": 20.5421202,
    "lon": 77.5998258
  },
  {
    "partId": 171090,
    "stateCode": "S13",
    "stateName": "Maharashtra",
    "districtCode": "S1306",
    "districtName": "Washim",
    "acNumber": 35,
    "acName": "Karanja",
    "partNumber": 67,
    "partName": "Mohagavhan",
    "lat": 20.0525651,
    "lon": 77.1733975
  },
  {
    "partId": 171091,
    "stateCode": "S13",
    "stateName": "Maharashtra",
    "districtCode": "S1306",
    "districtName": "Washim",
    "acNumber": 35,
    "acName": "Karanja",
    "partNumber": 68,
    "partName": "Zodaga",
    "lat": 20.5584652,
    "lon": 77.5532627
  },
  {
    "partId": 171092,
    "stateCode": "S13",
    "stateName": "Maharashtra",
    "districtCode": "S1306",
    "districtName": "Washim",
    "acNumber": 35,
    "acName": "Karanja",
    "partNumber": 69,
    "partName": "Bhadashivani",
    "lat": 20.54567395,
    "lon": 77.49342395401547
  },
  {
    "partId": 171093,
    "stateCode": "S13",
    "stateName": "Maharashtra",
    "districtCode": "S1306",
    "districtName": "Washim",
    "acNumber": 35,
    "acName": "Karanja",
    "partNumber": 70,
    "partName": "Kakadashivani",
    "lat": 20.54567395,
    "lon": 77.49342395401547
  },
  {
    "partId": 171094,
    "stateCode": "S13",
    "stateName": "Maharashtra",
    "districtCode": "S1306",
    "districtName": "Washim",
    "acNumber": 35,
    "acName": "Karanja",
    "partNumber": 71,
    "partName": "Mahagaon",
    "lat": 20.5317015,
    "lon": 77.3518395
  },
  {
    "partId": 171095,
    "stateCode": "S13",
    "stateName": "Maharashtra",
    "districtCode": "S1306",
    "districtName": "Washim",
    "acNumber": 35,
    "acName": "Karanja",
    "partNumber": 72,
    "partName": "Mahagaon",
    "lat": 20.5317015,
    "lon": 77.3518395
  },
  {
    "partId": 171096,
    "stateCode": "S13",
    "stateName": "Maharashtra",
    "districtCode": "S1306",
    "districtName": "Washim",
    "acNumber": 35,
    "acName": "Karanja",
    "partNumber": 73,
    "partName": "Lohagaon",
    "lat": 20.54567395,
    "lon": 77.49342395401547
  },
  {
    "partId": 171097,
    "stateCode": "S13",
    "stateName": "Maharashtra",
    "districtCode": "S1306",
    "districtName": "Washim",
    "acNumber": 35,
    "acName": "Karanja",
    "partNumber": 74,
    "partName": "Parava Kohar",
    "lat": 20.54567395,
    "lon": 77.49342395401547
  },
  {
    "partId": 171098,
    "stateCode": "S13",
    "stateName": "Maharashtra",
    "districtCode": "S1306",
    "districtName": "Washim",
    "acNumber": 35,
    "acName": "Karanja",
    "partNumber": 75,
    "partName": "Jayapur",
    "lat": 20.54567395,
    "lon": 77.49342395401547
  },
  {
    "partId": 171099,
    "stateCode": "S13",
    "stateName": "Maharashtra",
    "districtCode": "S1306",
    "districtName": "Washim",
    "acNumber": 35,
    "acName": "Karanja",
    "partNumber": 76,
    "partName": "Mokhad Pimpri",
    "lat": 20.54567395,
    "lon": 77.49342395401547
  },
  {
    "partId": 171100,
    "stateCode": "S13",
    "stateName": "Maharashtra",
    "districtCode": "S1306",
    "districtName": "Washim",
    "acNumber": 35,
    "acName": "Karanja",
    "partNumber": 77,
    "partName": "Wadgaon Range",
    "lat": 20.54567395,
    "lon": 77.49342395401547
  },
  {
    "partId": 171101,
    "stateCode": "S13",
    "stateName": "Maharashtra",
    "districtCode": "S1306",
    "districtName": "Washim",
    "acNumber": 35,
    "acName": "Karanja",
    "partNumber": 78,
    "partName": "Yavardi",
    "lat": 20.54567395,
    "lon": 77.49342395401547
  },
  {
    "partId": 171102,
    "stateCode": "S13",
    "stateName": "Maharashtra",
    "districtCode": "S1306",
    "districtName": "Washim",
    "acNumber": 35,
    "acName": "Karanja",
    "partNumber": 79,
    "partName": "Dhanora Tathod",
    "lat": 20.54567395,
    "lon": 77.49342395401547
  },
  {
    "partId": 171103,
    "stateCode": "S13",
    "stateName": "Maharashtra",
    "districtCode": "S1306",
    "districtName": "Washim",
    "acNumber": 35,
    "acName": "Karanja",
    "partNumber": 80,
    "partName": "Akhatavada",
    "lat": 20.54567395,
    "lon": 77.49342395401547
  },
  {
    "partId": 171104,
    "stateCode": "S13",
    "stateName": "Maharashtra",
    "districtCode": "S1306",
    "districtName": "Washim",
    "acNumber": 35,
    "acName": "Karanja",
    "partNumber": 81,
    "partName": "Pimpri Mokhad",
    "lat": 20.54567395,
    "lon": 77.49342395401547
  },
  {
    "partId": 187184,
    "stateCode": "S13",
    "stateName": "Maharashtra",
    "districtCode": "S1306",
    "districtName": "Washim",
    "acNumber": 35,
    "acName": "Karanja",
    "partNumber": 82,
    "partName": "Tandali",
    "lat": 20.5442601,
    "lon": 77.5246596
  },
  {
    "partId": 171105,
    "stateCode": "S13",
    "stateName": "Maharashtra",
    "districtCode": "S1306",
    "districtName": "Washim",
    "acNumber": 35,
    "acName": "Karanja",
    "partNumber": 83,
    "partName": "Shaha",
    "lat": 20.5299131,
    "lon": 77.4709081
  },
  {
    "partId": 171106,
    "stateCode": "S13",
    "stateName": "Maharashtra",
    "districtCode": "S1306",
    "districtName": "Washim",
    "acNumber": 35,
    "acName": "Karanja",
    "partNumber": 84,
    "partName": "Shaha",
    "lat": 20.5299131,
    "lon": 77.4709081
  },
  {
    "partId": 171107,
    "stateCode": "S13",
    "stateName": "Maharashtra",
    "districtCode": "S1306",
    "districtName": "Washim",
    "acNumber": 35,
    "acName": "Karanja",
    "partNumber": 85,
    "partName": "Chandai",
    "lat": 20.54567395,
    "lon": 77.49342395401547
  },
  {
    "partId": 171108,
    "stateCode": "S13",
    "stateName": "Maharashtra",
    "districtCode": "S1306",
    "districtName": "Washim",
    "acNumber": 35,
    "acName": "Karanja",
    "partNumber": 86,
    "partName": "Belamandal",
    "lat": 20.54567395,
    "lon": 77.49342395401547
  },
  {
    "partId": 171109,
    "stateCode": "S13",
    "stateName": "Maharashtra",
    "districtCode": "S1306",
    "districtName": "Washim",
    "acNumber": 35,
    "acName": "Karanja",
    "partNumber": 87,
    "partName": "Poha",
    "lat": 20.4969941,
    "lon": 77.4087667
  },
  {
    "partId": 171110,
    "stateCode": "S13",
    "stateName": "Maharashtra",
    "districtCode": "S1306",
    "districtName": "Washim",
    "acNumber": 35,
    "acName": "Karanja",
    "partNumber": 88,
    "partName": "Poha",
    "lat": 20.4969941,
    "lon": 77.4087667
  },
  {
    "partId": 171111,
    "stateCode": "S13",
    "stateName": "Maharashtra",
    "districtCode": "S1306",
    "districtName": "Washim",
    "acNumber": 35,
    "acName": "Karanja",
    "partNumber": 89,
    "partName": "Poha",
    "lat": 20.4969941,
    "lon": 77.4087667
  },
  {
    "partId": 171112,
    "stateCode": "S13",
    "stateName": "Maharashtra",
    "districtCode": "S1306",
    "districtName": "Washim",
    "acNumber": 35,
    "acName": "Karanja",
    "partNumber": 90,
    "partName": "Poha",
    "lat": 20.4969941,
    "lon": 77.4087667
  },
  {
    "partId": 171113,
    "stateCode": "S13",
    "stateName": "Maharashtra",
    "districtCode": "S1306",
    "districtName": "Washim",
    "acNumber": 35,
    "acName": "Karanja",
    "partNumber": 91,
    "partName": "Walhai",
    "lat": 20.54567395,
    "lon": 77.49342395401547
  },
  {
    "partId": 171114,
    "stateCode": "S13",
    "stateName": "Maharashtra",
    "districtCode": "S1306",
    "districtName": "Washim",
    "acNumber": 35,
    "acName": "Karanja",
    "partNumber": 92,
    "partName": "Kherda Karanja",
    "lat": 20.5153838,
    "lon": 77.539916
  },
  {
    "partId": 171115,
    "stateCode": "S13",
    "stateName": "Maharashtra",
    "districtCode": "S1306",
    "districtName": "Washim",
    "acNumber": 35,
    "acName": "Karanja",
    "partNumber": 93,
    "partName": "Kherda Karanja",
    "lat": 20.5153838,
    "lon": 77.539916
  },
  {
    "partId": 171116,
    "stateCode": "S13",
    "stateName": "Maharashtra",
    "districtCode": "S1306",
    "districtName": "Washim",
    "acNumber": 35,
    "acName": "Karanja",
    "partNumber": 94,
    "partName": "Manabha",
    "lat": 20.5113644,
    "lon": 77.6321411
  },
  {
    "partId": 171117,
    "stateCode": "S13",
    "stateName": "Maharashtra",
    "districtCode": "S1306",
    "districtName": "Washim",
    "acNumber": 35,
    "acName": "Karanja",
    "partNumber": 95,
    "partName": "Manabha",
    "lat": 20.5113644,
    "lon": 77.6321411
  },
  {
    "partId": 171118,
    "stateCode": "S13",
    "stateName": "Maharashtra",
    "districtCode": "S1306",
    "districtName": "Washim",
    "acNumber": 35,
    "acName": "Karanja",
    "partNumber": 96,
    "partName": "Manabha",
    "lat": 20.5113644,
    "lon": 77.6321411
  },
  {
    "partId": 171119,
    "stateCode": "S13",
    "stateName": "Maharashtra",
    "districtCode": "S1306",
    "districtName": "Washim",
    "acNumber": 35,
    "acName": "Karanja",
    "partNumber": 97,
    "partName": "Pimpriwarghat",
    "lat": 20.43031153983051,
    "lon": 77.49143003418513
  },
  {
    "partId": 171120,
    "stateCode": "S13",
    "stateName": "Maharashtra",
    "districtCode": "S1306",
    "districtName": "Washim",
    "acNumber": 35,
    "acName": "Karanja",
    "partNumber": 98,
    "partName": "Yevata",
    "lat": 20.54567395,
    "lon": 77.49342395401547
  },
  {
    "partId": 171121,
    "stateCode": "S13",
    "stateName": "Maharashtra",
    "districtCode": "S1306",
    "districtName": "Washim",
    "acNumber": 35,
    "acName": "Karanja",
    "partNumber": 99,
    "partName": "Yevata",
    "lat": 20.43031153983051,
    "lon": 77.49143003418513
  },
  {
    "partId": 171122,
    "stateCode": "S13",
    "stateName": "Maharashtra",
    "districtCode": "S1306",
    "districtName": "Washim",
    "acNumber": 35,
    "acName": "Karanja",
    "partNumber": 100,
    "partName": "Inza",
    "lat": 20.43031153983051,
    "lon": 77.49143003418513
  },
  {
    "partId": 171123,
    "stateCode": "S13",
    "stateName": "Maharashtra",
    "districtCode": "S1306",
    "districtName": "Washim",
    "acNumber": 35,
    "acName": "Karanja",
    "partNumber": 101,
    "partName": "Kali Karanja",
    "lat": 20.54567395,
    "lon": 77.49342395401547
  },
  {
    "partId": 171124,
    "stateCode": "S13",
    "stateName": "Maharashtra",
    "districtCode": "S1306",
    "districtName": "Washim",
    "acNumber": 35,
    "acName": "Karanja",
    "partNumber": 102,
    "partName": "Kali Karanja",
    "lat": 20.54567395,
    "lon": 77.49342395401547
  },
  {
    "partId": 171125,
    "stateCode": "S13",
    "stateName": "Maharashtra",
    "districtCode": "S1306",
    "districtName": "Washim",
    "acNumber": 35,
    "acName": "Karanja",
    "partNumber": 103,
    "partName": "Kali Karanja",
    "lat": 20.54567395,
    "lon": 77.49342395401547
  },
  {
    "partId": 171126,
    "stateCode": "S13",
    "stateName": "Maharashtra",
    "districtCode": "S1306",
    "districtName": "Washim",
    "acNumber": 35,
    "acName": "Karanja",
    "partNumber": 104,
    "partName": "Shivanagar",
    "lat": 20.54567395,
    "lon": 77.49342395401547
  },
  {
    "partId": 171127,
    "stateCode": "S13",
    "stateName": "Maharashtra",
    "districtCode": "S1306",
    "districtName": "Washim",
    "acNumber": 35,
    "acName": "Karanja",
    "partNumber": 105,
    "partName": "Vadhavi",
    "lat": 20.54567395,
    "lon": 77.49342395401547
  },
  {
    "partId": 171128,
    "stateCode": "S13",
    "stateName": "Maharashtra",
    "districtCode": "S1306",
    "districtName": "Washim",
    "acNumber": 35,
    "acName": "Karanja",
    "partNumber": 106,
    "partName": "Vadhavi",
    "lat": 20.54567395,
    "lon": 77.49342395401547
  },
  {
    "partId": 171129,
    "stateCode": "S13",
    "stateName": "Maharashtra",
    "districtCode": "S1306",
    "districtName": "Washim",
    "acNumber": 35,
    "acName": "Karanja",
    "partNumber": 107,
    "partName": "Lohara",
    "lat": 20.4704609,
    "lon": 77.3650789
  },
  {
    "partId": 171130,
    "stateCode": "S13",
    "stateName": "Maharashtra",
    "districtCode": "S1306",
    "districtName": "Washim",
    "acNumber": 35,
    "acName": "Karanja",
    "partNumber": 108,
    "partName": "Lohara",
    "lat": 20.4704609,
    "lon": 77.3650789
  },
  {
    "partId": 171131,
    "stateCode": "S13",
    "stateName": "Maharashtra",
    "districtCode": "S1306",
    "districtName": "Washim",
    "acNumber": 35,
    "acName": "Karanja",
    "partNumber": 109,
    "partName": "Anai",
    "lat": 20.4939993,
    "lon": 77.5256252
  },
  {
    "partId": 171132,
    "stateCode": "S13",
    "stateName": "Maharashtra",
    "districtCode": "S1306",
    "districtName": "Washim",
    "acNumber": 35,
    "acName": "Karanja",
    "partNumber": 110,
    "partName": "Jamb",
    "lat": 20.4788434,
    "lon": 77.5409674
  },
  {
    "partId": 171133,
    "stateCode": "S13",
    "stateName": "Maharashtra",
    "districtCode": "S1306",
    "districtName": "Washim",
    "acNumber": 35,
    "acName": "Karanja",
    "partNumber": 111,
    "partName": "Umbarda Bazar",
    "lat": 20.54567395,
    "lon": 77.49342395401547
  },
  {
    "partId": 171134,
    "stateCode": "S13",
    "stateName": "Maharashtra",
    "districtCode": "S1306",
    "districtName": "Washim",
    "acNumber": 35,
    "acName": "Karanja",
    "partNumber": 112,
    "partName": "Umbarda Bazar",
    "lat": 20.54567395,
    "lon": 77.49342395401547
  },
  {
    "partId": 171135,
    "stateCode": "S13",
    "stateName": "Maharashtra",
    "districtCode": "S1306",
    "districtName": "Washim",
    "acNumber": 35,
    "acName": "Karanja",
    "partNumber": 113,
    "partName": "Umbarda Bazar",
    "lat": 20.54567395,
    "lon": 77.49342395401547
  },
  {
    "partId": 171136,
    "stateCode": "S13",
    "stateName": "Maharashtra",
    "districtCode": "S1306",
    "districtName": "Washim",
    "acNumber": 35,
    "acName": "Karanja",
    "partNumber": 114,
    "partName": "Umbarda Bazar",
    "lat": 20.54567395,
    "lon": 77.49342395401547
  },
  {
    "partId": 171137,
    "stateCode": "S13",
    "stateName": "Maharashtra",
    "districtCode": "S1306",
    "districtName": "Washim",
    "acNumber": 35,
    "acName": "Karanja",
    "partNumber": 115,
    "partName": "Dudhora",
    "lat": 20.43031153983051,
    "lon": 77.49143003418513
  },
  {
    "partId": 171138,
    "stateCode": "S13",
    "stateName": "Maharashtra",
    "districtCode": "S1306",
    "districtName": "Washim",
    "acNumber": 35,
    "acName": "Karanja",
    "partNumber": 116,
    "partName": "Dudhora",
    "lat": 20.4873663,
    "lon": 77.6427626
  },
  {
    "partId": 171139,
    "stateCode": "S13",
    "stateName": "Maharashtra",
    "districtCode": "S1306",
    "districtName": "Washim",
    "acNumber": 35,
    "acName": "Karanja",
    "partNumber": 117,
    "partName": "Sukali",
    "lat": 20.465616,
    "lon": 77.634952
  },
  {
    "partId": 171140,
    "stateCode": "S13",
    "stateName": "Maharashtra",
    "districtCode": "S1306",
    "districtName": "Washim",
    "acNumber": 35,
    "acName": "Karanja",
    "partNumber": 118,
    "partName": "Sukali",
    "lat": 20.465616,
    "lon": 77.634952
  },
  {
    "partId": 171141,
    "stateCode": "S13",
    "stateName": "Maharashtra",
    "districtCode": "S1306",
    "districtName": "Washim",
    "acNumber": 35,
    "acName": "Karanja",
    "partNumber": 119,
    "partName": "Kamathavada",
    "lat": 20.54567395,
    "lon": 77.49342395401547
  },
  {
    "partId": 171142,
    "stateCode": "S13",
    "stateName": "Maharashtra",
    "districtCode": "S1306",
    "districtName": "Washim",
    "acNumber": 35,
    "acName": "Karanja",
    "partNumber": 120,
    "partName": "Karanja",
    "lat": 20.54567395,
    "lon": 77.49342395401547
  },
  {
    "partId": 171143,
    "stateCode": "S13",
    "stateName": "Maharashtra",
    "districtCode": "S1306",
    "districtName": "Washim",
    "acNumber": 35,
    "acName": "Karanja",
    "partNumber": 121,
    "partName": "Karanja",
    "lat": 20.54567395,
    "lon": 77.49342395401547
  },
  {
    "partId": 171144,
    "stateCode": "S13",
    "stateName": "Maharashtra",
    "districtCode": "S1306",
    "districtName": "Washim",
    "acNumber": 35,
    "acName": "Karanja",
    "partNumber": 122,
    "partName": "Karanja",
    "lat": 20.54567395,
    "lon": 77.49342395401547
  },
  {
    "partId": 171145,
    "stateCode": "S13",
    "stateName": "Maharashtra",
    "districtCode": "S1306",
    "districtName": "Washim",
    "acNumber": 35,
    "acName": "Karanja",
    "partNumber": 123,
    "partName": "Karanja",
    "lat": 20.54567395,
    "lon": 77.49342395401547
  },
  {
    "partId": 171146,
    "stateCode": "S13",
    "stateName": "Maharashtra",
    "districtCode": "S1306",
    "districtName": "Washim",
    "acNumber": 35,
    "acName": "Karanja",
    "partNumber": 124,
    "partName": "Karanja",
    "lat": 20.54567395,
    "lon": 77.49342395401547
  },
  {
    "partId": 171147,
    "stateCode": "S13",
    "stateName": "Maharashtra",
    "districtCode": "S1306",
    "districtName": "Washim",
    "acNumber": 35,
    "acName": "Karanja",
    "partNumber": 125,
    "partName": "Karanja",
    "lat": 20.54567395,
    "lon": 77.49342395401547
  },
  {
    "partId": 171148,
    "stateCode": "S13",
    "stateName": "Maharashtra",
    "districtCode": "S1306",
    "districtName": "Washim",
    "acNumber": 35,
    "acName": "Karanja",
    "partNumber": 126,
    "partName": "Karanja",
    "lat": 20.54567395,
    "lon": 77.49342395401547
  },
  {
    "partId": 171149,
    "stateCode": "S13",
    "stateName": "Maharashtra",
    "districtCode": "S1306",
    "districtName": "Washim",
    "acNumber": 35,
    "acName": "Karanja",
    "partNumber": 127,
    "partName": "Karanja",
    "lat": 20.54567395,
    "lon": 77.49342395401547
  },
  {
    "partId": 171150,
    "stateCode": "S13",
    "stateName": "Maharashtra",
    "districtCode": "S1306",
    "districtName": "Washim",
    "acNumber": 35,
    "acName": "Karanja",
    "partNumber": 128,
    "partName": "Karanja",
    "lat": 20.54567395,
    "lon": 77.49342395401547
  },
  {
    "partId": 171151,
    "stateCode": "S13",
    "stateName": "Maharashtra",
    "districtCode": "S1306",
    "districtName": "Washim",
    "acNumber": 35,
    "acName": "Karanja",
    "partNumber": 129,
    "partName": "Karanja",
    "lat": 20.54567395,
    "lon": 77.49342395401547
  },
  {
    "partId": 171152,
    "stateCode": "S13",
    "stateName": "Maharashtra",
    "districtCode": "S1306",
    "districtName": "Washim",
    "acNumber": 35,
    "acName": "Karanja",
    "partNumber": 130,
    "partName": "Karanja",
    "lat": 20.54567395,
    "lon": 77.49342395401547
  },
  {
    "partId": 171153,
    "stateCode": "S13",
    "stateName": "Maharashtra",
    "districtCode": "S1306",
    "districtName": "Washim",
    "acNumber": 35,
    "acName": "Karanja",
    "partNumber": 131,
    "partName": "Karanja",
    "lat": 20.54567395,
    "lon": 77.49342395401547
  },
  {
    "partId": 171154,
    "stateCode": "S13",
    "stateName": "Maharashtra",
    "districtCode": "S1306",
    "districtName": "Washim",
    "acNumber": 35,
    "acName": "Karanja",
    "partNumber": 132,
    "partName": "Karanja",
    "lat": 20.54567395,
    "lon": 77.49342395401547
  },
  {
    "partId": 171155,
    "stateCode": "S13",
    "stateName": "Maharashtra",
    "districtCode": "S1306",
    "districtName": "Washim",
    "acNumber": 35,
    "acName": "Karanja",
    "partNumber": 133,
    "partName": "Karanja",
    "lat": 20.54567395,
    "lon": 77.49342395401547
  },
  {
    "partId": 171156,
    "stateCode": "S13",
    "stateName": "Maharashtra",
    "districtCode": "S1306",
    "districtName": "Washim",
    "acNumber": 35,
    "acName": "Karanja",
    "partNumber": 134,
    "partName": "Karanja",
    "lat": 20.54567395,
    "lon": 77.49342395401547
  },
  {
    "partId": 171157,
    "stateCode": "S13",
    "stateName": "Maharashtra",
    "districtCode": "S1306",
    "districtName": "Washim",
    "acNumber": 35,
    "acName": "Karanja",
    "partNumber": 135,
    "partName": "Karanja",
    "lat": 20.54567395,
    "lon": 77.49342395401547
  },
  {
    "partId": 171158,
    "stateCode": "S13",
    "stateName": "Maharashtra",
    "districtCode": "S1306",
    "districtName": "Washim",
    "acNumber": 35,
    "acName": "Karanja",
    "partNumber": 136,
    "partName": "Karanja",
    "lat": 20.43031153983051,
    "lon": 77.49143003418513
  },
  {
    "partId": 171159,
    "stateCode": "S13",
    "stateName": "Maharashtra",
    "districtCode": "S1306",
    "districtName": "Washim",
    "acNumber": 35,
    "acName": "Karanja",
    "partNumber": 137,
    "partName": "Karanja",
    "lat": 20.54567395,
    "lon": 77.49342395401547
  },
  {
    "partId": 171160,
    "stateCode": "S13",
    "stateName": "Maharashtra",
    "districtCode": "S1306",
    "districtName": "Washim",
    "acNumber": 35,
    "acName": "Karanja",
    "partNumber": 138,
    "partName": "Karanja",
    "lat": 20.54567395,
    "lon": 77.49342395401547
  },
  {
    "partId": 171161,
    "stateCode": "S13",
    "stateName": "Maharashtra",
    "districtCode": "S1306",
    "districtName": "Washim",
    "acNumber": 35,
    "acName": "Karanja",
    "partNumber": 139,
    "partName": "Karanja",
    "lat": 20.54567395,
    "lon": 77.49342395401547
  },
  {
    "partId": 171162,
    "stateCode": "S13",
    "stateName": "Maharashtra",
    "districtCode": "S1306",
    "districtName": "Washim",
    "acNumber": 35,
    "acName": "Karanja",
    "partNumber": 140,
    "partName": "Karanja",
    "lat": 20.54567395,
    "lon": 77.49342395401547
  },
  {
    "partId": 171163,
    "stateCode": "S13",
    "stateName": "Maharashtra",
    "districtCode": "S1306",
    "districtName": "Washim",
    "acNumber": 35,
    "acName": "Karanja",
    "partNumber": 141,
    "partName": "Karanja",
    "lat": 20.54567395,
    "lon": 77.49342395401547
  },
  {
    "partId": 171164,
    "stateCode": "S13",
    "stateName": "Maharashtra",
    "districtCode": "S1306",
    "districtName": "Washim",
    "acNumber": 35,
    "acName": "Karanja",
    "partNumber": 142,
    "partName": "Karanja",
    "lat": 20.54567395,
    "lon": 77.49342395401547
  },
  {
    "partId": 171165,
    "stateCode": "S13",
    "stateName": "Maharashtra",
    "districtCode": "S1306",
    "districtName": "Washim",
    "acNumber": 35,
    "acName": "Karanja",
    "partNumber": 143,
    "partName": "Karanja",
    "lat": 20.54567395,
    "lon": 77.49342395401547
  },
  {
    "partId": 171166,
    "stateCode": "S13",
    "stateName": "Maharashtra",
    "districtCode": "S1306",
    "districtName": "Washim",
    "acNumber": 35,
    "acName": "Karanja",
    "partNumber": 144,
    "partName": "Karanja",
    "lat": 20.54567395,
    "lon": 77.49342395401547
  },
  {
    "partId": 171167,
    "stateCode": "S13",
    "stateName": "Maharashtra",
    "districtCode": "S1306",
    "districtName": "Washim",
    "acNumber": 35,
    "acName": "Karanja",
    "partNumber": 145,
    "partName": "Karanja",
    "lat": 20.54567395,
    "lon": 77.49342395401547
  },
  {
    "partId": 171168,
    "stateCode": "S13",
    "stateName": "Maharashtra",
    "districtCode": "S1306",
    "districtName": "Washim",
    "acNumber": 35,
    "acName": "Karanja",
    "partNumber": 146,
    "partName": "Karanja",
    "lat": 20.54567395,
    "lon": 77.49342395401547
  },
  {
    "partId": 171169,
    "stateCode": "S13",
    "stateName": "Maharashtra",
    "districtCode": "S1306",
    "districtName": "Washim",
    "acNumber": 35,
    "acName": "Karanja",
    "partNumber": 147,
    "partName": "Karanja",
    "lat": 20.54567395,
    "lon": 77.49342395401547
  },
  {
    "partId": 171170,
    "stateCode": "S13",
    "stateName": "Maharashtra",
    "districtCode": "S1306",
    "districtName": "Washim",
    "acNumber": 35,
    "acName": "Karanja",
    "partNumber": 148,
    "partName": "Karanja",
    "lat": 20.54567395,
    "lon": 77.49342395401547
  },
  {
    "partId": 171171,
    "stateCode": "S13",
    "stateName": "Maharashtra",
    "districtCode": "S1306",
    "districtName": "Washim",
    "acNumber": 35,
    "acName": "Karanja",
    "partNumber": 149,
    "partName": "Karanja",
    "lat": 20.54567395,
    "lon": 77.49342395401547
  },
  {
    "partId": 171172,
    "stateCode": "S13",
    "stateName": "Maharashtra",
    "districtCode": "S1306",
    "districtName": "Washim",
    "acNumber": 35,
    "acName": "Karanja",
    "partNumber": 150,
    "partName": "Karanja",
    "lat": 20.54567395,
    "lon": 77.49342395401547
  },
  {
    "partId": 171173,
    "stateCode": "S13",
    "stateName": "Maharashtra",
    "districtCode": "S1306",
    "districtName": "Washim",
    "acNumber": 35,
    "acName": "Karanja",
    "partNumber": 151,
    "partName": "Karanja",
    "lat": 20.54567395,
    "lon": 77.49342395401547
  },
  {
    "partId": 171174,
    "stateCode": "S13",
    "stateName": "Maharashtra",
    "districtCode": "S1306",
    "districtName": "Washim",
    "acNumber": 35,
    "acName": "Karanja",
    "partNumber": 152,
    "partName": "Karanja",
    "lat": 20.54567395,
    "lon": 77.49342395401547
  },
  {
    "partId": 171175,
    "stateCode": "S13",
    "stateName": "Maharashtra",
    "districtCode": "S1306",
    "districtName": "Washim",
    "acNumber": 35,
    "acName": "Karanja",
    "partNumber": 153,
    "partName": "Karanja",
    "lat": 20.54567395,
    "lon": 77.49342395401547
  },
  {
    "partId": 171176,
    "stateCode": "S13",
    "stateName": "Maharashtra",
    "districtCode": "S1306",
    "districtName": "Washim",
    "acNumber": 35,
    "acName": "Karanja",
    "partNumber": 154,
    "partName": "Karanja",
    "lat": 20.54567395,
    "lon": 77.49342395401547
  },
  {
    "partId": 171177,
    "stateCode": "S13",
    "stateName": "Maharashtra",
    "districtCode": "S1306",
    "districtName": "Washim",
    "acNumber": 35,
    "acName": "Karanja",
    "partNumber": 155,
    "partName": "Karanja",
    "lat": 20.54567395,
    "lon": 77.49342395401547
  },
  {
    "partId": 171178,
    "stateCode": "S13",
    "stateName": "Maharashtra",
    "districtCode": "S1306",
    "districtName": "Washim",
    "acNumber": 35,
    "acName": "Karanja",
    "partNumber": 156,
    "partName": "Karanja",
    "lat": 20.54567395,
    "lon": 77.49342395401547
  },
  {
    "partId": 171179,
    "stateCode": "S13",
    "stateName": "Maharashtra",
    "districtCode": "S1306",
    "districtName": "Washim",
    "acNumber": 35,
    "acName": "Karanja",
    "partNumber": 157,
    "partName": "Karanja",
    "lat": 20.54567395,
    "lon": 77.49342395401547
  },
  {
    "partId": 171180,
    "stateCode": "S13",
    "stateName": "Maharashtra",
    "districtCode": "S1306",
    "districtName": "Washim",
    "acNumber": 35,
    "acName": "Karanja",
    "partNumber": 158,
    "partName": "Karanja",
    "lat": 20.54567395,
    "lon": 77.49342395401547
  },
  {
    "partId": 171181,
    "stateCode": "S13",
    "stateName": "Maharashtra",
    "districtCode": "S1306",
    "districtName": "Washim",
    "acNumber": 35,
    "acName": "Karanja",
    "partNumber": 159,
    "partName": "Karanja",
    "lat": 20.54567395,
    "lon": 77.49342395401547
  },
  {
    "partId": 171182,
    "stateCode": "S13",
    "stateName": "Maharashtra",
    "districtCode": "S1306",
    "districtName": "Washim",
    "acNumber": 35,
    "acName": "Karanja",
    "partNumber": 160,
    "partName": "Karanja",
    "lat": 20.54567395,
    "lon": 77.49342395401547
  },
  {
    "partId": 171183,
    "stateCode": "S13",
    "stateName": "Maharashtra",
    "districtCode": "S1306",
    "districtName": "Washim",
    "acNumber": 35,
    "acName": "Karanja",
    "partNumber": 161,
    "partName": "Karanja",
    "lat": 20.54567395,
    "lon": 77.49342395401547
  },
  {
    "partId": 171184,
    "stateCode": "S13",
    "stateName": "Maharashtra",
    "districtCode": "S1306",
    "districtName": "Washim",
    "acNumber": 35,
    "acName": "Karanja",
    "partNumber": 162,
    "partName": "Karanja",
    "lat": 20.54567395,
    "lon": 77.49342395401547
  },
  {
    "partId": 171185,
    "stateCode": "S13",
    "stateName": "Maharashtra",
    "districtCode": "S1306",
    "districtName": "Washim",
    "acNumber": 35,
    "acName": "Karanja",
    "partNumber": 163,
    "partName": "Karanja",
    "lat": 20.54567395,
    "lon": 77.49342395401547
  },
  {
    "partId": 171186,
    "stateCode": "S13",
    "stateName": "Maharashtra",
    "districtCode": "S1306",
    "districtName": "Washim",
    "acNumber": 35,
    "acName": "Karanja",
    "partNumber": 164,
    "partName": "Karanja",
    "lat": 20.54567395,
    "lon": 77.49342395401547
  },
  {
    "partId": 171187,
    "stateCode": "S13",
    "stateName": "Maharashtra",
    "districtCode": "S1306",
    "districtName": "Washim",
    "acNumber": 35,
    "acName": "Karanja",
    "partNumber": 165,
    "partName": "Karanja",
    "lat": 20.54567395,
    "lon": 77.49342395401547
  },
  {
    "partId": 171188,
    "stateCode": "S13",
    "stateName": "Maharashtra",
    "districtCode": "S1306",
    "districtName": "Washim",
    "acNumber": 35,
    "acName": "Karanja",
    "partNumber": 166,
    "partName": "Karanja",
    "lat": 20.54567395,
    "lon": 77.49342395401547
  },
  {
    "partId": 171189,
    "stateCode": "S13",
    "stateName": "Maharashtra",
    "districtCode": "S1306",
    "districtName": "Washim",
    "acNumber": 35,
    "acName": "Karanja",
    "partNumber": 167,
    "partName": "Karanja",
    "lat": 20.54567395,
    "lon": 77.49342395401547
  },
  {
    "partId": 171190,
    "stateCode": "S13",
    "stateName": "Maharashtra",
    "districtCode": "S1306",
    "districtName": "Washim",
    "acNumber": 35,
    "acName": "Karanja",
    "partNumber": 168,
    "partName": "Karanja",
    "lat": 20.54567395,
    "lon": 77.49342395401547
  },
  {
    "partId": 171191,
    "stateCode": "S13",
    "stateName": "Maharashtra",
    "districtCode": "S1306",
    "districtName": "Washim",
    "acNumber": 35,
    "acName": "Karanja",
    "partNumber": 169,
    "partName": "Karanja",
    "lat": 20.54567395,
    "lon": 77.49342395401547
  },
  {
    "partId": 171192,
    "stateCode": "S13",
    "stateName": "Maharashtra",
    "districtCode": "S1306",
    "districtName": "Washim",
    "acNumber": 35,
    "acName": "Karanja",
    "partNumber": 170,
    "partName": "Karanja",
    "lat": 20.54567395,
    "lon": 77.49342395401547
  },
  {
    "partId": 171193,
    "stateCode": "S13",
    "stateName": "Maharashtra",
    "districtCode": "S1306",
    "districtName": "Washim",
    "acNumber": 35,
    "acName": "Karanja",
    "partNumber": 171,
    "partName": "Karanja",
    "lat": 20.54567395,
    "lon": 77.49342395401547
  },
  {
    "partId": 171194,
    "stateCode": "S13",
    "stateName": "Maharashtra",
    "districtCode": "S1306",
    "districtName": "Washim",
    "acNumber": 35,
    "acName": "Karanja",
    "partNumber": 172,
    "partName": "Karanja",
    "lat": 20.54567395,
    "lon": 77.49342395401547
  },
  {
    "partId": 171195,
    "stateCode": "S13",
    "stateName": "Maharashtra",
    "districtCode": "S1306",
    "districtName": "Washim",
    "acNumber": 35,
    "acName": "Karanja",
    "partNumber": 173,
    "partName": "Karanja",
    "lat": 20.54567395,
    "lon": 77.49342395401547
  },
  {
    "partId": 171196,
    "stateCode": "S13",
    "stateName": "Maharashtra",
    "districtCode": "S1306",
    "districtName": "Washim",
    "acNumber": 35,
    "acName": "Karanja",
    "partNumber": 174,
    "partName": "Karanja",
    "lat": 20.54567395,
    "lon": 77.49342395401547
  },
  {
    "partId": 171197,
    "stateCode": "S13",
    "stateName": "Maharashtra",
    "districtCode": "S1306",
    "districtName": "Washim",
    "acNumber": 35,
    "acName": "Karanja",
    "partNumber": 175,
    "partName": "Karanja",
    "lat": 20.54567395,
    "lon": 77.49342395401547
  },
  {
    "partId": 171198,
    "stateCode": "S13",
    "stateName": "Maharashtra",
    "districtCode": "S1306",
    "districtName": "Washim",
    "acNumber": 35,
    "acName": "Karanja",
    "partNumber": 176,
    "partName": "Karanja",
    "lat": 20.54567395,
    "lon": 77.49342395401547
  },
  {
    "partId": 171199,
    "stateCode": "S13",
    "stateName": "Maharashtra",
    "districtCode": "S1306",
    "districtName": "Washim",
    "acNumber": 35,
    "acName": "Karanja",
    "partNumber": 177,
    "partName": "Karanja",
    "lat": 20.54567395,
    "lon": 77.49342395401547
  },
  {
    "partId": 171200,
    "stateCode": "S13",
    "stateName": "Maharashtra",
    "districtCode": "S1306",
    "districtName": "Washim",
    "acNumber": 35,
    "acName": "Karanja",
    "partNumber": 178,
    "partName": "Karanja",
    "lat": 20.54567395,
    "lon": 77.49342395401547
  },
  {
    "partId": 171201,
    "stateCode": "S13",
    "stateName": "Maharashtra",
    "districtCode": "S1306",
    "districtName": "Washim",
    "acNumber": 35,
    "acName": "Karanja",
    "partNumber": 179,
    "partName": "Karanja",
    "lat": 20.54567395,
    "lon": 77.49342395401547
  },
  {
    "partId": 171202,
    "stateCode": "S13",
    "stateName": "Maharashtra",
    "districtCode": "S1306",
    "districtName": "Washim",
    "acNumber": 35,
    "acName": "Karanja",
    "partNumber": 180,
    "partName": "Karanja",
    "lat": 20.54567395,
    "lon": 77.49342395401547
  },
  {
    "partId": 171203,
    "stateCode": "S13",
    "stateName": "Maharashtra",
    "districtCode": "S1306",
    "districtName": "Washim",
    "acNumber": 35,
    "acName": "Karanja",
    "partNumber": 181,
    "partName": "Karanja",
    "lat": 20.54567395,
    "lon": 77.49342395401547
  },
  {
    "partId": 171204,
    "stateCode": "S13",
    "stateName": "Maharashtra",
    "districtCode": "S1306",
    "districtName": "Washim",
    "acNumber": 35,
    "acName": "Karanja",
    "partNumber": 182,
    "partName": "Koli",
    "lat": 20.466973,
    "lon": 77.4354815
  },
  {
    "partId": 171205,
    "stateCode": "S13",
    "stateName": "Maharashtra",
    "districtCode": "S1306",
    "districtName": "Washim",
    "acNumber": 35,
    "acName": "Karanja",
    "partNumber": 183,
    "partName": "Koli",
    "lat": 20.466973,
    "lon": 77.4354815
  },
  {
    "partId": 171206,
    "stateCode": "S13",
    "stateName": "Maharashtra",
    "districtCode": "S1306",
    "districtName": "Washim",
    "acNumber": 35,
    "acName": "Karanja",
    "partNumber": 184,
    "partName": "Kisannagar",
    "lat": 20.4694758,
    "lon": 77.3887896
  },
  {
    "partId": 171207,
    "stateCode": "S13",
    "stateName": "Maharashtra",
    "districtCode": "S1306",
    "districtName": "Washim",
    "acNumber": 35,
    "acName": "Karanja",
    "partNumber": 185,
    "partName": "Kinkheda",
    "lat": 20.0621897,
    "lon": 76.8490326
  },
  {
    "partId": 171208,
    "stateCode": "S13",
    "stateName": "Maharashtra",
    "districtCode": "S1306",
    "districtName": "Washim",
    "acNumber": 35,
    "acName": "Karanja",
    "partNumber": 186,
    "partName": "Vai",
    "lat": 20.54567395,
    "lon": 77.49342395401547
  },
  {
    "partId": 171209,
    "stateCode": "S13",
    "stateName": "Maharashtra",
    "districtCode": "S1306",
    "districtName": "Washim",
    "acNumber": 35,
    "acName": "Karanja",
    "partNumber": 187,
    "partName": "Vai",
    "lat": 20.54567395,
    "lon": 77.49342395401547
  },
  {
    "partId": 171210,
    "stateCode": "S13",
    "stateName": "Maharashtra",
    "districtCode": "S1306",
    "districtName": "Washim",
    "acNumber": 35,
    "acName": "Karanja",
    "partNumber": 188,
    "partName": "Murambi",
    "lat": 20.4558455,
    "lon": 77.3970079
  },
  {
    "partId": 187187,
    "stateCode": "S13",
    "stateName": "Maharashtra",
    "districtCode": "S1306",
    "districtName": "Washim",
    "acNumber": 35,
    "acName": "Karanja",
    "partNumber": 189,
    "partName": "Tapovan",
    "lat": 20.54567395,
    "lon": 77.49342395401547
  },
  {
    "partId": 171211,
    "stateCode": "S13",
    "stateName": "Maharashtra",
    "districtCode": "S1306",
    "districtName": "Washim",
    "acNumber": 35,
    "acName": "Karanja",
    "partNumber": 190,
    "partName": "Shelu Bu",
    "lat": 20.44145,
    "lon": 77.4041104
  },
  {
    "partId": 171212,
    "stateCode": "S13",
    "stateName": "Maharashtra",
    "districtCode": "S1306",
    "districtName": "Washim",
    "acNumber": 35,
    "acName": "Karanja",
    "partNumber": 191,
    "partName": "Shelu Bu",
    "lat": 20.44145,
    "lon": 77.4041104
  },
  {
    "partId": 171213,
    "stateCode": "S13",
    "stateName": "Maharashtra",
    "districtCode": "S1306",
    "districtName": "Washim",
    "acNumber": 35,
    "acName": "Karanja",
    "partNumber": 192,
    "partName": "Kinhi Rokade",
    "lat": 20.43031153983051,
    "lon": 77.49143003418513
  },
  {
    "partId": 171214,
    "stateCode": "S13",
    "stateName": "Maharashtra",
    "districtCode": "S1306",
    "districtName": "Washim",
    "acNumber": 35,
    "acName": "Karanja",
    "partNumber": 193,
    "partName": "Kali Karanja",
    "lat": 20.54567395,
    "lon": 77.49342395401547
  },
  {
    "partId": 171215,
    "stateCode": "S13",
    "stateName": "Maharashtra",
    "districtCode": "S1306",
    "districtName": "Washim",
    "acNumber": 35,
    "acName": "Karanja",
    "partNumber": 194,
    "partName": "Dadagaon",
    "lat": 20.54567395,
    "lon": 77.49342395401547
  },
  {
    "partId": 171216,
    "stateCode": "S13",
    "stateName": "Maharashtra",
    "districtCode": "S1306",
    "districtName": "Washim",
    "acNumber": 35,
    "acName": "Karanja",
    "partNumber": 195,
    "partName": "Somathana",
    "lat": 20.43031153983051,
    "lon": 77.49143003418513
  },
  {
    "partId": 171217,
    "stateCode": "S13",
    "stateName": "Maharashtra",
    "districtCode": "S1306",
    "districtName": "Washim",
    "acNumber": 35,
    "acName": "Karanja",
    "partNumber": 196,
    "partName": "Girda",
    "lat": 20.4374286,
    "lon": 77.4960244
  },
  {
    "partId": 171218,
    "stateCode": "S13",
    "stateName": "Maharashtra",
    "districtCode": "S1306",
    "districtName": "Washim",
    "acNumber": 35,
    "acName": "Karanja",
    "partNumber": 197,
    "partName": "Pasarani",
    "lat": 20.4333267,
    "lon": 77.471466
  },
  {
    "partId": 171219,
    "stateCode": "S13",
    "stateName": "Maharashtra",
    "districtCode": "S1306",
    "districtName": "Washim",
    "acNumber": 35,
    "acName": "Karanja",
    "partNumber": 198,
    "partName": "Mandava",
    "lat": 20.54567395,
    "lon": 77.49342395401547
  },
  {
    "partId": 171220,
    "stateCode": "S13",
    "stateName": "Maharashtra",
    "districtCode": "S1306",
    "districtName": "Washim",
    "acNumber": 35,
    "acName": "Karanja",
    "partNumber": 199,
    "partName": "Shevti",
    "lat": 20.54567395,
    "lon": 77.49342395401547
  },
  {
    "partId": 171221,
    "stateCode": "S13",
    "stateName": "Maharashtra",
    "districtCode": "S1306",
    "districtName": "Washim",
    "acNumber": 35,
    "acName": "Karanja",
    "partNumber": 200,
    "partName": "Gayval",
    "lat": 20.54567395,
    "lon": 77.49342395401547
  },
  {
    "partId": 171222,
    "stateCode": "S13",
    "stateName": "Maharashtra",
    "districtCode": "S1306",
    "districtName": "Washim",
    "acNumber": 35,
    "acName": "Karanja",
    "partNumber": 201,
    "partName": "Sohal",
    "lat": 20.4146457,
    "lon": 77.4378419
  },
  {
    "partId": 171223,
    "stateCode": "S13",
    "stateName": "Maharashtra",
    "districtCode": "S1306",
    "districtName": "Washim",
    "acNumber": 35,
    "acName": "Karanja",
    "partNumber": 202,
    "partName": "Sohal",
    "lat": 20.4146457,
    "lon": 77.4378419
  },
  {
    "partId": 171224,
    "stateCode": "S13",
    "stateName": "Maharashtra",
    "districtCode": "S1306",
    "districtName": "Washim",
    "acNumber": 35,
    "acName": "Karanja",
    "partNumber": 203,
    "partName": "Pimpalagav Khu.",
    "lat": 20.54567395,
    "lon": 77.49342395401547
  },
  {
    "partId": 171225,
    "stateCode": "S13",
    "stateName": "Maharashtra",
    "districtCode": "S1306",
    "districtName": "Washim",
    "acNumber": 35,
    "acName": "Karanja",
    "partNumber": 204,
    "partName": "Ram Nagar (pimpri Forest )",
    "lat": 20.54567395,
    "lon": 77.49342395401547
  },
  {
    "partId": 171226,
    "stateCode": "S13",
    "stateName": "Maharashtra",
    "districtCode": "S1306",
    "districtName": "Washim",
    "acNumber": 35,
    "acName": "Karanja",
    "partNumber": 205,
    "partName": "Januna",
    "lat": 20.4237955,
    "lon": 77.5595927
  },
  {
    "partId": 171227,
    "stateCode": "S13",
    "stateName": "Maharashtra",
    "districtCode": "S1306",
    "districtName": "Washim",
    "acNumber": 35,
    "acName": "Karanja",
    "partNumber": 206,
    "partName": "Vadgaon Izara",
    "lat": 20.54567395,
    "lon": 77.49342395401547
  },
  {
    "partId": 171228,
    "stateCode": "S13",
    "stateName": "Maharashtra",
    "districtCode": "S1306",
    "districtName": "Washim",
    "acNumber": 35,
    "acName": "Karanja",
    "partNumber": 207,
    "partName": "Waghola",
    "lat": 20.54567395,
    "lon": 77.49342395401547
  },
  {
    "partId": 171229,
    "stateCode": "S13",
    "stateName": "Maharashtra",
    "districtCode": "S1306",
    "districtName": "Washim",
    "acNumber": 35,
    "acName": "Karanja",
    "partNumber": 208,
    "partName": "Dighi",
    "lat": 20.4181649,
    "lon": 77.5780248
  },
  {
    "partId": 171230,
    "stateCode": "S13",
    "stateName": "Maharashtra",
    "districtCode": "S1306",
    "districtName": "Washim",
    "acNumber": 35,
    "acName": "Karanja",
    "partNumber": 209,
    "partName": "Dhamni",
    "lat": 20.3746625,
    "lon": 77.4540418
  },
  {
    "partId": 171231,
    "stateCode": "S13",
    "stateName": "Maharashtra",
    "districtCode": "S1306",
    "districtName": "Washim",
    "acNumber": 35,
    "acName": "Karanja",
    "partNumber": 210,
    "partName": "Dhamni",
    "lat": 20.3746625,
    "lon": 77.4540418
  },
  {
    "partId": 171232,
    "stateCode": "S13",
    "stateName": "Maharashtra",
    "districtCode": "S1306",
    "districtName": "Washim",
    "acNumber": 35,
    "acName": "Karanja",
    "partNumber": 211,
    "partName": "Dhamni",
    "lat": 20.3746625,
    "lon": 77.4540418
  },
  {
    "partId": 171233,
    "stateCode": "S13",
    "stateName": "Maharashtra",
    "districtCode": "S1306",
    "districtName": "Washim",
    "acNumber": 35,
    "acName": "Karanja",
    "partNumber": 212,
    "partName": "Mhasni",
    "lat": 20.54567395,
    "lon": 77.49342395401547
  },
  {
    "partId": 171234,
    "stateCode": "S13",
    "stateName": "Maharashtra",
    "districtCode": "S1306",
    "districtName": "Washim",
    "acNumber": 35,
    "acName": "Karanja",
    "partNumber": 213,
    "partName": "Inzori",
    "lat": 20.394997,
    "lon": 77.5101327
  },
  {
    "partId": 171235,
    "stateCode": "S13",
    "stateName": "Maharashtra",
    "districtCode": "S1306",
    "districtName": "Washim",
    "acNumber": 35,
    "acName": "Karanja",
    "partNumber": 214,
    "partName": "Inzori",
    "lat": 20.394997,
    "lon": 77.5101327
  },
  {
    "partId": 171236,
    "stateCode": "S13",
    "stateName": "Maharashtra",
    "districtCode": "S1306",
    "districtName": "Washim",
    "acNumber": 35,
    "acName": "Karanja",
    "partNumber": 215,
    "partName": "Inzori",
    "lat": 20.394997,
    "lon": 77.5101327
  },
  {
    "partId": 171237,
    "stateCode": "S13",
    "stateName": "Maharashtra",
    "districtCode": "S1306",
    "districtName": "Washim",
    "acNumber": 35,
    "acName": "Karanja",
    "partNumber": 216,
    "partName": "Umbarda",
    "lat": 20.474019,
    "lon": 77.5978517
  },
  {
    "partId": 171238,
    "stateCode": "S13",
    "stateName": "Maharashtra",
    "districtCode": "S1306",
    "districtName": "Washim",
    "acNumber": 35,
    "acName": "Karanja",
    "partNumber": 217,
    "partName": "Tornala",
    "lat": 20.3921611,
    "lon": 77.5392723
  },
  {
    "partId": 171239,
    "stateCode": "S13",
    "stateName": "Maharashtra",
    "districtCode": "S1306",
    "districtName": "Washim",
    "acNumber": 35,
    "acName": "Karanja",
    "partNumber": 218,
    "partName": "Dapura.bk",
    "lat": 20.3650867,
    "lon": 77.522943
  },
  {
    "partId": 171240,
    "stateCode": "S13",
    "stateName": "Maharashtra",
    "districtCode": "S1306",
    "districtName": "Washim",
    "acNumber": 35,
    "acName": "Karanja",
    "partNumber": 219,
    "partName": "Ajni",
    "lat": 20.54567395,
    "lon": 77.49342395401547
  },
  {
    "partId": 171241,
    "stateCode": "S13",
    "stateName": "Maharashtra",
    "districtCode": "S1306",
    "districtName": "Washim",
    "acNumber": 35,
    "acName": "Karanja",
    "partNumber": 220,
    "partName": "Dapura kd",
    "lat": 20.54567395,
    "lon": 77.49342395401547
  },
  {
    "partId": 187189,
    "stateCode": "S13",
    "stateName": "Maharashtra",
    "districtCode": "S1306",
    "districtName": "Washim",
    "acNumber": 35,
    "acName": "Karanja",
    "partNumber": 221,
    "partName": "Dhanora Bhuse",
    "lat": 20.287417750000003,
    "lon": 77.23696550258964
  },
  {
    "partId": 171242,
    "stateCode": "S13",
    "stateName": "Maharashtra",
    "districtCode": "S1306",
    "districtName": "Washim",
    "acNumber": 35,
    "acName": "Karanja",
    "partNumber": 222,
    "partName": "Dapura Bk",
    "lat": 20.3650867,
    "lon": 77.522943
  },
  {
    "partId": 171243,
    "stateCode": "S13",
    "stateName": "Maharashtra",
    "districtCode": "S1306",
    "districtName": "Washim",
    "acNumber": 35,
    "acName": "Karanja",
    "partNumber": 223,
    "partName": "Chausala",
    "lat": 20.3672392,
    "lon": 77.5528335
  },
  {
    "partId": 171244,
    "stateCode": "S13",
    "stateName": "Maharashtra",
    "districtCode": "S1306",
    "districtName": "Washim",
    "acNumber": 35,
    "acName": "Karanja",
    "partNumber": 224,
    "partName": "Bhoyani",
    "lat": 20.3378869,
    "lon": 77.532556
  },
  {
    "partId": 171245,
    "stateCode": "S13",
    "stateName": "Maharashtra",
    "districtCode": "S1306",
    "districtName": "Washim",
    "acNumber": 35,
    "acName": "Karanja",
    "partNumber": 225,
    "partName": "Bhoyani",
    "lat": 20.3378869,
    "lon": 77.532556
  },
  {
    "partId": 171246,
    "stateCode": "S13",
    "stateName": "Maharashtra",
    "districtCode": "S1306",
    "districtName": "Washim",
    "acNumber": 35,
    "acName": "Karanja",
    "partNumber": 226,
    "partName": "Khandala",
    "lat": 20.3341747,
    "lon": 77.4947369
  },
  {
    "partId": 171247,
    "stateCode": "S13",
    "stateName": "Maharashtra",
    "districtCode": "S1306",
    "districtName": "Washim",
    "acNumber": 35,
    "acName": "Karanja",
    "partNumber": 227,
    "partName": "Rudrala",
    "lat": 20.333722,
    "lon": 77.5114846
  },
  {
    "partId": 171248,
    "stateCode": "S13",
    "stateName": "Maharashtra",
    "districtCode": "S1306",
    "districtName": "Washim",
    "acNumber": 35,
    "acName": "Karanja",
    "partNumber": 228,
    "partName": "Januna Kd",
    "lat": 20.287417750000003,
    "lon": 77.23696550258964
  },
  {
    "partId": 171249,
    "stateCode": "S13",
    "stateName": "Maharashtra",
    "districtCode": "S1306",
    "districtName": "Washim",
    "acNumber": 35,
    "acName": "Karanja",
    "partNumber": 229,
    "partName": "Chondhi",
    "lat": 20.3192044,
    "lon": 77.5676393
  },
  {
    "partId": 171250,
    "stateCode": "S13",
    "stateName": "Maharashtra",
    "districtCode": "S1306",
    "districtName": "Washim",
    "acNumber": 35,
    "acName": "Karanja",
    "partNumber": 230,
    "partName": "Mohgavhan",
    "lat": 20.54567395,
    "lon": 77.49342395401547
  },
  {
    "partId": 171251,
    "stateCode": "S13",
    "stateName": "Maharashtra",
    "districtCode": "S1306",
    "districtName": "Washim",
    "acNumber": 35,
    "acName": "Karanja",
    "partNumber": 231,
    "partName": "Kupta",
    "lat": 20.3059331,
    "lon": 77.5610411
  },
  {
    "partId": 171252,
    "stateCode": "S13",
    "stateName": "Maharashtra",
    "districtCode": "S1306",
    "districtName": "Washim",
    "acNumber": 35,
    "acName": "Karanja",
    "partNumber": 232,
    "partName": "Kupta",
    "lat": 20.3059331,
    "lon": 77.5610411
  },
  {
    "partId": 171253,
    "stateCode": "S13",
    "stateName": "Maharashtra",
    "districtCode": "S1306",
    "districtName": "Washim",
    "acNumber": 35,
    "acName": "Karanja",
    "partNumber": 233,
    "partName": "Kupta",
    "lat": 20.3059331,
    "lon": 77.5610411
  },
  {
    "partId": 171254,
    "stateCode": "S13",
    "stateName": "Maharashtra",
    "districtCode": "S1306",
    "districtName": "Washim",
    "acNumber": 35,
    "acName": "Karanja",
    "partNumber": 234,
    "partName": "Hatti",
    "lat": 20.3027132,
    "lon": 77.5314617
  },
  {
    "partId": 171255,
    "stateCode": "S13",
    "stateName": "Maharashtra",
    "districtCode": "S1306",
    "districtName": "Washim",
    "acNumber": 35,
    "acName": "Karanja",
    "partNumber": 235,
    "partName": "Wapta",
    "lat": 20.2867938,
    "lon": 77.5428343
  },
  {
    "partId": 171256,
    "stateCode": "S13",
    "stateName": "Maharashtra",
    "districtCode": "S1306",
    "districtName": "Washim",
    "acNumber": 35,
    "acName": "Karanja",
    "partNumber": 236,
    "partName": "Parwa",
    "lat": 20.2899738,
    "lon": 77.5133085
  },
  {
    "partId": 171257,
    "stateCode": "S13",
    "stateName": "Maharashtra",
    "districtCode": "S1306",
    "districtName": "Washim",
    "acNumber": 35,
    "acName": "Karanja",
    "partNumber": 237,
    "partName": "Singdoh",
    "lat": 20.54567395,
    "lon": 77.49342395401547
  },
  {
    "partId": 171258,
    "stateCode": "S13",
    "stateName": "Maharashtra",
    "districtCode": "S1306",
    "districtName": "Washim",
    "acNumber": 35,
    "acName": "Karanja",
    "partNumber": 238,
    "partName": "Sakhardoh",
    "lat": 20.2526352,
    "lon": 77.4538922
  },
  {
    "partId": 171259,
    "stateCode": "S13",
    "stateName": "Maharashtra",
    "districtCode": "S1306",
    "districtName": "Washim",
    "acNumber": 35,
    "acName": "Karanja",
    "partNumber": 239,
    "partName": "Sakhardoh",
    "lat": 20.2526352,
    "lon": 77.4538922
  },
  {
    "partId": 171260,
    "stateCode": "S13",
    "stateName": "Maharashtra",
    "districtCode": "S1306",
    "districtName": "Washim",
    "acNumber": 35,
    "acName": "Karanja",
    "partNumber": 240,
    "partName": "Rohana",
    "lat": 20.287417750000003,
    "lon": 77.23696550258964
  },
  {
    "partId": 171261,
    "stateCode": "S13",
    "stateName": "Maharashtra",
    "districtCode": "S1306",
    "districtName": "Washim",
    "acNumber": 35,
    "acName": "Karanja",
    "partNumber": 241,
    "partName": "Hiwara Bk",
    "lat": 20.287417750000003,
    "lon": 77.23696550258964
  },
  {
    "partId": 171262,
    "stateCode": "S13",
    "stateName": "Maharashtra",
    "districtCode": "S1306",
    "districtName": "Washim",
    "acNumber": 35,
    "acName": "Karanja",
    "partNumber": 242,
    "partName": "Asola Bk",
    "lat": 20.2638377,
    "lon": 77.5188768
  },
  {
    "partId": 187190,
    "stateCode": "S13",
    "stateName": "Maharashtra",
    "districtCode": "S1306",
    "districtName": "Washim",
    "acNumber": 35,
    "acName": "Karanja",
    "partNumber": 243,
    "partName": "Jawala",
    "lat": 20.0714711,
    "lon": 77.3199963
  },
  {
    "partId": 171263,
    "stateCode": "S13",
    "stateName": "Maharashtra",
    "districtCode": "S1306",
    "districtName": "Washim",
    "acNumber": 35,
    "acName": "Karanja",
    "partNumber": 244,
    "partName": "Sawargaon",
    "lat": 20.287417750000003,
    "lon": 77.23696550258964
  },
  {
    "partId": 171264,
    "stateCode": "S13",
    "stateName": "Maharashtra",
    "districtCode": "S1306",
    "districtName": "Washim",
    "acNumber": 35,
    "acName": "Karanja",
    "partNumber": 245,
    "partName": "Borwha",
    "lat": 20.54567395,
    "lon": 77.49342395401547
  },
  {
    "partId": 171265,
    "stateCode": "S13",
    "stateName": "Maharashtra",
    "districtCode": "S1306",
    "districtName": "Washim",
    "acNumber": 35,
    "acName": "Karanja",
    "partNumber": 246,
    "partName": "Watod",
    "lat": 20.54567395,
    "lon": 77.49342395401547
  },
  {
    "partId": 171266,
    "stateCode": "S13",
    "stateName": "Maharashtra",
    "districtCode": "S1306",
    "districtName": "Washim",
    "acNumber": 35,
    "acName": "Karanja",
    "partNumber": 247,
    "partName": "Gundi",
    "lat": 20.2439383,
    "lon": 77.5422549
  },
  {
    "partId": 171267,
    "stateCode": "S13",
    "stateName": "Maharashtra",
    "districtCode": "S1306",
    "districtName": "Washim",
    "acNumber": 35,
    "acName": "Karanja",
    "partNumber": 248,
    "partName": "Ekalara",
    "lat": 20.54567395,
    "lon": 77.49342395401547
  },
  {
    "partId": 171268,
    "stateCode": "S13",
    "stateName": "Maharashtra",
    "districtCode": "S1306",
    "districtName": "Washim",
    "acNumber": 35,
    "acName": "Karanja",
    "partNumber": 249,
    "partName": "Halda",
    "lat": 20.54567395,
    "lon": 77.49342395401547
  },
  {
    "partId": 171269,
    "stateCode": "S13",
    "stateName": "Maharashtra",
    "districtCode": "S1306",
    "districtName": "Washim",
    "acNumber": 35,
    "acName": "Karanja",
    "partNumber": 250,
    "partName": "Kolar",
    "lat": 20.2359356,
    "lon": 77.4822485
  },
  {
    "partId": 171270,
    "stateCode": "S13",
    "stateName": "Maharashtra",
    "districtCode": "S1306",
    "districtName": "Washim",
    "acNumber": 35,
    "acName": "Karanja",
    "partNumber": 251,
    "partName": "Abhaykheda",
    "lat": 20.287417750000003,
    "lon": 77.23696550258964
  },
  {
    "partId": 171271,
    "stateCode": "S13",
    "stateName": "Maharashtra",
    "districtCode": "S1306",
    "districtName": "Washim",
    "acNumber": 35,
    "acName": "Karanja",
    "partNumber": 252,
    "partName": "Abhaykheda",
    "lat": 20.54567395,
    "lon": 77.49342395401547
  },
  {
    "partId": 171272,
    "stateCode": "S13",
    "stateName": "Maharashtra",
    "districtCode": "S1306",
    "districtName": "Washim",
    "acNumber": 35,
    "acName": "Karanja",
    "partNumber": 253,
    "partName": "Kondoli",
    "lat": 20.2488706,
    "lon": 77.5289082
  },
  {
    "partId": 171273,
    "stateCode": "S13",
    "stateName": "Maharashtra",
    "districtCode": "S1306",
    "districtName": "Washim",
    "acNumber": 35,
    "acName": "Karanja",
    "partNumber": 254,
    "partName": "Kondoli",
    "lat": 20.2488706,
    "lon": 77.5289082
  },
  {
    "partId": 171274,
    "stateCode": "S13",
    "stateName": "Maharashtra",
    "districtCode": "S1306",
    "districtName": "Washim",
    "acNumber": 35,
    "acName": "Karanja",
    "partNumber": 255,
    "partName": "Talap Bk",
    "lat": 20.2337108,
    "lon": 77.5899124
  },
  {
    "partId": 171275,
    "stateCode": "S13",
    "stateName": "Maharashtra",
    "districtCode": "S1306",
    "districtName": "Washim",
    "acNumber": 35,
    "acName": "Karanja",
    "partNumber": 256,
    "partName": "Talap bk",
    "lat": 20.2337108,
    "lon": 77.5899124
  },
  {
    "partId": 171276,
    "stateCode": "S13",
    "stateName": "Maharashtra",
    "districtCode": "S1306",
    "districtName": "Washim",
    "acNumber": 35,
    "acName": "Karanja",
    "partNumber": 257,
    "partName": "Karli",
    "lat": 20.5421202,
    "lon": 77.5998258
  },
  {
    "partId": 171277,
    "stateCode": "S13",
    "stateName": "Maharashtra",
    "districtCode": "S1306",
    "districtName": "Washim",
    "acNumber": 35,
    "acName": "Karanja",
    "partNumber": 258,
    "partName": "Karli",
    "lat": 20.5421202,
    "lon": 77.5998258
  },
  {
    "partId": 171278,
    "stateCode": "S13",
    "stateName": "Maharashtra",
    "districtCode": "S1306",
    "districtName": "Washim",
    "acNumber": 35,
    "acName": "Karanja",
    "partNumber": 259,
    "partName": "Sewadasnagar",
    "lat": 20.54567395,
    "lon": 77.49342395401547
  },
  {
    "partId": 171279,
    "stateCode": "S13",
    "stateName": "Maharashtra",
    "districtCode": "S1306",
    "districtName": "Washim",
    "acNumber": 35,
    "acName": "Karanja",
    "partNumber": 260,
    "partName": "Dhamni Manora",
    "lat": 20.3746625,
    "lon": 77.4540418
  },
  {
    "partId": 171280,
    "stateCode": "S13",
    "stateName": "Maharashtra",
    "districtCode": "S1306",
    "districtName": "Washim",
    "acNumber": 35,
    "acName": "Karanja",
    "partNumber": 261,
    "partName": "Dhamni Manora",
    "lat": 20.3746625,
    "lon": 77.4540418
  },
  {
    "partId": 187192,
    "stateCode": "S13",
    "stateName": "Maharashtra",
    "districtCode": "S1306",
    "districtName": "Washim",
    "acNumber": 35,
    "acName": "Karanja",
    "partNumber": 262,
    "partName": "Chistala",
    "lat": 20.2331672,
    "lon": 77.5678539
  },
  {
    "partId": 171281,
    "stateCode": "S13",
    "stateName": "Maharashtra",
    "districtCode": "S1306",
    "districtName": "Washim",
    "acNumber": 35,
    "acName": "Karanja",
    "partNumber": 263,
    "partName": "Dhamni Manora",
    "lat": 20.3746625,
    "lon": 77.4540418
  },
  {
    "partId": 171282,
    "stateCode": "S13",
    "stateName": "Maharashtra",
    "districtCode": "S1306",
    "districtName": "Washim",
    "acNumber": 35,
    "acName": "Karanja",
    "partNumber": 264,
    "partName": "Amgavhan",
    "lat": 20.3938908,
    "lon": 77.4220705
  },
  {
    "partId": 171283,
    "stateCode": "S13",
    "stateName": "Maharashtra",
    "districtCode": "S1306",
    "districtName": "Washim",
    "acNumber": 35,
    "acName": "Karanja",
    "partNumber": 265,
    "partName": "Jagdambanagar",
    "lat": 20.54567395,
    "lon": 77.49342395401547
  },
  {
    "partId": 171284,
    "stateCode": "S13",
    "stateName": "Maharashtra",
    "districtCode": "S1306",
    "districtName": "Washim",
    "acNumber": 35,
    "acName": "Karanja",
    "partNumber": 266,
    "partName": "Khapardari",
    "lat": 20.223382,
    "lon": 77.3889613
  },
  {
    "partId": 171285,
    "stateCode": "S13",
    "stateName": "Maharashtra",
    "districtCode": "S1306",
    "districtName": "Washim",
    "acNumber": 35,
    "acName": "Karanja",
    "partNumber": 267,
    "partName": "Girda",
    "lat": 20.4374286,
    "lon": 77.4960244
  },
  {
    "partId": 171286,
    "stateCode": "S13",
    "stateName": "Maharashtra",
    "districtCode": "S1306",
    "districtName": "Washim",
    "acNumber": 35,
    "acName": "Karanja",
    "partNumber": 268,
    "partName": "Warda",
    "lat": 20.2111194,
    "lon": 77.4319625
  },
  {
    "partId": 171287,
    "stateCode": "S13",
    "stateName": "Maharashtra",
    "districtCode": "S1306",
    "districtName": "Washim",
    "acNumber": 35,
    "acName": "Karanja",
    "partNumber": 269,
    "partName": "Kherda",
    "lat": 20.2066088,
    "lon": 77.4363613
  },
  {
    "partId": 171288,
    "stateCode": "S13",
    "stateName": "Maharashtra",
    "districtCode": "S1306",
    "districtName": "Washim",
    "acNumber": 35,
    "acName": "Karanja",
    "partNumber": 270,
    "partName": "Giroli",
    "lat": 20.2160125,
    "lon": 77.4800062
  },
  {
    "partId": 171289,
    "stateCode": "S13",
    "stateName": "Maharashtra",
    "districtCode": "S1306",
    "districtName": "Washim",
    "acNumber": 35,
    "acName": "Karanja",
    "partNumber": 271,
    "partName": "Giroli",
    "lat": 20.2160125,
    "lon": 77.4800062
  },
  {
    "partId": 171290,
    "stateCode": "S13",
    "stateName": "Maharashtra",
    "districtCode": "S1306",
    "districtName": "Washim",
    "acNumber": 35,
    "acName": "Karanja",
    "partNumber": 272,
    "partName": "Giroli",
    "lat": 20.287417750000003,
    "lon": 77.23696550258964
  },
  {
    "partId": 171291,
    "stateCode": "S13",
    "stateName": "Maharashtra",
    "districtCode": "S1306",
    "districtName": "Washim",
    "acNumber": 35,
    "acName": "Karanja",
    "partNumber": 273,
    "partName": "Pimpri",
    "lat": 20.2032056,
    "lon": 77.4982023
  },
  {
    "partId": 171292,
    "stateCode": "S13",
    "stateName": "Maharashtra",
    "districtCode": "S1306",
    "districtName": "Washim",
    "acNumber": 35,
    "acName": "Karanja",
    "partNumber": 274,
    "partName": "Deothana",
    "lat": 19.9679238,
    "lon": 77.1277785
  },
  {
    "partId": 171293,
    "stateCode": "S13",
    "stateName": "Maharashtra",
    "districtCode": "S1306",
    "districtName": "Washim",
    "acNumber": 35,
    "acName": "Karanja",
    "partNumber": 275,
    "partName": "Somthana",
    "lat": 20.2127504,
    "lon": 77.5505698
  },
  {
    "partId": 171294,
    "stateCode": "S13",
    "stateName": "Maharashtra",
    "districtCode": "S1306",
    "districtName": "Washim",
    "acNumber": 35,
    "acName": "Karanja",
    "partNumber": 276,
    "partName": "Somthana",
    "lat": 20.2127504,
    "lon": 77.5505698
  },
  {
    "partId": 171295,
    "stateCode": "S13",
    "stateName": "Maharashtra",
    "districtCode": "S1306",
    "districtName": "Washim",
    "acNumber": 35,
    "acName": "Karanja",
    "partNumber": 277,
    "partName": "Manora",
    "lat": 20.224710899999998,
    "lon": 77.55022641730207
  },
  {
    "partId": 171296,
    "stateCode": "S13",
    "stateName": "Maharashtra",
    "districtCode": "S1306",
    "districtName": "Washim",
    "acNumber": 35,
    "acName": "Karanja",
    "partNumber": 278,
    "partName": "Manora",
    "lat": 20.224710899999998,
    "lon": 77.55022641730207
  },
  {
    "partId": 171297,
    "stateCode": "S13",
    "stateName": "Maharashtra",
    "districtCode": "S1306",
    "districtName": "Washim",
    "acNumber": 35,
    "acName": "Karanja",
    "partNumber": 279,
    "partName": "Manora",
    "lat": 20.224710899999998,
    "lon": 77.55022641730207
  },
  {
    "partId": 171298,
    "stateCode": "S13",
    "stateName": "Maharashtra",
    "districtCode": "S1306",
    "districtName": "Washim",
    "acNumber": 35,
    "acName": "Karanja",
    "partNumber": 280,
    "partName": "Manora",
    "lat": 20.224710899999998,
    "lon": 77.55022641730207
  },
  {
    "partId": 171299,
    "stateCode": "S13",
    "stateName": "Maharashtra",
    "districtCode": "S1306",
    "districtName": "Washim",
    "acNumber": 35,
    "acName": "Karanja",
    "partNumber": 281,
    "partName": "Manora",
    "lat": 20.224710899999998,
    "lon": 77.55022641730207
  },
  {
    "partId": 171300,
    "stateCode": "S13",
    "stateName": "Maharashtra",
    "districtCode": "S1306",
    "districtName": "Washim",
    "acNumber": 35,
    "acName": "Karanja",
    "partNumber": 282,
    "partName": "Manora",
    "lat": 20.224710899999998,
    "lon": 77.55022641730207
  },
  {
    "partId": 171301,
    "stateCode": "S13",
    "stateName": "Maharashtra",
    "districtCode": "S1306",
    "districtName": "Washim",
    "acNumber": 35,
    "acName": "Karanja",
    "partNumber": 283,
    "partName": "Manora",
    "lat": 20.287417750000003,
    "lon": 77.23696550258964
  },
  {
    "partId": 187193,
    "stateCode": "S13",
    "stateName": "Maharashtra",
    "districtCode": "S1306",
    "districtName": "Washim",
    "acNumber": 35,
    "acName": "Karanja",
    "partNumber": 284,
    "partName": "Manora",
    "lat": 20.224710899999998,
    "lon": 77.55022641730207
  },
  {
    "partId": 171302,
    "stateCode": "S13",
    "stateName": "Maharashtra",
    "districtCode": "S1306",
    "districtName": "Washim",
    "acNumber": 35,
    "acName": "Karanja",
    "partNumber": 285,
    "partName": "Ramtirth",
    "lat": 20.2120054,
    "lon": 77.5924873
  },
  {
    "partId": 171303,
    "stateCode": "S13",
    "stateName": "Maharashtra",
    "districtCode": "S1306",
    "districtName": "Washim",
    "acNumber": 35,
    "acName": "Karanja",
    "partNumber": 286,
    "partName": "Waroli",
    "lat": 20.2150057,
    "lon": 77.6393938
  },
  {
    "partId": 171304,
    "stateCode": "S13",
    "stateName": "Maharashtra",
    "districtCode": "S1306",
    "districtName": "Washim",
    "acNumber": 35,
    "acName": "Karanja",
    "partNumber": 287,
    "partName": "Waroli",
    "lat": 20.2150057,
    "lon": 77.6393938
  },
  {
    "partId": 171305,
    "stateCode": "S13",
    "stateName": "Maharashtra",
    "districtCode": "S1306",
    "districtName": "Washim",
    "acNumber": 35,
    "acName": "Karanja",
    "partNumber": 288,
    "partName": "Karkheda",
    "lat": 20.2082801,
    "lon": 77.6074433
  },
  {
    "partId": 171306,
    "stateCode": "S13",
    "stateName": "Maharashtra",
    "districtCode": "S1306",
    "districtName": "Washim",
    "acNumber": 35,
    "acName": "Karanja",
    "partNumber": 289,
    "partName": "Karkheda",
    "lat": 20.2082801,
    "lon": 77.6074433
  },
  {
    "partId": 171307,
    "stateCode": "S13",
    "stateName": "Maharashtra",
    "districtCode": "S1306",
    "districtName": "Washim",
    "acNumber": 35,
    "acName": "Karanja",
    "partNumber": 290,
    "partName": "Vitholi",
    "lat": 20.1962379,
    "lon": 77.5727033
  },
  {
    "partId": 171308,
    "stateCode": "S13",
    "stateName": "Maharashtra",
    "districtCode": "S1306",
    "districtName": "Washim",
    "acNumber": 35,
    "acName": "Karanja",
    "partNumber": 291,
    "partName": "Vitholi",
    "lat": 20.1962379,
    "lon": 77.5727033
  },
  {
    "partId": 171309,
    "stateCode": "S13",
    "stateName": "Maharashtra",
    "districtCode": "S1306",
    "districtName": "Washim",
    "acNumber": 35,
    "acName": "Karanja",
    "partNumber": 292,
    "partName": "Somnathnagar",
    "lat": 20.54567395,
    "lon": 77.49342395401547
  },
  {
    "partId": 171310,
    "stateCode": "S13",
    "stateName": "Maharashtra",
    "districtCode": "S1306",
    "districtName": "Washim",
    "acNumber": 35,
    "acName": "Karanja",
    "partNumber": 293,
    "partName": "Girat",
    "lat": 20.1915757,
    "lon": 77.4627328
  },
  {
    "partId": 171311,
    "stateCode": "S13",
    "stateName": "Maharashtra",
    "districtCode": "S1306",
    "districtName": "Washim",
    "acNumber": 35,
    "acName": "Karanja",
    "partNumber": 294,
    "partName": "Bhildongar",
    "lat": 20.1830265,
    "lon": 77.4505663
  },
  {
    "partId": 171312,
    "stateCode": "S13",
    "stateName": "Maharashtra",
    "districtCode": "S1306",
    "districtName": "Washim",
    "acNumber": 35,
    "acName": "Karanja",
    "partNumber": 295,
    "partName": "Vilegaon",
    "lat": 20.5895028,
    "lon": 77.4709511
  },
  {
    "partId": 171313,
    "stateCode": "S13",
    "stateName": "Maharashtra",
    "districtCode": "S1306",
    "districtName": "Washim",
    "acNumber": 35,
    "acName": "Karanja",
    "partNumber": 296,
    "partName": "Asola kh",
    "lat": 20.1703781,
    "lon": 77.5349378
  },
  {
    "partId": 171314,
    "stateCode": "S13",
    "stateName": "Maharashtra",
    "districtCode": "S1306",
    "districtName": "Washim",
    "acNumber": 35,
    "acName": "Karanja",
    "partNumber": 297,
    "partName": "Asola kh",
    "lat": 20.1703781,
    "lon": 77.5349378
  },
  {
    "partId": 171315,
    "stateCode": "S13",
    "stateName": "Maharashtra",
    "districtCode": "S1306",
    "districtName": "Washim",
    "acNumber": 35,
    "acName": "Karanja",
    "partNumber": 298,
    "partName": "Asola kh",
    "lat": 20.1703781,
    "lon": 77.5349378
  },
  {
    "partId": 171316,
    "stateCode": "S13",
    "stateName": "Maharashtra",
    "districtCode": "S1306",
    "districtName": "Washim",
    "acNumber": 35,
    "acName": "Karanja",
    "partNumber": 299,
    "partName": "Gavha",
    "lat": 20.1895115,
    "lon": 77.5533485
  },
  {
    "partId": 171317,
    "stateCode": "S13",
    "stateName": "Maharashtra",
    "districtCode": "S1306",
    "districtName": "Washim",
    "acNumber": 35,
    "acName": "Karanja",
    "partNumber": 300,
    "partName": "Gavha",
    "lat": 20.1895115,
    "lon": 77.5533485
  },
  {
    "partId": 171318,
    "stateCode": "S13",
    "stateName": "Maharashtra",
    "districtCode": "S1306",
    "districtName": "Washim",
    "acNumber": 35,
    "acName": "Karanja",
    "partNumber": 301,
    "partName": "Chikhli",
    "lat": 20.54567395,
    "lon": 77.49342395401547
  },
  {
    "partId": 171319,
    "stateCode": "S13",
    "stateName": "Maharashtra",
    "districtCode": "S1306",
    "districtName": "Washim",
    "acNumber": 35,
    "acName": "Karanja",
    "partNumber": 302,
    "partName": "Dhanora Bk",
    "lat": 20.1805291,
    "lon": 77.6419472
  },
  {
    "partId": 171320,
    "stateCode": "S13",
    "stateName": "Maharashtra",
    "districtCode": "S1306",
    "districtName": "Washim",
    "acNumber": 35,
    "acName": "Karanja",
    "partNumber": 303,
    "partName": "Dhanora Bk",
    "lat": 20.1805291,
    "lon": 77.6419472
  },
  {
    "partId": 171321,
    "stateCode": "S13",
    "stateName": "Maharashtra",
    "districtCode": "S1306",
    "districtName": "Washim",
    "acNumber": 35,
    "acName": "Karanja",
    "partNumber": 304,
    "partName": "Panchala",
    "lat": 20.1552106,
    "lon": 77.6246094
  },
  {
    "partId": 171322,
    "stateCode": "S13",
    "stateName": "Maharashtra",
    "districtCode": "S1306",
    "districtName": "Washim",
    "acNumber": 35,
    "acName": "Karanja",
    "partNumber": 305,
    "partName": "Soyajana",
    "lat": 20.1723721,
    "lon": 77.6238799
  },
  {
    "partId": 171323,
    "stateCode": "S13",
    "stateName": "Maharashtra",
    "districtCode": "S1306",
    "districtName": "Washim",
    "acNumber": 35,
    "acName": "Karanja",
    "partNumber": 306,
    "partName": "Deurwadi",
    "lat": 20.54567395,
    "lon": 77.49342395401547
  },
  {
    "partId": 171324,
    "stateCode": "S13",
    "stateName": "Maharashtra",
    "districtCode": "S1306",
    "districtName": "Washim",
    "acNumber": 35,
    "acName": "Karanja",
    "partNumber": 307,
    "partName": "Mahuli",
    "lat": 20.1661079,
    "lon": 77.5902557
  },
  {
    "partId": 187195,
    "stateCode": "S13",
    "stateName": "Maharashtra",
    "districtCode": "S1306",
    "districtName": "Washim",
    "acNumber": 35,
    "acName": "Karanja",
    "partNumber": 308,
    "partName": "Chakur",
    "lat": 20.1663396,
    "lon": 77.5714052
  },
  {
    "partId": 171325,
    "stateCode": "S13",
    "stateName": "Maharashtra",
    "districtCode": "S1306",
    "districtName": "Washim",
    "acNumber": 35,
    "acName": "Karanja",
    "partNumber": 309,
    "partName": "Mahuli",
    "lat": 20.1661079,
    "lon": 77.5902557
  },
  {
    "partId": 171326,
    "stateCode": "S13",
    "stateName": "Maharashtra",
    "districtCode": "S1306",
    "districtName": "Washim",
    "acNumber": 35,
    "acName": "Karanja",
    "partNumber": 310,
    "partName": "Karpa",
    "lat": 20.1752926,
    "lon": 77.4951768
  },
  {
    "partId": 171327,
    "stateCode": "S13",
    "stateName": "Maharashtra",
    "districtCode": "S1306",
    "districtName": "Washim",
    "acNumber": 35,
    "acName": "Karanja",
    "partNumber": 311,
    "partName": "Karpa",
    "lat": 20.1752926,
    "lon": 77.4951768
  },
  {
    "partId": 171328,
    "stateCode": "S13",
    "stateName": "Maharashtra",
    "districtCode": "S1306",
    "districtName": "Washim",
    "acNumber": 35,
    "acName": "Karanja",
    "partNumber": 312,
    "partName": "Khambala",
    "lat": 20.1653123,
    "lon": 77.4582589
  },
  {
    "partId": 171329,
    "stateCode": "S13",
    "stateName": "Maharashtra",
    "districtCode": "S1306",
    "districtName": "Washim",
    "acNumber": 35,
    "acName": "Karanja",
    "partNumber": 313,
    "partName": "Hiwara kd.",
    "lat": 20.54567395,
    "lon": 77.49342395401547
  },
  {
    "partId": 171330,
    "stateCode": "S13",
    "stateName": "Maharashtra",
    "districtCode": "S1306",
    "districtName": "Washim",
    "acNumber": 35,
    "acName": "Karanja",
    "partNumber": 314,
    "partName": "Shendurjana",
    "lat": 20.1485026,
    "lon": 77.4507808
  },
  {
    "partId": 171331,
    "stateCode": "S13",
    "stateName": "Maharashtra",
    "districtCode": "S1306",
    "districtName": "Washim",
    "acNumber": 35,
    "acName": "Karanja",
    "partNumber": 315,
    "partName": "Shendurjana",
    "lat": 20.1485026,
    "lon": 77.4507808
  },
  {
    "partId": 171332,
    "stateCode": "S13",
    "stateName": "Maharashtra",
    "districtCode": "S1306",
    "districtName": "Washim",
    "acNumber": 35,
    "acName": "Karanja",
    "partNumber": 316,
    "partName": "Shendurjana",
    "lat": 20.1485026,
    "lon": 77.4507808
  },
  {
    "partId": 171333,
    "stateCode": "S13",
    "stateName": "Maharashtra",
    "districtCode": "S1306",
    "districtName": "Washim",
    "acNumber": 35,
    "acName": "Karanja",
    "partNumber": 317,
    "partName": "Shendurjana",
    "lat": 20.287417750000003,
    "lon": 77.23696550258964
  },
  {
    "partId": 171334,
    "stateCode": "S13",
    "stateName": "Maharashtra",
    "districtCode": "S1306",
    "districtName": "Washim",
    "acNumber": 35,
    "acName": "Karanja",
    "partNumber": 318,
    "partName": "Hatoli",
    "lat": 20.1568019,
    "lon": 77.5409567
  },
  {
    "partId": 171335,
    "stateCode": "S13",
    "stateName": "Maharashtra",
    "districtCode": "S1306",
    "districtName": "Washim",
    "acNumber": 35,
    "acName": "Karanja",
    "partNumber": 319,
    "partName": "Gadegaon",
    "lat": 20.1650404,
    "lon": 77.6608729
  },
  {
    "partId": 171336,
    "stateCode": "S13",
    "stateName": "Maharashtra",
    "districtCode": "S1306",
    "districtName": "Washim",
    "acNumber": 35,
    "acName": "Karanja",
    "partNumber": 320,
    "partName": "Hatna",
    "lat": 20.54567395,
    "lon": 77.49342395401547
  },
  {
    "partId": 171337,
    "stateCode": "S13",
    "stateName": "Maharashtra",
    "districtCode": "S1306",
    "districtName": "Washim",
    "acNumber": 35,
    "acName": "Karanja",
    "partNumber": 321,
    "partName": "Bhuli",
    "lat": 20.287417750000003,
    "lon": 77.23696550258964
  },
  {
    "partId": 171338,
    "stateCode": "S13",
    "stateName": "Maharashtra",
    "districtCode": "S1306",
    "districtName": "Washim",
    "acNumber": 35,
    "acName": "Karanja",
    "partNumber": 322,
    "partName": "Bhuli",
    "lat": 20.1438895,
    "lon": 77.5796771
  },
  {
    "partId": 171339,
    "stateCode": "S13",
    "stateName": "Maharashtra",
    "districtCode": "S1306",
    "districtName": "Washim",
    "acNumber": 35,
    "acName": "Karanja",
    "partNumber": 323,
    "partName": "Bhuli",
    "lat": 20.1438895,
    "lon": 77.5796771
  },
  {
    "partId": 171340,
    "stateCode": "S13",
    "stateName": "Maharashtra",
    "districtCode": "S1306",
    "districtName": "Washim",
    "acNumber": 35,
    "acName": "Karanja",
    "partNumber": 324,
    "partName": "Amdari",
    "lat": 20.1416936,
    "lon": 77.5299811
  },
  {
    "partId": 171341,
    "stateCode": "S13",
    "stateName": "Maharashtra",
    "districtCode": "S1306",
    "districtName": "Washim",
    "acNumber": 35,
    "acName": "Karanja",
    "partNumber": 325,
    "partName": "Ujwalnagar",
    "lat": 20.54567395,
    "lon": 77.49342395401547
  },
  {
    "partId": 171342,
    "stateCode": "S13",
    "stateName": "Maharashtra",
    "districtCode": "S1306",
    "districtName": "Washim",
    "acNumber": 35,
    "acName": "Karanja",
    "partNumber": 326,
    "partName": "Waigaul",
    "lat": 20.54567395,
    "lon": 77.49342395401547
  },
  {
    "partId": 171343,
    "stateCode": "S13",
    "stateName": "Maharashtra",
    "districtCode": "S1306",
    "districtName": "Washim",
    "acNumber": 35,
    "acName": "Karanja",
    "partNumber": 327,
    "partName": "Waigaul",
    "lat": 20.54567395,
    "lon": 77.49342395401547
  },
  {
    "partId": 171344,
    "stateCode": "S13",
    "stateName": "Maharashtra",
    "districtCode": "S1306",
    "districtName": "Washim",
    "acNumber": 35,
    "acName": "Karanja",
    "partNumber": 328,
    "partName": "Waigaul",
    "lat": 20.54567395,
    "lon": 77.49342395401547
  },
  {
    "partId": 171345,
    "stateCode": "S13",
    "stateName": "Maharashtra",
    "districtCode": "S1306",
    "districtName": "Washim",
    "acNumber": 35,
    "acName": "Karanja",
    "partNumber": 329,
    "partName": "Waigaul",
    "lat": 20.287417750000003,
    "lon": 77.23696550258964
  },
  {
    "partId": 171346,
    "stateCode": "S13",
    "stateName": "Maharashtra",
    "districtCode": "S1306",
    "districtName": "Washim",
    "acNumber": 35,
    "acName": "Karanja",
    "partNumber": 330,
    "partName": "Sawali",
    "lat": 20.1105256,
    "lon": 77.6535129
  },
  {
    "partId": 171347,
    "stateCode": "S13",
    "stateName": "Maharashtra",
    "districtCode": "S1306",
    "districtName": "Washim",
    "acNumber": 35,
    "acName": "Karanja",
    "partNumber": 331,
    "partName": "Pohradevi",
    "lat": 20.1106666,
    "lon": 77.6272058
  },
  {
    "partId": 171348,
    "stateCode": "S13",
    "stateName": "Maharashtra",
    "districtCode": "S1306",
    "districtName": "Washim",
    "acNumber": 35,
    "acName": "Karanja",
    "partNumber": 332,
    "partName": "Pohradevi",
    "lat": 20.1106666,
    "lon": 77.6272058
  },
  {
    "partId": 171349,
    "stateCode": "S13",
    "stateName": "Maharashtra",
    "districtCode": "S1306",
    "districtName": "Washim",
    "acNumber": 35,
    "acName": "Karanja",
    "partNumber": 333,
    "partName": "Pohradevi",
    "lat": 20.1106666,
    "lon": 77.6272058
  },
  {
    "partId": 171350,
    "stateCode": "S13",
    "stateName": "Maharashtra",
    "districtCode": "S1306",
    "districtName": "Washim",
    "acNumber": 35,
    "acName": "Karanja",
    "partNumber": 334,
    "partName": "Pohradevi",
    "lat": 20.1106666,
    "lon": 77.6272058
  },
  {
    "partId": 171351,
    "stateCode": "S13",
    "stateName": "Maharashtra",
    "districtCode": "S1306",
    "districtName": "Washim",
    "acNumber": 35,
    "acName": "Karanja",
    "partNumber": 335,
    "partName": "Vasantnagar (Poharadevi)",
    "lat": 20.54567395,
    "lon": 77.49342395401547
  },
  {
    "partId": 187197,
    "stateCode": "S13",
    "stateName": "Maharashtra",
    "districtCode": "S1306",
    "districtName": "Washim",
    "acNumber": 35,
    "acName": "Karanja",
    "partNumber": 336,
    "partName": "Pimpalshenda",
    "lat": 20.3678225,
    "lon": 77.1341836
  },
  {
    "partId": 171352,
    "stateCode": "S13",
    "stateName": "Maharashtra",
    "districtCode": "S1306",
    "districtName": "Washim",
    "acNumber": 35,
    "acName": "Karanja",
    "partNumber": 337,
    "partName": "Ratanwadi",
    "lat": 20.54567395,
    "lon": 77.49342395401547
  },
  {
    "partId": 171353,
    "stateCode": "S13",
    "stateName": "Maharashtra",
    "districtCode": "S1306",
    "districtName": "Washim",
    "acNumber": 35,
    "acName": "Karanja",
    "partNumber": 338,
    "partName": "Palodi",
    "lat": 20.1141726,
    "lon": 77.499994
  },
  {
    "partId": 171354,
    "stateCode": "S13",
    "stateName": "Maharashtra",
    "districtCode": "S1306",
    "districtName": "Washim",
    "acNumber": 35,
    "acName": "Karanja",
    "partNumber": 339,
    "partName": "Palodi",
    "lat": 20.1141726,
    "lon": 77.499994
  },
  {
    "partId": 171355,
    "stateCode": "S13",
    "stateName": "Maharashtra",
    "districtCode": "S1306",
    "districtName": "Washim",
    "acNumber": 35,
    "acName": "Karanja",
    "partNumber": 340,
    "partName": "Mendra",
    "lat": 20.1163386,
    "lon": 77.3944867
  },
  {
    "partId": 171356,
    "stateCode": "S13",
    "stateName": "Maharashtra",
    "districtCode": "S1306",
    "districtName": "Washim",
    "acNumber": 35,
    "acName": "Karanja",
    "partNumber": 341,
    "partName": "Ingalwadi",
    "lat": 20.1334539,
    "lon": 77.4075436
  },
  {
    "partId": 171357,
    "stateCode": "S13",
    "stateName": "Maharashtra",
    "districtCode": "S1306",
    "districtName": "Washim",
    "acNumber": 35,
    "acName": "Karanja",
    "partNumber": 342,
    "partName": "Watfal",
    "lat": 20.1061531,
    "lon": 77.3783826
  },
  {
    "partId": 171358,
    "stateCode": "S13",
    "stateName": "Maharashtra",
    "districtCode": "S1306",
    "districtName": "Washim",
    "acNumber": 35,
    "acName": "Karanja",
    "partNumber": 343,
    "partName": "Gosta",
    "lat": 20.104803,
    "lon": 77.4231434
  },