[
  {
    "partId": 34213,
    "stateCode": "S29",
    "stateName": "Telangana",
    "districtCode": "S2930",
    "districtName": "Bhadradri",
    "acNumber": 118,
    "acName": "Aswaraopeta",
    "partNumber": 1,
    "partName": "Seetharampuram",
    "lat": 17.7906159,
    "lon": 80.8808896
  },
  {
    "partId": 34310,
    "stateCode": "S29",
    "stateName": "Telangana",
    "districtCode": "S2930",
    "districtName": "Bhadradri",
    "acNumber": 118,
    "acName": "Aswaraopeta",
    "partNumber": 2,
    "partName": "Subbanpalli H/O Pusugudem",
    "lat": 17.37129445,
    "lon": 81.17189403536545
  },
  {
    "partId": 34215,
    "stateCode": "S29",
    "stateName": "Telangana",
    "districtCode": "S2930",
    "districtName": "Bhadradri",
    "acNumber": 118,
    "acName": "Aswaraopeta",
    "partNumber": 3,
    "partName": "Chinthalapadu H/O Pusugudem",
    "lat": 17.37129445,
    "lon": 81.17189403536545
  },
  {
    "partId": 34311,
    "stateCode": "S29",
    "stateName": "Telangana",
    "districtCode": "S2930",
    "districtName": "Bhadradri",
    "acNumber": 118,
    "acName": "Aswaraopeta",
    "partNumber": 4,
    "partName": "Pusugudem",
    "lat": 17.5422182,
    "lon": 80.7630181
  },
  {
    "partId": 34217,
    "stateCode": "S29",
    "stateName": "Telangana",
    "districtCode": "S2930",
    "districtName": "Bhadradri",
    "acNumber": 118,
    "acName": "Aswaraopeta",
    "partNumber": 5,
    "partName": "Pusugudem",
    "lat": 17.5422182,
    "lon": 80.7630181
  },
  {
    "partId": 34312,
    "stateCode": "S29",
    "stateName": "Telangana",
    "districtCode": "S2930",
    "districtName": "Bhadradri",
    "acNumber": 118,
    "acName": "Aswaraopeta",
    "partNumber": 6,
    "partName": "Odduramavaram",
    "lat": 17.37129445,
    "lon": 81.17189403536545
  },
  {
    "partId": 34219,
    "stateCode": "S29",
    "stateName": "Telangana",
    "districtCode": "S2930",
    "districtName": "Bhadradri",
    "acNumber": 118,
    "acName": "Aswaraopeta",
    "partNumber": 7,
    "partName": "Madharam",
    "lat": 17.5070473,
    "lon": 80.8075959
  },
  {
    "partId": 34313,
    "stateCode": "S29",
    "stateName": "Telangana",
    "districtCode": "S2930",
    "districtName": "Bhadradri",
    "acNumber": 118,
    "acName": "Aswaraopeta",
    "partNumber": 8,
    "partName": "Madharam",
    "lat": 17.5070473,
    "lon": 80.8075959
  },
  {
    "partId": 34221,
    "stateCode": "S29",
    "stateName": "Telangana",
    "districtCode": "S2930",
    "districtName": "Bhadradri",
    "acNumber": 118,
    "acName": "Aswaraopeta",
    "partNumber": 9,
    "partName": "Mulakalapalli",
    "lat": 17.507687,
    "lon": 80.8336639
  },
  {
    "partId": 34314,
    "stateCode": "S29",
    "stateName": "Telangana",
    "districtCode": "S2930",
    "districtName": "Bhadradri",
    "acNumber": 118,
    "acName": "Aswaraopeta",
    "partNumber": 10,
    "partName": "Mulakalapalli",
    "lat": 17.507687,
    "lon": 80.8336639
  },
  {
    "partId": 34315,
    "stateCode": "S29",
    "stateName": "Telangana",
    "districtCode": "S2930",
    "districtName": "Bhadradri",
    "acNumber": 118,
    "acName": "Aswaraopeta",
    "partNumber": 11,
    "partName": "Mulakalapalli",
    "lat": 17.507687,
    "lon": 80.8336639
  },
  {
    "partId": 34316,
    "stateCode": "S29",
    "stateName": "Telangana",
    "districtCode": "S2930",
    "districtName": "Bhadradri",
    "acNumber": 118,
    "acName": "Aswaraopeta",
    "partNumber": 12,
    "partName": "Mulakalapalli",
    "lat": 17.507687,
    "lon": 80.8336639
  },
  {
    "partId": 34223,
    "stateCode": "S29",
    "stateName": "Telangana",
    "districtCode": "S2930",
    "districtName": "Bhadradri",
    "acNumber": 118,
    "acName": "Aswaraopeta",
    "partNumber": 13,
    "partName": "Velkamvarigumpu",
    "lat": 17.37129445,
    "lon": 81.17189403536545
  },
  {
    "partId": 34225,
    "stateCode": "S29",
    "stateName": "Telangana",
    "districtCode": "S2930",
    "districtName": "Bhadradri",
    "acNumber": 118,
    "acName": "Aswaraopeta",
    "partNumber": 14,
    "partName": "Chowtigudem colony H/o Mulakalapally",
    "lat": 17.37129445,
    "lon": 81.17189403536545
  },
  {
    "partId": 34317,
    "stateCode": "S29",
    "stateName": "Telangana",
    "districtCode": "S2930",
    "districtName": "Bhadradri",
    "acNumber": 118,
    "acName": "Aswaraopeta",
    "partNumber": 15,
    "partName": "Thimmampeta",
    "lat": 17.37129445,
    "lon": 81.17189403536545
  },
  {
    "partId": 34318,
    "stateCode": "S29",
    "stateName": "Telangana",
    "districtCode": "S2930",
    "districtName": "Bhadradri",
    "acNumber": 118,
    "acName": "Aswaraopeta",
    "partNumber": 16,
    "partName": "Rajeevnagar Colony",
    "lat": 17.37129445,
    "lon": 81.17189403536545
  },
  {
    "partId": 34319,
    "stateCode": "S29",
    "stateName": "Telangana",
    "districtCode": "S2930",
    "districtName": "Bhadradri",
    "acNumber": 118,
    "acName": "Aswaraopeta",
    "partNumber": 17,
    "partName": "Rachannagudem",
    "lat": 17.37129445,
    "lon": 81.17189403536545
  },
  {
    "partId": 34227,
    "stateCode": "S29",
    "stateName": "Telangana",
    "districtCode": "S2930",
    "districtName": "Bhadradri",
    "acNumber": 118,
    "acName": "Aswaraopeta",
    "partNumber": 18,
    "partName": "Jagannadhapuram",
    "lat": 17.6059504,
    "lon": 80.7503898
  },
  {
    "partId": 34320,
    "stateCode": "S29",
    "stateName": "Telangana",
    "districtCode": "S2930",
    "districtName": "Bhadradri",
    "acNumber": 118,
    "acName": "Aswaraopeta",
    "partNumber": 19,
    "partName": "Jagannadapuram",
    "lat": 17.37129445,
    "lon": 81.17189403536545
  },
  {
    "partId": 34229,
    "stateCode": "S29",
    "stateName": "Telangana",
    "districtCode": "S2930",
    "districtName": "Bhadradri",
    "acNumber": 118,
    "acName": "Aswaraopeta",
    "partNumber": 20,
    "partName": "Narsapuram",
    "lat": 17.773088,
    "lon": 80.8836639
  },
  {
    "partId": 34321,
    "stateCode": "S29",
    "stateName": "Telangana",
    "districtCode": "S2930",
    "districtName": "Bhadradri",
    "acNumber": 118,
    "acName": "Aswaraopeta",
    "partNumber": 21,
    "partName": "Seetahigudem H/O Jagannadhapuram",
    "lat": 17.37129445,
    "lon": 81.17189403536545
  },
  {
    "partId": 34230,
    "stateCode": "S29",
    "stateName": "Telangana",
    "districtCode": "S2930",
    "districtName": "Bhadradri",
    "acNumber": 118,
    "acName": "Aswaraopeta",
    "partNumber": 22,
    "partName": "Gandiprolu",
    "lat": 17.420176,
    "lon": 80.841419
  },
  {
    "partId": 34322,
    "stateCode": "S29",
    "stateName": "Telangana",
    "districtCode": "S2930",
    "districtName": "Bhadradri",
    "acNumber": 118,
    "acName": "Aswaraopeta",
    "partNumber": 23,
    "partName": "Pathagangaram",
    "lat": 17.37129445,
    "lon": 81.17189403536545
  },
  {
    "partId": 34231,
    "stateCode": "S29",
    "stateName": "Telangana",
    "districtCode": "S2930",
    "districtName": "Bhadradri",
    "acNumber": 118,
    "acName": "Aswaraopeta",
    "partNumber": 24,
    "partName": "Pathagangaram",
    "lat": 17.37129445,
    "lon": 81.17189403536545
  },
  {
    "partId": 34323,
    "stateCode": "S29",
    "stateName": "Telangana",
    "districtCode": "S2930",
    "districtName": "Bhadradri",
    "acNumber": 118,
    "acName": "Aswaraopeta",
    "partNumber": 25,
    "partName": "Muthyalampadu",
    "lat": 17.4421039,
    "lon": 80.8812784
  },
  {
    "partId": 34232,
    "stateCode": "S29",
    "stateName": "Telangana",
    "districtCode": "S2930",
    "districtName": "Bhadradri",
    "acNumber": 118,
    "acName": "Aswaraopeta",
    "partNumber": 26,
    "partName": "Pogallapalli",
    "lat": 17.5417104,
    "lon": 80.8688999
  },
  {
    "partId": 34233,
    "stateCode": "S29",
    "stateName": "Telangana",
    "districtCode": "S2930",
    "districtName": "Bhadradri",
    "acNumber": 118,
    "acName": "Aswaraopeta",
    "partNumber": 27,
    "partName": "Pogalapalli",
    "lat": 17.37129445,
    "lon": 81.17189403536545
  },
  {
    "partId": 34324,
    "stateCode": "S29",
    "stateName": "Telangana",
    "districtCode": "S2930",
    "districtName": "Bhadradri",
    "acNumber": 118,
    "acName": "Aswaraopeta",
    "partNumber": 28,
    "partName": "Ringireddypalli",
    "lat": 17.5417057,
    "lon": 80.8688871
  },
  {
    "partId": 34325,
    "stateCode": "S29",
    "stateName": "Telangana",
    "districtCode": "S2930",
    "districtName": "Bhadradri",
    "acNumber": 118,
    "acName": "Aswaraopeta",
    "partNumber": 29,
    "partName": "Mogaralaguppa",
    "lat": 17.4989268,
    "lon": 80.89524
  },
  {
    "partId": 34326,
    "stateCode": "S29",
    "stateName": "Telangana",
    "districtCode": "S2930",
    "districtName": "Bhadradri",
    "acNumber": 118,
    "acName": "Aswaraopeta",
    "partNumber": 30,
    "partName": "Gattugudem Ho Mukamamidi",
    "lat": 17.37129445,
    "lon": 81.17189403536545
  },
  {
    "partId": 34234,
    "stateCode": "S29",
    "stateName": "Telangana",
    "districtCode": "S2930",
    "districtName": "Bhadradri",
    "acNumber": 118,
    "acName": "Aswaraopeta",
    "partNumber": 31,
    "partName": "Kamalapuram",
    "lat": 17.4513319,
    "lon": 80.8204336
  },
  {
    "partId": 34235,
    "stateCode": "S29",
    "stateName": "Telangana",
    "districtCode": "S2930",
    "districtName": "Bhadradri",
    "acNumber": 118,
    "acName": "Aswaraopeta",
    "partNumber": 32,
    "partName": "Chaparalapalli",
    "lat": 17.4237147,
    "lon": 80.7655543
  },
  {
    "partId": 34236,
    "stateCode": "S29",
    "stateName": "Telangana",
    "districtCode": "S2930",
    "districtName": "Bhadradri",
    "acNumber": 118,
    "acName": "Aswaraopeta",
    "partNumber": 33,
    "partName": "Guttagudem",
    "lat": 17.4309041,
    "lon": 80.7778839
  },
  {
    "partId": 34327,
    "stateCode": "S29",
    "stateName": "Telangana",
    "districtCode": "S2930",
    "districtName": "Bhadradri",
    "acNumber": 118,
    "acName": "Aswaraopeta",
    "partNumber": 34,
    "partName": "Ramachandrapuram",
    "lat": 17.873579,
    "lon": 80.9144284
  },
  {
    "partId": 34329,
    "stateCode": "S29",
    "stateName": "Telangana",
    "districtCode": "S2930",
    "districtName": "Bhadradri",
    "acNumber": 118,
    "acName": "Aswaraopeta",
    "partNumber": 35,
    "partName": "Seethaigudem",
    "lat": 17.4366693,
    "lon": 80.8500854
  },
  {
    "partId": 34330,
    "stateCode": "S29",
    "stateName": "Telangana",
    "districtCode": "S2930",
    "districtName": "Bhadradri",
    "acNumber": 118,
    "acName": "Aswaraopeta",
    "partNumber": 36,
    "partName": "Mahammad Nagar",
    "lat": 17.37129445,
    "lon": 81.17189403536545
  },
  {
    "partId": 34238,
    "stateCode": "S29",
    "stateName": "Telangana",
    "districtCode": "S2930",
    "districtName": "Bhadradri",
    "acNumber": 118,
    "acName": "Aswaraopeta",
    "partNumber": 37,
    "partName": "Thippanpalli",
    "lat": 17.37129445,
    "lon": 81.17189403536545
  },
  {
    "partId": 34239,
    "stateCode": "S29",
    "stateName": "Telangana",
    "districtCode": "S2930",
    "districtName": "Bhadradri",
    "acNumber": 118,
    "acName": "Aswaraopeta",
    "partNumber": 38,
    "partName": "Thippanapalli",
    "lat": 17.37129445,
    "lon": 81.17189403536545
  },
  {
    "partId": 34331,
    "stateCode": "S29",
    "stateName": "Telangana",
    "districtCode": "S2930",
    "districtName": "Bhadradri",
    "acNumber": 118,
    "acName": "Aswaraopeta",
    "partNumber": 39,
    "partName": "Thungaram",
    "lat": 17.4362524,
    "lon": 80.59405
  },
  {
    "partId": 34332,
    "stateCode": "S29",
    "stateName": "Telangana",
    "districtCode": "S2930",
    "districtName": "Bhadradri",
    "acNumber": 118,
    "acName": "Aswaraopeta",
    "partNumber": 40,
    "partName": "Thungaram",
    "lat": 17.4362524,
    "lon": 80.59405
  },
  {
    "partId": 34333,
    "stateCode": "S29",
    "stateName": "Telangana",
    "districtCode": "S2930",
    "districtName": "Bhadradri",
    "acNumber": 118,
    "acName": "Aswaraopeta",
    "partNumber": 41,
    "partName": "Repalewada",
    "lat": 17.37129445,
    "lon": 81.17189403536545
  },
  {
    "partId": 34240,
    "stateCode": "S29",
    "stateName": "Telangana",
    "districtCode": "S2930",
    "districtName": "Bhadradri",
    "acNumber": 118,
    "acName": "Aswaraopeta",
    "partNumber": 42,
    "partName": "Mangiah Banjar",
    "lat": 17.37129445,
    "lon": 81.17189403536545
  },
  {
    "partId": 34334,
    "stateCode": "S29",
    "stateName": "Telangana",
    "districtCode": "S2930",
    "districtName": "Bhadradri",
    "acNumber": 118,
    "acName": "Aswaraopeta",
    "partNumber": 43,
    "partName": "Ganugapadu",
    "lat": 17.4173209,
    "lon": 80.5891781
  },
  {
    "partId": 34241,
    "stateCode": "S29",
    "stateName": "Telangana",
    "districtCode": "S2930",
    "districtName": "Bhadradri",
    "acNumber": 118,
    "acName": "Aswaraopeta",
    "partNumber": 44,
    "partName": "Ganugupadu",
    "lat": 17.37129445,
    "lon": 81.17189403536545
  },
  {
    "partId": 34335,
    "stateCode": "S29",
    "stateName": "Telangana",
    "districtCode": "S2930",
    "districtName": "Bhadradri",
    "acNumber": 118,
    "acName": "Aswaraopeta",
    "partNumber": 45,
    "partName": "Pokalagudem",
    "lat": 17.3874839,
    "lon": 80.5838777
  },
  {
    "partId": 34242,
    "stateCode": "S29",
    "stateName": "Telangana",
    "districtCode": "S2930",
    "districtName": "Bhadradri",
    "acNumber": 118,
    "acName": "Aswaraopeta",
    "partNumber": 46,
    "partName": "Pokalagudem",
    "lat": 17.3874839,
    "lon": 80.5838777
  },
  {
    "partId": 34336,
    "stateCode": "S29",
    "stateName": "Telangana",
    "districtCode": "S2930",
    "districtName": "Bhadradri",
    "acNumber": 118,
    "acName": "Aswaraopeta",
    "partNumber": 47,
    "partName": "Samiya Thanda",
    "lat": 17.37129445,
    "lon": 81.17189403536545
  },
  {
    "partId": 34243,
    "stateCode": "S29",
    "stateName": "Telangana",
    "districtCode": "S2930",
    "districtName": "Bhadradri",
    "acNumber": 118,
    "acName": "Aswaraopeta",
    "partNumber": 48,
    "partName": "Balya Thanda",
    "lat": 17.708207,
    "lon": 80.2868285
  },
  {
    "partId": 34337,
    "stateCode": "S29",
    "stateName": "Telangana",
    "districtCode": "S2930",
    "districtName": "Bhadradri",
    "acNumber": 118,
    "acName": "Aswaraopeta",
    "partNumber": 49,
    "partName": "Ravikampadu",
    "lat": 17.3937951,
    "lon": 80.604309
  },
  {
    "partId": 34244,
    "stateCode": "S29",
    "stateName": "Telangana",
    "districtCode": "S2930",
    "districtName": "Bhadradri",
    "acNumber": 118,
    "acName": "Aswaraopeta",
    "partNumber": 50,
    "partName": "Ravikampadu",
    "lat": 17.3937951,
    "lon": 80.604309
  },
  {
    "partId": 34338,
    "stateCode": "S29",
    "stateName": "Telangana",
    "districtCode": "S2930",
    "districtName": "Bhadradri",
    "acNumber": 118,
    "acName": "Aswaraopeta",
    "partNumber": 51,
    "partName": "Gurramgudem",
    "lat": 17.37129445,
    "lon": 81.17189403536545
  },
  {
    "partId": 34339,
    "stateCode": "S29",
    "stateName": "Telangana",
    "districtCode": "S2930",
    "districtName": "Bhadradri",
    "acNumber": 118,
    "acName": "Aswaraopeta",
    "partNumber": 52,
    "partName": "Bendalapadu H/O Gurramgudem",
    "lat": 17.37129445,
    "lon": 81.17189403536545
  },
  {
    "partId": 34340,
    "stateCode": "S29",
    "stateName": "Telangana",
    "districtCode": "S2930",
    "districtName": "Bhadradri",
    "acNumber": 118,
    "acName": "Aswaraopeta",
    "partNumber": 53,
    "partName": "Chandrugonda",
    "lat": 17.3891187,
    "lon": 80.6423092
  },
  {
    "partId": 34245,
    "stateCode": "S29",
    "stateName": "Telangana",
    "districtCode": "S2930",
    "districtName": "Bhadradri",
    "acNumber": 118,
    "acName": "Aswaraopeta",
    "partNumber": 54,
    "partName": "Chandrugonda",
    "lat": 17.3891187,
    "lon": 80.6423092
  },
  {
    "partId": 34246,
    "stateCode": "S29",
    "stateName": "Telangana",
    "districtCode": "S2930",
    "districtName": "Bhadradri",
    "acNumber": 118,
    "acName": "Aswaraopeta",
    "partNumber": 55,
    "partName": "Chandrugonda",
    "lat": 17.3891187,
    "lon": 80.6423092
  },
  {
    "partId": 34247,
    "stateCode": "S29",
    "stateName": "Telangana",
    "districtCode": "S2930",
    "districtName": "Bhadradri",
    "acNumber": 118,
    "acName": "Aswaraopeta",
    "partNumber": 56,
    "partName": "Ayyannapalem",
    "lat": 17.3829154,
    "lon": 80.6596862
  },
  {
    "partId": 34341,
    "stateCode": "S29",
    "stateName": "Telangana",
    "districtCode": "S2930",
    "districtName": "Bhadradri",
    "acNumber": 118,
    "acName": "Aswaraopeta",
    "partNumber": 57,
    "partName": "Ayyannapalem",
    "lat": 17.3829154,
    "lon": 80.6596862
  },
  {
    "partId": 34342,
    "stateCode": "S29",
    "stateName": "Telangana",
    "districtCode": "S2930",
    "districtName": "Bhadradri",
    "acNumber": 118,
    "acName": "Aswaraopeta",
    "partNumber": 58,
    "partName": "Ayyannapalem",
    "lat": 17.3829154,
    "lon": 80.6596862
  },
  {
    "partId": 34343,
    "stateCode": "S29",
    "stateName": "Telangana",
    "districtCode": "S2930",
    "districtName": "Bhadradri",
    "acNumber": 118,
    "acName": "Aswaraopeta",
    "partNumber": 59,
    "partName": "Damaracherla",
    "lat": 17.37129445,
    "lon": 81.17189403536545
  },
  {
    "partId": 34248,
    "stateCode": "S29",
    "stateName": "Telangana",
    "districtCode": "S2930",
    "districtName": "Bhadradri",
    "acNumber": 118,
    "acName": "Aswaraopeta",
    "partNumber": 60,
    "partName": "Maddukuru",
    "lat": 17.3581318,
    "lon": 80.6696114
  },
  {
    "partId": 34249,
    "stateCode": "S29",
    "stateName": "Telangana",
    "districtCode": "S2930",
    "districtName": "Bhadradri",
    "acNumber": 118,
    "acName": "Aswaraopeta",
    "partNumber": 61,
    "partName": "Maddukuru",
    "lat": 17.3581318,
    "lon": 80.6696114
  },
  {
    "partId": 34237,
    "stateCode": "S29",
    "stateName": "Telangana",
    "districtCode": "S2930",
    "districtName": "Bhadradri",
    "acNumber": 118,
    "acName": "Aswaraopeta",
    "partNumber": 62,
    "partName": "Abbugudem",
    "lat": 17.3796039,
    "lon": 80.7115901
  },
  {
    "partId": 34328,
    "stateCode": "S29",
    "stateName": "Telangana",
    "districtCode": "S2930",
    "districtName": "Bhadradri",
    "acNumber": 118,
    "acName": "Aswaraopeta",
    "partNumber": 63,
    "partName": "Abbugudem",
    "lat": 17.3796039,
    "lon": 80.7115901
  },
  {
    "partId": 34344,
    "stateCode": "S29",
    "stateName": "Telangana",
    "districtCode": "S2930",
    "districtName": "Bhadradri",
    "acNumber": 118,
    "acName": "Aswaraopeta",
    "partNumber": 64,
    "partName": "Gumpena",
    "lat": 17.3292726,
    "lon": 80.6995784
  },
  {
    "partId": 34345,
    "stateCode": "S29",
    "stateName": "Telangana",
    "districtCode": "S2930",
    "districtName": "Bhadradri",
    "acNumber": 118,
    "acName": "Aswaraopeta",
    "partNumber": 65,
    "partName": "Gumpena",
    "lat": 17.3292726,
    "lon": 80.6995784
  },
  {
    "partId": 34250,
    "stateCode": "S29",
    "stateName": "Telangana",
    "districtCode": "S2930",
    "districtName": "Bhadradri",
    "acNumber": 118,
    "acName": "Aswaraopeta",
    "partNumber": 66,
    "partName": "Mahaboob Nagar",
    "lat": 17.37129445,
    "lon": 81.17189403536545
  },
  {
    "partId": 34251,
    "stateCode": "S29",
    "stateName": "Telangana",
    "districtCode": "S2930",
    "districtName": "Bhadradri",
    "acNumber": 118,
    "acName": "Aswaraopeta",
    "partNumber": 67,
    "partName": "Yerragunta H/O Peddireddy Gudem, 8th Class",
    "lat": 17.37129445,
    "lon": 81.17189403536545
  },
  {
    "partId": 34252,
    "stateCode": "S29",
    "stateName": "Telangana",
    "districtCode": "S2930",
    "districtName": "Bhadradri",
    "acNumber": 118,
    "acName": "Aswaraopeta",
    "partNumber": 68,
    "partName": "Yerragunta H/O Peddireddy Gudem, 9th Class",
    "lat": 17.37129445,
    "lon": 81.17189403536545
  },
  {
    "partId": 34346,
    "stateCode": "S29",
    "stateName": "Telangana",
    "districtCode": "S2930",
    "districtName": "Bhadradri",
    "acNumber": 118,
    "acName": "Aswaraopeta",
    "partNumber": 69,
    "partName": "Yerragunta H/O Peddireddy Gudem, 10th Class",
    "lat": 17.37129445,
    "lon": 81.17189403536545
  },
  {
    "partId": 34228,
    "stateCode": "S29",
    "stateName": "Telangana",
    "districtCode": "S2930",
    "districtName": "Bhadradri",
    "acNumber": 118,
    "acName": "Aswaraopeta",
    "partNumber": 70,
    "partName": "Bheemunigudem H/o Peddireddigudem",
    "lat": 17.37129445,
    "lon": 81.17189403536545
  },
  {
    "partId": 34347,
    "stateCode": "S29",
    "stateName": "Telangana",
    "districtCode": "S2930",
    "districtName": "Bhadradri",
    "acNumber": 118,
    "acName": "Aswaraopeta",
    "partNumber": 71,
    "partName": "Vootupalli",
    "lat": 17.37129445,
    "lon": 81.17189403536545
  },
  {
    "partId": 34253,
    "stateCode": "S29",
    "stateName": "Telangana",
    "districtCode": "S2930",
    "districtName": "Bhadradri",
    "acNumber": 118,
    "acName": "Aswaraopeta",
    "partNumber": 72,
    "partName": "Rajapuram  H/O Narsapuram",
    "lat": 17.37129445,
    "lon": 81.17189403536545
  },
  {
    "partId": 34348,
    "stateCode": "S29",
    "stateName": "Telangana",
    "districtCode": "S2930",
    "districtName": "Bhadradri",
    "acNumber": 118,
    "acName": "Aswaraopeta",
    "partNumber": 73,
    "partName": "Rajapuram H/O Narsapuram",
    "lat": 17.37129445,
    "lon": 81.17189403536545
  },
  {
    "partId": 34254,
    "stateCode": "S29",
    "stateName": "Telangana",
    "districtCode": "S2930",
    "districtName": "Bhadradri",
    "acNumber": 118,
    "acName": "Aswaraopeta",
    "partNumber": 74,
    "partName": "Marrigudem H/O Telijarla",
    "lat": 17.37129445,
    "lon": 81.17189403536545
  },
  {
    "partId": 34349,
    "stateCode": "S29",
    "stateName": "Telangana",
    "districtCode": "S2930",
    "districtName": "Bhadradri",
    "acNumber": 118,
    "acName": "Aswaraopeta",
    "partNumber": 75,
    "partName": "Buchannagudem H/o Marrigudem",
    "lat": 17.37129445,
    "lon": 81.17189403536545
  },
  {
    "partId": 34255,
    "stateCode": "S29",
    "stateName": "Telangana",
    "districtCode": "S2930",
    "districtName": "Bhadradri",
    "acNumber": 118,
    "acName": "Aswaraopeta",
    "partNumber": 76,
    "partName": "Pentlam",
    "lat": 17.3471459,
    "lon": 80.7672625
  },
  {
    "partId": 34350,
    "stateCode": "S29",
    "stateName": "Telangana",
    "districtCode": "S2930",
    "districtName": "Bhadradri",
    "acNumber": 118,
    "acName": "Aswaraopeta",
    "partNumber": 77,
    "partName": "Pentlam",
    "lat": 17.3471459,
    "lon": 80.7672625
  },
  {
    "partId": 34256,
    "stateCode": "S29",
    "stateName": "Telangana",
    "districtCode": "S2930",
    "districtName": "Bhadradri",
    "acNumber": 118,
    "acName": "Aswaraopeta",
    "partNumber": 78,
    "partName": "Annapureddypalli",
    "lat": 17.37129445,
    "lon": 81.17189403536545
  },
  {
    "partId": 34351,
    "stateCode": "S29",
    "stateName": "Telangana",
    "districtCode": "S2930",
    "districtName": "Bhadradri",
    "acNumber": 118,
    "acName": "Aswaraopeta",
    "partNumber": 79,
    "partName": "Annapureddypalli",
    "lat": 17.37129445,
    "lon": 81.17189403536545
  },
  {
    "partId": 34257,
    "stateCode": "S29",
    "stateName": "Telangana",
    "districtCode": "S2930",
    "districtName": "Bhadradri",
    "acNumber": 118,
    "acName": "Aswaraopeta",
    "partNumber": 80,
    "partName": "Annapureddypalli",
    "lat": 17.37129445,
    "lon": 81.17189403536545
  },
  {
    "partId": 34352,
    "stateCode": "S29",
    "stateName": "Telangana",
    "districtCode": "S2930",
    "districtName": "Bhadradri",
    "acNumber": 118,
    "acName": "Aswaraopeta",
    "partNumber": 81,
    "partName": "Thottipampu",
    "lat": 17.3893897,
    "lon": 80.7831262
  },
  {
    "partId": 34258,
    "stateCode": "S29",
    "stateName": "Telangana",
    "districtCode": "S2930",
    "districtName": "Bhadradri",
    "acNumber": 118,
    "acName": "Aswaraopeta",
    "partNumber": 82,
    "partName": "Gandugulapalli H/O Nagupalli",
    "lat": 17.37129445,
    "lon": 81.17189403536545
  },
  {
    "partId": 34353,
    "stateCode": "S29",
    "stateName": "Telangana",
    "districtCode": "S2930",
    "districtName": "Bhadradri",
    "acNumber": 118,
    "acName": "Aswaraopeta",
    "partNumber": 83,
    "partName": "Mondivarre H/O Nagupalli",
    "lat": 17.37129445,
    "lon": 81.17189403536545
  },
  {
    "partId": 34354,
    "stateCode": "S29",
    "stateName": "Telangana",
    "districtCode": "S2930",
    "districtName": "Bhadradri",
    "acNumber": 118,
    "acName": "Aswaraopeta",
    "partNumber": 84,
    "partName": "Mondivarre H/O Nagupalli",
    "lat": 17.37129445,
    "lon": 81.17189403536545
  },
  {
    "partId": 34355,
    "stateCode": "S29",
    "stateName": "Telangana",
    "districtCode": "S2930",
    "districtName": "Bhadradri",
    "acNumber": 118,
    "acName": "Aswaraopeta",
    "partNumber": 85,
    "partName": "Nagupalli",
    "lat": 17.2828746,
    "lon": 80.8811398
  },
  {
    "partId": 34259,
    "stateCode": "S29",
    "stateName": "Telangana",
    "districtCode": "S2930",
    "districtName": "Bhadradri",
    "acNumber": 118,
    "acName": "Aswaraopeta",
    "partNumber": 86,
    "partName": "Nagupalli",
    "lat": 17.2828746,
    "lon": 80.8811398
  },
  {
    "partId": 34260,
    "stateCode": "S29",
    "stateName": "Telangana",
    "districtCode": "S2930",
    "districtName": "Bhadradri",
    "acNumber": 118,
    "acName": "Aswaraopeta",
    "partNumber": 87,
    "partName": "Reddyalapadu H/O Nagupalli",
    "lat": 17.37129445,
    "lon": 81.17189403536545
  },
  {
    "partId": 34261,
    "stateCode": "S29",
    "stateName": "Telangana",
    "districtCode": "S2930",
    "districtName": "Bhadradri",
    "acNumber": 118,
    "acName": "Aswaraopeta",
    "partNumber": 88,
    "partName": "Reddyalapadu H/O Nagupalli",
    "lat": 17.37129445,
    "lon": 81.17189403536545
  },
  {
    "partId": 34356,
    "stateCode": "S29",
    "stateName": "Telangana",
    "districtCode": "S2930",
    "districtName": "Bhadradri",
    "acNumber": 118,
    "acName": "Aswaraopeta",
    "partNumber": 89,
    "partName": "Nacharam",
    "lat": 17.234462,
    "lon": 80.8790008
  },
  {
    "partId": 34357,
    "stateCode": "S29",
    "stateName": "Telangana",
    "districtCode": "S2930",
    "districtName": "Bhadradri",
    "acNumber": 118,
    "acName": "Aswaraopeta",
    "partNumber": 90,
    "partName": "Nacharam",
    "lat": 17.234462,
    "lon": 80.8790008
  },
  {
    "partId": 34358,
    "stateCode": "S29",
    "stateName": "Telangana",
    "districtCode": "S2930",
    "districtName": "Bhadradri",
    "acNumber": 118,
    "acName": "Aswaraopeta",
    "partNumber": 91,
    "partName": "Nacharam",
    "lat": 17.234462,
    "lon": 80.8790008
  },
  {
    "partId": 34262,
    "stateCode": "S29",
    "stateName": "Telangana",
    "districtCode": "S2930",
    "districtName": "Bhadradri",
    "acNumber": 118,
    "acName": "Aswaraopeta",
    "partNumber": 92,
    "partName": "Ganeshpadu",
    "lat": 17.2289971,
    "lon": 80.9074458
  },
  {
    "partId": 34263,
    "stateCode": "S29",
    "stateName": "Telangana",
    "districtCode": "S2930",
    "districtName": "Bhadradri",
    "acNumber": 118,
    "acName": "Aswaraopeta",
    "partNumber": 93,
    "partName": "Gattugudem  H/O Gunnepally",
    "lat": 17.37129445,
    "lon": 81.17189403536545
  },
  {
    "partId": 34264,
    "stateCode": "S29",
    "stateName": "Telangana",
    "districtCode": "S2930",
    "districtName": "Bhadradri",
    "acNumber": 118,
    "acName": "Aswaraopeta",
    "partNumber": 94,
    "partName": "Vadlagudem",
    "lat": 17.2041901,
    "lon": 80.9625525
  },
  {
    "partId": 34359,
    "stateCode": "S29",
    "stateName": "Telangana",
    "districtCode": "S2930",
    "districtName": "Bhadradri",
    "acNumber": 118,
    "acName": "Aswaraopeta",
    "partNumber": 95,
    "partName": "Marappagudem H/O Akenapalli",
    "lat": 17.37129445,
    "lon": 81.17189403536545
  },
  {
    "partId": 34265,
    "stateCode": "S29",
    "stateName": "Telangana",
    "districtCode": "S2930",
    "districtName": "Bhadradri",
    "acNumber": 118,
    "acName": "Aswaraopeta",
    "partNumber": 96,
    "partName": "Marappagudem",
    "lat": 17.394334982485876,
    "lon": 81.00745433122167
  },
  {
    "partId": 34266,
    "stateCode": "S29",
    "stateName": "Telangana",
    "districtCode": "S2930",
    "districtName": "Bhadradri",
    "acNumber": 118,
    "acName": "Aswaraopeta",
    "partNumber": 97,
    "partName": "Ranguvarigudem H/O Akenapalli",
    "lat": 17.37129445,
    "lon": 81.17189403536545
  },
  {
    "partId": 34267,
    "stateCode": "S29",
    "stateName": "Telangana",
    "districtCode": "S2930",
    "districtName": "Bhadradri",
    "acNumber": 118,
    "acName": "Aswaraopeta",
    "partNumber": 98,
    "partName": "Allipalli",
    "lat": 17.71666325,
    "lon": 80.57126094455612
  },
  {
    "partId": 34360,
    "stateCode": "S29",
    "stateName": "Telangana",
    "districtCode": "S2930",
    "districtName": "Bhadradri",
    "acNumber": 118,
    "acName": "Aswaraopeta",
    "partNumber": 99,
    "partName": "Mandalapalli",
    "lat": 17.394334982485876,
    "lon": 81.00745433122167
  },
  {
    "partId": 34361,
    "stateCode": "S29",
    "stateName": "Telangana",
    "districtCode": "S2930",
    "districtName": "Bhadradri",
    "acNumber": 118,
    "acName": "Aswaraopeta",
    "partNumber": 100,
    "partName": "Mandalapalli",
    "lat": 17.394334982485876,
    "lon": 81.00745433122167
  },
  {
    "partId": 34268,
    "stateCode": "S29",
    "stateName": "Telangana",
    "districtCode": "S2930",
    "districtName": "Bhadradri",
    "acNumber": 118,
    "acName": "Aswaraopeta",
    "partNumber": 101,
    "partName": "Mandalapalli",
    "lat": 17.2396151,
    "lon": 81.0067764
  },
  {
    "partId": 34269,
    "stateCode": "S29",
    "stateName": "Telangana",
    "districtCode": "S2930",
    "districtName": "Bhadradri",
    "acNumber": 118,
    "acName": "Aswaraopeta",
    "partNumber": 102,
    "partName": "Mandalapalli",
    "lat": 17.2396151,
    "lon": 81.0067764
  },
  {
    "partId": 34270,
    "stateCode": "S29",
    "stateName": "Telangana",
    "districtCode": "S2930",
    "districtName": "Bhadradri",
    "acNumber": 118,
    "acName": "Aswaraopeta",
    "partNumber": 103,
    "partName": "Mustibanda",
    "lat": 17.2447655,
    "lon": 80.9755739
  },
  {
    "partId": 34362,
    "stateCode": "S29",
    "stateName": "Telangana",
    "districtCode": "S2930",
    "districtName": "Bhadradri",
    "acNumber": 118,
    "acName": "Aswaraopeta",
    "partNumber": 104,
    "partName": "Mustibanda",
    "lat": 17.2447655,
    "lon": 80.9755739
  },
  {
    "partId": 34271,
    "stateCode": "S29",
    "stateName": "Telangana",
    "districtCode": "S2930",
    "districtName": "Bhadradri",
    "acNumber": 118,
    "acName": "Aswaraopeta",
    "partNumber": 105,
    "partName": "Moddulagudem",
    "lat": 17.2583146,
    "lon": 80.9439142
  },
  {
    "partId": 34363,
    "stateCode": "S29",
    "stateName": "Telangana",
    "districtCode": "S2930",
    "districtName": "Bhadradri",
    "acNumber": 118,
    "acName": "Aswaraopeta",
    "partNumber": 106,
    "partName": "Moddulagudem",
    "lat": 17.2583146,
    "lon": 80.9439142
  },
  {
    "partId": 34272,
    "stateCode": "S29",
    "stateName": "Telangana",
    "districtCode": "S2930",
    "districtName": "Bhadradri",
    "acNumber": 118,
    "acName": "Aswaraopeta",
    "partNumber": 107,
    "partName": "Naidupeta",
    "lat": 17.2597046,
    "lon": 80.9333538
  },
  {
    "partId": 34364,
    "stateCode": "S29",
    "stateName": "Telangana",
    "districtCode": "S2930",
    "districtName": "Bhadradri",
    "acNumber": 118,
    "acName": "Aswaraopeta",
    "partNumber": 108,
    "partName": "Dammapeta",
    "lat": 17.269961,
    "lon": 81.0097472
  },
  {
    "partId": 34273,
    "stateCode": "S29",
    "stateName": "Telangana",
    "districtCode": "S2930",
    "districtName": "Bhadradri",
    "acNumber": 118,
    "acName": "Aswaraopeta",
    "partNumber": 109,
    "partName": "Dammapeta",
    "lat": 17.269961,
    "lon": 81.0097472
  },
  {
    "partId": 34365,
    "stateCode": "S29",
    "stateName": "Telangana",
    "districtCode": "S2930",
    "districtName": "Bhadradri",
    "acNumber": 118,
    "acName": "Aswaraopeta",
    "partNumber": 110,
    "partName": "Dammapeta",
    "lat": 17.269961,
    "lon": 81.0097472
  },
  {
    "partId": 34274,
    "stateCode": "S29",
    "stateName": "Telangana",
    "districtCode": "S2930",
    "districtName": "Bhadradri",
    "acNumber": 118,
    "acName": "Aswaraopeta",
    "partNumber": 111,
    "partName": "Dammapeta",
    "lat": 17.269961,
    "lon": 81.0097472
  },
  {
    "partId": 34366,
    "stateCode": "S29",
    "stateName": "Telangana",
    "districtCode": "S2930",
    "districtName": "Bhadradri",
    "acNumber": 118,
    "acName": "Aswaraopeta",
    "partNumber": 112,
    "partName": "Dammapeta",
    "lat": 17.269961,
    "lon": 81.0097472
  },
  {
    "partId": 34367,
    "stateCode": "S29",
    "stateName": "Telangana",
    "districtCode": "S2930",
    "districtName": "Bhadradri",
    "acNumber": 118,
    "acName": "Aswaraopeta",
    "partNumber": 113,
    "partName": "Dammapeta",
    "lat": 17.269961,
    "lon": 81.0097472
  },
  {
    "partId": 34368,
    "stateCode": "S29",
    "stateName": "Telangana",
    "districtCode": "S2930",
    "districtName": "Bhadradri",
    "acNumber": 118,
    "acName": "Aswaraopeta",
    "partNumber": 114,
    "partName": "Dammapeta",
    "lat": 17.269961,
    "lon": 81.0097472
  },
  {
    "partId": 34275,
    "stateCode": "S29",
    "stateName": "Telangana",
    "districtCode": "S2930",
    "districtName": "Bhadradri",
    "acNumber": 118,
    "acName": "Aswaraopeta",
    "partNumber": 115,
    "partName": "Dammapeta",
    "lat": 17.269961,
    "lon": 81.0097472
  },
  {
    "partId": 34276,
    "stateCode": "S29",
    "stateName": "Telangana",
    "districtCode": "S2930",
    "districtName": "Bhadradri",
    "acNumber": 118,
    "acName": "Aswaraopeta",
    "partNumber": 116,
    "partName": "Lingalapalli H/O Dammapeta",
    "lat": 17.37129445,
    "lon": 81.17189403536545
  },
  {
    "partId": 34369,
    "stateCode": "S29",
    "stateName": "Telangana",
    "districtCode": "S2930",
    "districtName": "Bhadradri",
    "acNumber": 118,
    "acName": "Aswaraopeta",
    "partNumber": 117,
    "partName": "J.M Banjara",
    "lat": 17.37129445,
    "lon": 81.17189403536545
  },
  {
    "partId": 34370,
    "stateCode": "S29",
    "stateName": "Telangana",
    "districtCode": "S2930",
    "districtName": "Bhadradri",
    "acNumber": 118,
    "acName": "Aswaraopeta",
    "partNumber": 118,
    "partName": "J M Banjara",
    "lat": 17.37129445,
    "lon": 81.17189403536545
  },
  {
    "partId": 34371,
    "stateCode": "S29",
    "stateName": "Telangana",
    "districtCode": "S2930",
    "districtName": "Bhadradri",
    "acNumber": 118,
    "acName": "Aswaraopeta",
    "partNumber": 119,
    "partName": "Malkaram",
    "lat": 17.3138725,
    "lon": 81.0505814
  },
  {
    "partId": 34277,
    "stateCode": "S29",
    "stateName": "Telangana",
    "districtCode": "S2930",
    "districtName": "Bhadradri",
    "acNumber": 118,
    "acName": "Aswaraopeta",
    "partNumber": 120,
    "partName": "Malkaram",
    "lat": 17.3138725,
    "lon": 81.0505814
  },
  {
    "partId": 34372,
    "stateCode": "S29",
    "stateName": "Telangana",
    "districtCode": "S2930",
    "districtName": "Bhadradri",
    "acNumber": 118,
    "acName": "Aswaraopeta",
    "partNumber": 121,
    "partName": "Lachapuram",
    "lat": 17.3203095,
    "lon": 81.0495276
  },
  {
    "partId": 34278,
    "stateCode": "S29",
    "stateName": "Telangana",
    "districtCode": "S2930",
    "districtName": "Bhadradri",
    "acNumber": 118,
    "acName": "Aswaraopeta",
    "partNumber": 122,
    "partName": "Lachapuram",
    "lat": 17.3203095,
    "lon": 81.0495276
  },
  {
    "partId": 34373,
    "stateCode": "S29",
    "stateName": "Telangana",
    "districtCode": "S2930",
    "districtName": "Bhadradri",
    "acNumber": 118,
    "acName": "Aswaraopeta",
    "partNumber": 123,
    "partName": "Pedda Gollagudem",
    "lat": 17.4995256,
    "lon": 81.2196566
  },
  {
    "partId": 34279,
    "stateCode": "S29",
    "stateName": "Telangana",
    "districtCode": "S2930",
    "districtName": "Bhadradri",
    "acNumber": 118,
    "acName": "Aswaraopeta",
    "partNumber": 124,
    "partName": "Pedda Gollagudem",
    "lat": 17.4995256,
    "lon": 81.2196566
  },
  {
    "partId": 34374,
    "stateCode": "S29",
    "stateName": "Telangana",
    "districtCode": "S2930",
    "districtName": "Bhadradri",
    "acNumber": 118,
    "acName": "Aswaraopeta",
    "partNumber": 125,
    "partName": "Balarajugudem",
    "lat": 17.3423197,
    "lon": 80.9427466
  },
  {
    "partId": 34280,
    "stateCode": "S29",
    "stateName": "Telangana",
    "districtCode": "S2930",
    "districtName": "Bhadradri",
    "acNumber": 118,
    "acName": "Aswaraopeta",
    "partNumber": 126,
    "partName": "Patwarigudem",
    "lat": 17.3470702,
    "lon": 80.9578657
  },
  {
    "partId": 34375,
    "stateCode": "S29",
    "stateName": "Telangana",
    "districtCode": "S2930",
    "districtName": "Bhadradri",
    "acNumber": 118,
    "acName": "Aswaraopeta",
    "partNumber": 127,
    "partName": "Patwarigudem",
    "lat": 17.3470702,
    "lon": 80.9578657
  },
  {
    "partId": 34281,
    "stateCode": "S29",
    "stateName": "Telangana",
    "districtCode": "S2930",
    "districtName": "Bhadradri",
    "acNumber": 118,
    "acName": "Aswaraopeta",
    "partNumber": 128,
    "partName": "Jaggaram",
    "lat": 17.3526244,
    "lon": 80.9392285
  },
  {
    "partId": 34282,
    "stateCode": "S29",
    "stateName": "Telangana",
    "districtCode": "S2930",
    "districtName": "Bhadradri",
    "acNumber": 118,
    "acName": "Aswaraopeta",
    "partNumber": 129,
    "partName": "Thatimallagumpu",
    "lat": 17.37129445,
    "lon": 81.17189403536545
  },
  {
    "partId": 34283,
    "stateCode": "S29",
    "stateName": "Telangana",
    "districtCode": "S2930",
    "districtName": "Bhadradri",
    "acNumber": 118,
    "acName": "Aswaraopeta",
    "partNumber": 130,
    "partName": "Ankampalem",
    "lat": 17.3749637,
    "lon": 80.9638747
  },
  {
    "partId": 34376,
    "stateCode": "S29",
    "stateName": "Telangana",
    "districtCode": "S2930",
    "districtName": "Bhadradri",
    "acNumber": 118,
    "acName": "Aswaraopeta",
    "partNumber": 131,
    "partName": "Arlapenta H/O Ankampalem",
    "lat": 17.37129445,
    "lon": 81.17189403536545
  },
  {
    "partId": 34377,
    "stateCode": "S29",
    "stateName": "Telangana",
    "districtCode": "S2930",
    "districtName": "Bhadradri",
    "acNumber": 118,
    "acName": "Aswaraopeta",
    "partNumber": 132,
    "partName": "Parkalagandi",
    "lat": 17.3541161,
    "lon": 80.9833956
  },
  {
    "partId": 34284,
    "stateCode": "S29",
    "stateName": "Telangana",
    "districtCode": "S2930",
    "districtName": "Bhadradri",
    "acNumber": 118,
    "acName": "Aswaraopeta",
    "partNumber": 133,
    "partName": "Parkalagandi",
    "lat": 17.3541161,
    "lon": 80.9833956
  },
  {
    "partId": 34285,
    "stateCode": "S29",
    "stateName": "Telangana",
    "districtCode": "S2930",
    "districtName": "Bhadradri",
    "acNumber": 118,
    "acName": "Aswaraopeta",
    "partNumber": 134,
    "partName": "Reddygudem H/O Thirumalakunta",
    "lat": 17.37129445,
    "lon": 81.17189403536545
  },
  {
    "partId": 34286,
    "stateCode": "S29",
    "stateName": "Telangana",
    "districtCode": "S2930",
    "districtName": "Bhadradri",
    "acNumber": 118,
    "acName": "Aswaraopeta",
    "partNumber": 135,
    "partName": "Thirumalakunta",
    "lat": 17.4080007,
    "lon": 81.0423248
  },
  {
    "partId": 34378,
    "stateCode": "S29",
    "stateName": "Telangana",
    "districtCode": "S2930",
    "districtName": "Bhadradri",
    "acNumber": 118,
    "acName": "Aswaraopeta",
    "partNumber": 136,
    "partName": "Thirumalakunta",
    "lat": 17.4080007,
    "lon": 81.0423248
  },
  {
    "partId": 34287,
    "stateCode": "S29",
    "stateName": "Telangana",
    "districtCode": "S2930",
    "districtName": "Bhadradri",
    "acNumber": 118,
    "acName": "Aswaraopeta",
    "partNumber": 137,
    "partName": "Kotha Mamillavarigudem",
    "lat": 17.37129445,
    "lon": 81.17189403536545
  },
  {
    "partId": 34379,
    "stateCode": "S29",
    "stateName": "Telangana",
    "districtCode": "S2930",
    "districtName": "Bhadradri",
    "acNumber": 118,
    "acName": "Aswaraopeta",
    "partNumber": 138,
    "partName": "Kotha Mamillavarigudem",
    "lat": 17.37129445,
    "lon": 81.17189403536545
  },
  {
    "partId": 34288,
    "stateCode": "S29",
    "stateName": "Telangana",
    "districtCode": "S2930",
    "districtName": "Bhadradri",
    "acNumber": 118,
    "acName": "Aswaraopeta",
    "partNumber": 139,
    "partName": "Duradapadu",
    "lat": 17.2889343,
    "lon": 80.9242177
  },
  {
    "partId": 34380,
    "stateCode": "S29",
    "stateName": "Telangana",
    "districtCode": "S2930",
    "districtName": "Bhadradri",
    "acNumber": 118,
    "acName": "Aswaraopeta",
    "partNumber": 140,
    "partName": "Nandipadu",
    "lat": 17.4552288,
    "lon": 81.1288614
  },
  {
    "partId": 34289,
    "stateCode": "S29",
    "stateName": "Telangana",
    "districtCode": "S2930",
    "districtName": "Bhadradri",
    "acNumber": 118,
    "acName": "Aswaraopeta",
    "partNumber": 141,
    "partName": "Gummadivalli",
    "lat": 17.394334982485876,
    "lon": 81.00745433122167
  },
  {
    "partId": 34381,
    "stateCode": "S29",
    "stateName": "Telangana",
    "districtCode": "S2930",
    "districtName": "Bhadradri",
    "acNumber": 118,
    "acName": "Aswaraopeta",
    "partNumber": 142,
    "partName": "Kothuru",
    "lat": 17.8481753,
    "lon": 80.9727907
  },
  {
    "partId": 34290,
    "stateCode": "S29",
    "stateName": "Telangana",
    "districtCode": "S2930",
    "districtName": "Bhadradri",
    "acNumber": 118,
    "acName": "Aswaraopeta",
    "partNumber": 143,
    "partName": "Vadde Rangapuram",
    "lat": 17.37129445,
    "lon": 81.17189403536545
  },
  {
    "partId": 34382,
    "stateCode": "S29",
    "stateName": "Telangana",
    "districtCode": "S2930",
    "districtName": "Bhadradri",
    "acNumber": 118,
    "acName": "Aswaraopeta",
    "partNumber": 144,
    "partName": "Asupaka",
    "lat": 17.3878907,
    "lon": 81.1123496
  },
  {
    "partId": 34383,
    "stateCode": "S29",
    "stateName": "Telangana",
    "districtCode": "S2930",
    "districtName": "Bhadradri",
    "acNumber": 118,
    "acName": "Aswaraopeta",
    "partNumber": 145,
    "partName": "Asupaka",
    "lat": 17.3878907,
    "lon": 81.1123496
  },
  {
    "partId": 34384,
    "stateCode": "S29",
    "stateName": "Telangana",
    "districtCode": "S2930",
    "districtName": "Bhadradri",
    "acNumber": 118,
    "acName": "Aswaraopeta",
    "partNumber": 146,
    "partName": "Vinayakapuram",
    "lat": 17.3594293,
    "lon": 81.1165685
  },
  {
    "partId": 34291,
    "stateCode": "S29",
    "stateName": "Telangana",
    "districtCode": "S2930",
    "districtName": "Bhadradri",
    "acNumber": 118,
    "acName": "Aswaraopeta",
    "partNumber": 147,
    "partName": "Vinayakapuram",
    "lat": 17.3594293,
    "lon": 81.1165685
  },
  {
    "partId": 34292,
    "stateCode": "S29",
    "stateName": "Telangana",
    "districtCode": "S2930",
    "districtName": "Bhadradri",
    "acNumber": 118,
    "acName": "Aswaraopeta",
    "partNumber": 148,
    "partName": "Jammigudem",
    "lat": 17.394334982485876,
    "lon": 81.00745433122167
  },
  {
    "partId": 34293,
    "stateCode": "S29",
    "stateName": "Telangana",
    "districtCode": "S2930",
    "districtName": "Bhadradri",
    "acNumber": 118,
    "acName": "Aswaraopeta",
    "partNumber": 149,
    "partName": "Jammigudem",
    "lat": 17.3030121,
    "lon": 81.0796339
  },
  {
    "partId": 34385,
    "stateCode": "S29",
    "stateName": "Telangana",
    "districtCode": "S2930",
    "districtName": "Bhadradri",
    "acNumber": 118,
    "acName": "Aswaraopeta",
    "partNumber": 150,
    "partName": "Achuthapuram",
    "lat": 17.8343533,
    "lon": 80.9060073
  },
  {
    "partId": 34386,
    "stateCode": "S29",
    "stateName": "Telangana",
    "districtCode": "S2930",
    "districtName": "Bhadradri",
    "acNumber": 118,
    "acName": "Aswaraopeta",
    "partNumber": 151,
    "partName": "Achyuthapuram",
    "lat": 17.37129445,
    "lon": 81.17189403536545
  },
  {
    "partId": 34387,
    "stateCode": "S29",
    "stateName": "Telangana",
    "districtCode": "S2930",
    "districtName": "Bhadradri",
    "acNumber": 118,
    "acName": "Aswaraopeta",
    "partNumber": 152,
    "partName": "Naramvarigudem",
    "lat": 17.2616357,
    "lon": 81.0834181
  },
  {
    "partId": 34294,
    "stateCode": "S29",
    "stateName": "Telangana",
    "districtCode": "S2930",
    "districtName": "Bhadradri",
    "acNumber": 118,
    "acName": "Aswaraopeta",
    "partNumber": 153,
    "partName": "Naramvarigudem Colony",
    "lat": 17.2500707,
    "lon": 81.0820519
  },
  {
    "partId": 34388,
    "stateCode": "S29",
    "stateName": "Telangana",
    "districtCode": "S2930",
    "districtName": "Bhadradri",
    "acNumber": 118,
    "acName": "Aswaraopeta",
    "partNumber": 154,
    "partName": "Kotha Naramvarigudem",
    "lat": 17.269993,
    "lon": 81.0728577
  },
  {
    "partId": 34295,
    "stateCode": "S29",
    "stateName": "Telangana",
    "districtCode": "S2930",
    "districtName": "Bhadradri",
    "acNumber": 118,
    "acName": "Aswaraopeta",
    "partNumber": 155,
    "partName": "Aswaraopeta",
    "lat": 17.37129445,
    "lon": 81.17189403536545
  },
  {
    "partId": 34389,
    "stateCode": "S29",
    "stateName": "Telangana",
    "districtCode": "S2930",
    "districtName": "Bhadradri",
    "acNumber": 118,
    "acName": "Aswaraopeta",
    "partNumber": 156,
    "partName": "Aswaraopeta",
    "lat": 17.37129445,
    "lon": 81.17189403536545
  },
  {
    "partId": 34296,
    "stateCode": "S29",
    "stateName": "Telangana",
    "districtCode": "S2930",
    "districtName": "Bhadradri",
    "acNumber": 118,
    "acName": "Aswaraopeta",
    "partNumber": 157,
    "partName": "Aswaraopeta",
    "lat": 17.37129445,
    "lon": 81.17189403536545
  },
  {
    "partId": 34297,
    "stateCode": "S29",
    "stateName": "Telangana",
    "districtCode": "S2930",
    "districtName": "Bhadradri",
    "acNumber": 118,
    "acName": "Aswaraopeta",
    "partNumber": 158,
    "partName": "Aswaraopeta",
    "lat": 17.37129445,
    "lon": 81.17189403536545
  },
  {
    "partId": 34298,
    "stateCode": "S29",
    "stateName": "Telangana",
    "districtCode": "S2930",
    "districtName": "Bhadradri",
    "acNumber": 118,
    "acName": "Aswaraopeta",
    "partNumber": 159,
    "partName": "Aswaraopeta",
    "lat": 17.37129445,
    "lon": 81.17189403536545
  },
  {
    "partId": 34390,
    "stateCode": "S29",
    "stateName": "Telangana",
    "districtCode": "S2930",
    "districtName": "Bhadradri",
    "acNumber": 118,
    "acName": "Aswaraopeta",
    "partNumber": 160,
    "partName": "Aswaraopeta",
    "lat": 17.37129445,
    "lon": 81.17189403536545
  },
  {
    "partId": 34391,
    "stateCode": "S29",
    "stateName": "Telangana",
    "districtCode": "S2930",
    "districtName": "Bhadradri",
    "acNumber": 118,
    "acName": "Aswaraopeta",
    "partNumber": 161,
    "partName": "Aswaraopeta",
    "lat": 17.37129445,
    "lon": 81.17189403536545
  },
  {
    "partId": 34299,
    "stateCode": "S29",
    "stateName": "Telangana",
    "districtCode": "S2930",
    "districtName": "Bhadradri",
    "acNumber": 118,
    "acName": "Aswaraopeta",
    "partNumber": 162,
    "partName": "Aswaraopeta",
    "lat": 17.37129445,
    "lon": 81.17189403536545
  },
  {
    "partId": 34300,
    "stateCode": "S29",
    "stateName": "Telangana",
    "districtCode": "S2930",
    "districtName": "Bhadradri",
    "acNumber": 118,
    "acName": "Aswaraopeta",
    "partNumber": 163,
    "partName": "Aswaraopeta",
    "lat": 17.394334982485876,
    "lon": 81.00745433122167
  },
  {
    "partId": 34301,
    "stateCode": "S29",
    "stateName": "Telangana",
    "districtCode": "S2930",
    "districtName": "Bhadradri",
    "acNumber": 118,
    "acName": "Aswaraopeta",
    "partNumber": 164,
    "partName": "Peraigudem H/O Aswaraopeta",
    "lat": 17.37129445,
    "lon": 81.17189403536545
  },
  {
    "partId": 34392,
    "stateCode": "S29",
    "stateName": "Telangana",
    "districtCode": "S2930",
    "districtName": "Bhadradri",
    "acNumber": 118,
    "acName": "Aswaraopeta",
    "partNumber": 165,
    "partName": "Peraigudem",
    "lat": 17.9385428,
    "lon": 80.9024785
  },
  {
    "partId": 34393,
    "stateCode": "S29",
    "stateName": "Telangana",
    "districtCode": "S2930",
    "districtName": "Bhadradri",
    "acNumber": 118,
    "acName": "Aswaraopeta",
    "partNumber": 166,
    "partName": "Aswaraopeta",
    "lat": 17.37129445,
    "lon": 81.17189403536545
  },
  {
    "partId": 34394,
    "stateCode": "S29",
    "stateName": "Telangana",
    "districtCode": "S2930",
    "districtName": "Bhadradri",
    "acNumber": 118,
    "acName": "Aswaraopeta",
    "partNumber": 167,
    "partName": "Aswaraopeta",
    "lat": 17.37129445,
    "lon": 81.17189403536545
  },
  {
    "partId": 34302,
    "stateCode": "S29",
    "stateName": "Telangana",
    "districtCode": "S2930",
    "districtName": "Bhadradri",
    "acNumber": 118,
    "acName": "Aswaraopeta",
    "partNumber": 168,
    "partName": "Aswaraopeta",
    "lat": 17.37129445,
    "lon": 81.17189403536545
  },
  {
    "partId": 34303,
    "stateCode": "S29",
    "stateName": "Telangana",
    "districtCode": "S2930",
    "districtName": "Bhadradri",
    "acNumber": 118,
    "acName": "Aswaraopeta",
    "partNumber": 169,
    "partName": "Aswaraopeta",
    "lat": 17.37129445,
    "lon": 81.17189403536545
  },
  {
    "partId": 34395,
    "stateCode": "S29",
    "stateName": "Telangana",
    "districtCode": "S2930",
    "districtName": "Bhadradri",
    "acNumber": 118,
    "acName": "Aswaraopeta",
    "partNumber": 170,
    "partName": "Gurralacheruvu",
    "lat": 17.2633292,
    "lon": 81.1102892
  },
  {
    "partId": 34212,
    "stateCode": "S29",
    "stateName": "Telangana",
    "districtCode": "S2930",
    "districtName": "Bhadradri",
    "acNumber": 118,
    "acName": "Aswaraopeta",
    "partNumber": 171,
    "partName": "Vootlapalli H/O Aswaraopeta",
    "lat": 17.37129445,
    "lon": 81.17189403536545
  },
  {
    "partId": 34214,
    "stateCode": "S29",
    "stateName": "Telangana",
    "districtCode": "S2930",
    "districtName": "Bhadradri",
    "acNumber": 118,
    "acName": "Aswaraopeta",
    "partNumber": 172,
    "partName": "Vootlapally",
    "lat": 17.37129445,
    "lon": 81.17189403536545
  },
  {
    "partId": 34304,
    "stateCode": "S29",
    "stateName": "Telangana",
    "districtCode": "S2930",
    "districtName": "Bhadradri",
    "acNumber": 118,
    "acName": "Aswaraopeta",
    "partNumber": 173,
    "partName": "Vagoddugudem",
    "lat": 17.3638872,
    "lon": 81.1166673
  },
  {
    "partId": 34305,
    "stateCode": "S29",
    "stateName": "Telangana",
    "districtCode": "S2930",
    "districtName": "Bhadradri",
    "acNumber": 118,
    "acName": "Aswaraopeta",
    "partNumber": 174,
    "partName": "Papidigudem",
    "lat": 17.37129445,
    "lon": 81.17189403536545
  },
  {
    "partId": 34306,
    "stateCode": "S29",
    "stateName": "Telangana",
    "districtCode": "S2930",
    "districtName": "Bhadradri",
    "acNumber": 118,
    "acName": "Aswaraopeta",
    "partNumber": 175,
    "partName": "Ramannagudem",
    "lat": 17.3149079,
    "lon": 81.1853666
  },
  {
    "partId": 34216,
    "stateCode": "S29",
    "stateName": "Telangana",
    "districtCode": "S2930",
    "districtName": "Bhadradri",
    "acNumber": 118,
    "acName": "Aswaraopeta",
    "partNumber": 176,
    "partName": "Mallaigudem H/O Narayanapuram",
    "lat": 17.37129445,
    "lon": 81.17189403536545
  },
  {
    "partId": 34218,
    "stateCode": "S29",
    "stateName": "Telangana",
    "districtCode": "S2930",
    "districtName": "Bhadradri",
    "acNumber": 118,
    "acName": "Aswaraopeta",
    "partNumber": 177,
    "partName": "Panduvarigudem H/O Narayanapuram",
    "lat": 17.394334982485876,
    "lon": 81.00745433122167
  },
  {
    "partId": 34220,
    "stateCode": "S29",
    "stateName": "Telangana",
    "districtCode": "S2930",
    "districtName": "Bhadradri",
    "acNumber": 118,
    "acName": "Aswaraopeta",
    "partNumber": 178,
    "partName": "Narayanapuram",
    "lat": 18.0198442,
    "lon": 80.6988065
  },
  {
    "partId": 34307,
    "stateCode": "S29",
    "stateName": "Telangana",
    "districtCode": "S2930",
    "districtName": "Bhadradri",
    "acNumber": 118,
    "acName": "Aswaraopeta",
    "partNumber": 179,
    "partName": "Narayanapuram",
    "lat": 18.0198442,
    "lon": 80.6988065
  },
  {
    "partId": 34308,
    "stateCode": "S29",
    "stateName": "Telangana",
    "districtCode": "S2930",
    "districtName": "Bhadradri",
    "acNumber": 118,
    "acName": "Aswaraopeta",
    "partNumber": 180,
    "partName": "Anantharam",
    "lat": 17.3603998,
    "lon": 81.1954369
  },
  {
    "partId": 34309,
    "stateCode": "S29",
    "stateName": "Telangana",
    "districtCode": "S2930",
    "districtName": "Bhadradri",
    "acNumber": 118,
    "acName": "Aswaraopeta",
    "partNumber": 181,
    "partName": "Gandlagudem",
    "lat": 17.3682028,
    "lon": 81.195315
  },
  {
    "partId": 34222,
    "stateCode": "S29",
    "stateName": "Telangana",
    "districtCode": "S2930",
    "districtName": "Bhadradri",
    "acNumber": 118,
    "acName": "Aswaraopeta",
    "partNumber": 182,
    "partName": "Kannaigudem",
    "lat": 17.3299718,
    "lon": 81.2404399
  },
  {
    "partId": 34224,
    "stateCode": "S29",
    "stateName": "Telangana",
    "districtCode": "S2930",
    "districtName": "Bhadradri",
    "acNumber": 118,
    "acName": "Aswaraopeta",
    "partNumber": 183,
    "partName": "Batchuvarigudem",
    "lat": 17.37129445,
    "lon": 81.17189403536545
  },
  {
    "partId": 34226,
    "stateCode": "S29",
    "stateName": "Telangana",
    "districtCode": "S2930",
    "districtName": "Bhadradri",
    "acNumber": 118,
    "acName": "Aswaraopeta",
    "partNumber": 184,
    "partName": "Kavadigundla",
    "lat": 17.3742121,
    "lon": 81.2623018
  },
  {
    "partId": 64889,
    "stateCode": "S29",
    "stateName": "Telangana",
    "districtCode": "S2930",
    "districtName": "Bhadradri",
    "acNumber": 119,
    "acName": "Bhadrachalam",
    "partNumber": 1,
    "partName": "Krishnapuram",
    "lat": 18.08432,
    "lon": 80.8241223
  },
  {
    "partId": 64890,
    "stateCode": "S29",
    "stateName": "Telangana",
    "districtCode": "S2930",
    "districtName": "Bhadradri",
    "acNumber": 119,
    "acName": "Bhadrachalam",
    "partNumber": 2,
    "partName": "Tekulagudem",
    "lat": 17.753565417836256,
    "lon": 80.84932877909198
  },
  {
    "partId": 64891,
    "stateCode": "S29",
    "stateName": "Telangana",
    "districtCode": "S2930",
    "districtName": "Bhadradri",
    "acNumber": 119,
    "acName": "Bhadrachalam",
    "partNumber": 3,
    "partName": "Peruru",
    "lat": 17.669105,
    "lon": 80.8932738
  },
  {
    "partId": 64802,
    "stateCode": "S29",
    "stateName": "Telangana",
    "districtCode": "S2930",
    "districtName": "Bhadradri",
    "acNumber": 119,
    "acName": "Bhadrachalam",
    "partNumber": 4,
    "partName": "Chinagollagudem",
    "lat": 17.669105,
    "lon": 80.8932738
  },
  {
    "partId": 64803,
    "stateCode": "S29",
    "stateName": "Telangana",
    "districtCode": "S2930",
    "districtName": "Bhadradri",
    "acNumber": 119,
    "acName": "Bhadrachalam",
    "partNumber": 5,
    "partName": "Chandrupatla",
    "lat": 17.753565417836256,
    "lon": 80.84932877909198
  },
  {
    "partId": 64804,
    "stateCode": "S29",
    "stateName": "Telangana",
    "districtCode": "S2930",
    "districtName": "Bhadradri",
    "acNumber": 119,
    "acName": "Bhadrachalam",
    "partNumber": 6,
    "partName": "Kotha Dharmavaram",
    "lat": 17.669105,
    "lon": 80.8932738
  },
  {
    "partId": 64892,
    "stateCode": "S29",
    "stateName": "Telangana",
    "districtCode": "S2930",
    "districtName": "Bhadradri",
    "acNumber": 119,
    "acName": "Bhadrachalam",
    "partNumber": 7,
    "partName": "Kotha Dharmavaram",
    "lat": 17.669105,
    "lon": 80.8932738
  },
  {
    "partId": 64893,
    "stateCode": "S29",
    "stateName": "Telangana",
    "districtCode": "S2930",
    "districtName": "Bhadradri",
    "acNumber": 119,
    "acName": "Bhadrachalam",
    "partNumber": 8,
    "partName": "Kotha Dharmavaram",
    "lat": 17.753565417836256,
    "lon": 80.84932877909198
  },
  {
    "partId": 64894,
    "stateCode": "S29",
    "stateName": "Telangana",
    "districtCode": "S2930",
    "districtName": "Bhadradri",
    "acNumber": 119,
    "acName": "Bhadrachalam",
    "partNumber": 9,
    "partName": "Laxmipuram",
    "lat": 17.7608149,
    "lon": 80.9127815
  },
  {
    "partId": 64805,
    "stateCode": "S29",
    "stateName": "Telangana",
    "districtCode": "S2930",
    "districtName": "Bhadradri",
    "acNumber": 119,
    "acName": "Bhadrachalam",
    "partNumber": 10,
    "partName": "Cherukuru",
    "lat": 17.669105,
    "lon": 80.8932738
  },
  {
    "partId": 64806,
    "stateCode": "S29",
    "stateName": "Telangana",
    "districtCode": "S2930",
    "districtName": "Bhadradri",
    "acNumber": 119,
    "acName": "Bhadrachalam",
    "partNumber": 11,
    "partName": "Chintoor",
    "lat": 17.669105,
    "lon": 80.8932738
  },
  {
    "partId": 64807,
    "stateCode": "S29",
    "stateName": "Telangana",
    "districtCode": "S2930",
    "districtName": "Bhadradri",
    "acNumber": 119,
    "acName": "Bhadrachalam",
    "partNumber": 12,
    "partName": "Pedagollagudem",
    "lat": 17.753565417836256,
    "lon": 80.84932877909198
  },
  {
    "partId": 64895,
    "stateCode": "S29",
    "stateName": "Telangana",
    "districtCode": "S2930",
    "districtName": "Bhadradri",
    "acNumber": 119,
    "acName": "Bhadrachalam",
    "partNumber": 13,
    "partName": "Gumadi Doddi",
    "lat": 17.669105,
    "lon": 80.8932738
  },
  {
    "partId": 64896,
    "stateCode": "S29",
    "stateName": "Telangana",
    "districtCode": "S2930",
    "districtName": "Bhadradri",
    "acNumber": 119,
    "acName": "Bhadrachalam",
    "partNumber": 14,
    "partName": "Gummadidoddi",
    "lat": 17.669105,
    "lon": 80.8932738
  },
  {
    "partId": 64897,
    "stateCode": "S29",
    "stateName": "Telangana",
    "districtCode": "S2930",
    "districtName": "Bhadradri",
    "acNumber": 119,
    "acName": "Bhadrachalam",
    "partNumber": 15,
    "partName": "Wazedu",
    "lat": 17.753565417836256,
    "lon": 80.84932877909198
  },
  {
    "partId": 64808,
    "stateCode": "S29",
    "stateName": "Telangana",
    "districtCode": "S2930",
    "districtName": "Bhadradri",
    "acNumber": 119,
    "acName": "Bhadrachalam",
    "partNumber": 16,
    "partName": "Wazedu",
    "lat": 17.669105,
    "lon": 80.8932738
  },
  {
    "partId": 64809,
    "stateCode": "S29",
    "stateName": "Telangana",
    "districtCode": "S2930",
    "districtName": "Bhadradri",
    "acNumber": 119,
    "acName": "Bhadrachalam",
    "partNumber": 17,
    "partName": "Jangalapalli",
    "lat": 17.7396409,
    "lon": 80.484224
  },
  {
    "partId": 64898,
    "stateCode": "S29",
    "stateName": "Telangana",
    "districtCode": "S2930",
    "districtName": "Bhadradri",
    "acNumber": 119,
    "acName": "Bhadrachalam",
    "partNumber": 18,
    "partName": "Jagannadhapuram",
    "lat": 17.6059504,
    "lon": 80.7503898
  },
  {
    "partId": 64899,
    "stateCode": "S29",
    "stateName": "Telangana",
    "districtCode": "S2930",
    "districtName": "Bhadradri",
    "acNumber": 119,
    "acName": "Bhadrachalam",
    "partNumber": 19,
    "partName": "Kongala",
    "lat": 17.753565417836256,
    "lon": 80.84932877909198
  },
  {
    "partId": 64900,
    "stateCode": "S29",
    "stateName": "Telangana",
    "districtCode": "S2930",
    "districtName": "Bhadradri",
    "acNumber": 119,
    "acName": "Bhadrachalam",
    "partNumber": 20,
    "partName": "Arunachala Puram",
    "lat": 17.669105,
    "lon": 80.8932738
  },
  {
    "partId": 64810,
    "stateCode": "S29",
    "stateName": "Telangana",
    "districtCode": "S2930",
    "districtName": "Bhadradri",
    "acNumber": 119,
    "acName": "Bhadrachalam",
    "partNumber": 21,
    "partName": "Poosuru",
    "lat": 17.669105,
    "lon": 80.8932738
  },
  {
    "partId": 64811,
    "stateCode": "S29",
    "stateName": "Telangana",
    "districtCode": "S2930",
    "districtName": "Bhadradri",
    "acNumber": 119,
    "acName": "Bhadrachalam",
    "partNumber": 22,
    "partName": "Pragallapalli",
    "lat": 17.669105,
    "lon": 80.8932738
  },
  {
    "partId": 64812,
    "stateCode": "S29",
    "stateName": "Telangana",
    "districtCode": "S2930",
    "districtName": "Bhadradri",
    "acNumber": 119,
    "acName": "Bhadrachalam",
    "partNumber": 23,
    "partName": "Aruguntapalli",
    "lat": 17.669105,
    "lon": 80.8932738
  },
  {
    "partId": 64901,
    "stateCode": "S29",
    "stateName": "Telangana",
    "districtCode": "S2930",
    "districtName": "Bhadradri",
    "acNumber": 119,
    "acName": "Bhadrachalam",
    "partNumber": 24,
    "partName": "Murumuru",
    "lat": 17.753565417836256,
    "lon": 80.84932877909198
  },
  {
    "partId": 64902,
    "stateCode": "S29",
    "stateName": "Telangana",
    "districtCode": "S2930",
    "districtName": "Bhadradri",
    "acNumber": 119,
    "acName": "Bhadrachalam",
    "partNumber": 25,
    "partName": "Yedjerlappalli",
    "lat": 17.669105,
    "lon": 80.8932738
  },
  {
    "partId": 64813,
    "stateCode": "S29",
    "stateName": "Telangana",
    "districtCode": "S2930",
    "districtName": "Bhadradri",
    "acNumber": 119,
    "acName": "Bhadrachalam",
    "partNumber": 26,
    "partName": "Bomnapalli",
    "lat": 17.669105,
    "lon": 80.8932738
  },
  {
    "partId": 64814,
    "stateCode": "S29",
    "stateName": "Telangana",
    "districtCode": "S2930",
    "districtName": "Bhadradri",
    "acNumber": 119,
    "acName": "Bhadrachalam",
    "partNumber": 27,
    "partName": "Edjarlapalli",
    "lat": 17.669105,
    "lon": 80.8932738
  },
  {
    "partId": 64815,
    "stateCode": "S29",
    "stateName": "Telangana",
    "districtCode": "S2930",
    "districtName": "Bhadradri",
    "acNumber": 119,
    "acName": "Bhadrachalam",
    "partNumber": 28,
    "partName": "Chiruthapalli",
    "lat": 17.71666325,
    "lon": 80.57126094455612
  },
  {
    "partId": 64903,
    "stateCode": "S29",
    "stateName": "Telangana",
    "districtCode": "S2930",
    "districtName": "Bhadradri",
    "acNumber": 119,
    "acName": "Bhadrachalam",
    "partNumber": 29,
    "partName": "Mahithapuram",
    "lat": 17.669105,
    "lon": 80.8932738
  },
  {
    "partId": 64816,
    "stateCode": "S29",
    "stateName": "Telangana",
    "districtCode": "S2930",
    "districtName": "Bhadradri",
    "acNumber": 119,
    "acName": "Bhadrachalam",
    "partNumber": 30,
    "partName": "Venkatapuram",
    "lat": 18.0264266,
    "lon": 80.5593758
  },
  {
    "partId": 64904,
    "stateCode": "S29",
    "stateName": "Telangana",
    "districtCode": "S2930",
    "districtName": "Bhadradri",
    "acNumber": 119,
    "acName": "Bhadrachalam",
    "partNumber": 31,
    "partName": "Venkatapuram",
    "lat": 18.0264266,
    "lon": 80.5593758
  },
  {
    "partId": 64817,
    "stateCode": "S29",
    "stateName": "Telangana",
    "districtCode": "S2930",
    "districtName": "Bhadradri",
    "acNumber": 119,
    "acName": "Bhadrachalam",
    "partNumber": 32,
    "partName": "Marrigudem",
    "lat": 17.3739477,
    "lon": 81.0759314
  },
  {
    "partId": 64905,
    "stateCode": "S29",
    "stateName": "Telangana",
    "districtCode": "S2930",
    "districtName": "Bhadradri",
    "acNumber": 119,
    "acName": "Bhadrachalam",
    "partNumber": 33,
    "partName": "Venkatapuram",
    "lat": 18.0264266,
    "lon": 80.5593758
  },
  {
    "partId": 64906,
    "stateCode": "S29",
    "stateName": "Telangana",
    "districtCode": "S2930",
    "districtName": "Bhadradri",
    "acNumber": 119,
    "acName": "Bhadrachalam",
    "partNumber": 34,
    "partName": "Venkatapuram",
    "lat": 18.0264266,
    "lon": 80.5593758
  },
  {
    "partId": 64907,
    "stateCode": "S29",
    "stateName": "Telangana",
    "districtCode": "S2930",
    "districtName": "Bhadradri",
    "acNumber": 119,
    "acName": "Bhadrachalam",
    "partNumber": 35,
    "partName": "Venkatapuram",
    "lat": 17.753565417836256,
    "lon": 80.84932877909198
  },
  {
    "partId": 64818,
    "stateCode": "S29",
    "stateName": "Telangana",
    "districtCode": "S2930",
    "districtName": "Bhadradri",
    "acNumber": 119,
    "acName": "Bhadrachalam",
    "partNumber": 36,
    "partName": "Venkatapuram",
    "lat": 18.0264266,
    "lon": 80.5593758
  },
  {
    "partId": 64819,
    "stateCode": "S29",
    "stateName": "Telangana",
    "districtCode": "S2930",
    "districtName": "Bhadradri",
    "acNumber": 119,
    "acName": "Bhadrachalam",
    "partNumber": 37,
    "partName": "Laxminagaram",
    "lat": 17.8447825,
    "lon": 80.8980967
  },
  {
    "partId": 64820,
    "stateCode": "S29",
    "stateName": "Telangana",
    "districtCode": "S2930",
    "districtName": "Bhadradri",
    "acNumber": 119,
    "acName": "Bhadrachalam",
    "partNumber": 38,
    "partName": "Vadagudem",
    "lat": 17.669105,
    "lon": 80.8932738
  },
  {
    "partId": 64908,
    "stateCode": "S29",
    "stateName": "Telangana",
    "districtCode": "S2930",
    "districtName": "Bhadradri",
    "acNumber": 119,
    "acName": "Bhadrachalam",
    "partNumber": 39,
    "partName": "Kammarigudem",
    "lat": 17.6235613,
    "lon": 80.7429571
  },
  {
    "partId": 64909,
    "stateCode": "S29",
    "stateName": "Telangana",
    "districtCode": "S2930",
    "districtName": "Bhadradri",
    "acNumber": 119,
    "acName": "Bhadrachalam",
    "partNumber": 40,
    "partName": "Rangarajapuram",
    "lat": 17.669105,
    "lon": 80.8932738
  },
  {
    "partId": 64910,
    "stateCode": "S29",
    "stateName": "Telangana",
    "districtCode": "S2930",
    "districtName": "Bhadradri",
    "acNumber": 119,
    "acName": "Bhadrachalam",
    "partNumber": 41,
    "partName": "Nuguru(Z)",
    "lat": 17.669105,
    "lon": 80.8932738
  },
  {
    "partId": 64821,
    "stateCode": "S29",
    "stateName": "Telangana",
    "districtCode": "S2930",
    "districtName": "Bhadradri",
    "acNumber": 119,
    "acName": "Bhadrachalam",
    "partNumber": 42,
    "partName": "Rangarajapuram",
    "lat": 17.669105,
    "lon": 80.8932738
  },
  {
    "partId": 64822,
    "stateCode": "S29",
    "stateName": "Telangana",
    "districtCode": "S2930",
    "districtName": "Bhadradri",
    "acNumber": 119,
    "acName": "Bhadrachalam",
    "partNumber": 43,
    "partName": "Uppedu",
    "lat": 17.669105,
    "lon": 80.8932738
  },
  {
    "partId": 64823,
    "stateCode": "S29",
    "stateName": "Telangana",
    "districtCode": "S2930",
    "districtName": "Bhadradri",
    "acNumber": 119,
    "acName": "Bhadrachalam",
    "partNumber": 44,
    "partName": "Vara Ramakrishnapuram",
    "lat": 17.669105,
    "lon": 80.8932738
  },
  {
    "partId": 64911,
    "stateCode": "S29",
    "stateName": "Telangana",
    "districtCode": "S2930",
    "districtName": "Bhadradri",
    "acNumber": 119,
    "acName": "Bhadrachalam",
    "partNumber": 45,
    "partName": "Tekull Boru",
    "lat": 17.71666325,
    "lon": 80.57126094455612
  },
  {
    "partId": 64912,
    "stateCode": "S29",
    "stateName": "Telangana",
    "districtCode": "S2930",
    "districtName": "Bhadradri",
    "acNumber": 119,
    "acName": "Bhadrachalam",
    "partNumber": 46,
    "partName": "Rachapalli",
    "lat": 17.669105,
    "lon": 80.8932738
  },
  {
    "partId": 64913,
    "stateCode": "S29",
    "stateName": "Telangana",
    "districtCode": "S2930",
    "districtName": "Bhadradri",
    "acNumber": 119,
    "acName": "Bhadrachalam",
    "partNumber": 47,
    "partName": "Paathra Puram",
    "lat": 17.669105,
    "lon": 80.8932738
  },
  {
    "partId": 64824,
    "stateCode": "S29",
    "stateName": "Telangana",
    "districtCode": "S2930",
    "districtName": "Bhadradri",
    "acNumber": 119,
    "acName": "Bhadrachalam",
    "partNumber": 48,
    "partName": "pathrapuram",
    "lat": 17.669105,
    "lon": 80.8932738
  },
  {
    "partId": 64825,
    "stateCode": "S29",
    "stateName": "Telangana",
    "districtCode": "S2930",
    "districtName": "Bhadradri",
    "acNumber": 119,
    "acName": "Bhadrachalam",
    "partNumber": 49,
    "partName": "Veerabhadravaram",
    "lat": 17.669105,
    "lon": 80.8932738
  },
  {
    "partId": 64826,
    "stateCode": "S29",
    "stateName": "Telangana",
    "districtCode": "S2930",
    "districtName": "Bhadradri",
    "acNumber": 119,
    "acName": "Bhadrachalam",
    "partNumber": 50,
    "partName": "Ramachandrapuram",
    "lat": 17.873579,
    "lon": 80.9144284
  },
  {
    "partId": 64827,
    "stateCode": "S29",
    "stateName": "Telangana",
    "districtCode": "S2930",
    "districtName": "Bhadradri",
    "acNumber": 119,
    "acName": "Bhadrachalam",
    "partNumber": 51,
    "partName": "Morravanigudem",
    "lat": 17.71666325,
    "lon": 80.57126094455612
  },
  {
    "partId": 64914,
    "stateCode": "S29",
    "stateName": "Telangana",
    "districtCode": "S2930",
    "districtName": "Bhadradri",
    "acNumber": 119,
    "acName": "Bhadrachalam",
    "partNumber": 52,
    "partName": "Alubaka",
    "lat": 17.669105,
    "lon": 80.8932738
  },
  {
    "partId": 64915,
    "stateCode": "S29",
    "stateName": "Telangana",
    "districtCode": "S2930",
    "districtName": "Bhadradri",
    "acNumber": 119,
    "acName": "Bhadrachalam",
    "partNumber": 53,
    "partName": "Alubaka",
    "lat": 17.669105,
    "lon": 80.8932738
  },
  {
    "partId": 64916,
    "stateCode": "S29",
    "stateName": "Telangana",
    "districtCode": "S2930",
    "districtName": "Bhadradri",
    "acNumber": 119,
    "acName": "Bhadrachalam",
    "partNumber": 54,
    "partName": "Alubaka",
    "lat": 17.669105,
    "lon": 80.8932738
  },
  {
    "partId": 64828,
    "stateCode": "S29",
    "stateName": "Telangana",
    "districtCode": "S2930",
    "districtName": "Bhadradri",
    "acNumber": 119,
    "acName": "Bhadrachalam",
    "partNumber": 55,
    "partName": "Alubaka",
    "lat": 17.669105,
    "lon": 80.8932738
  },
  {
    "partId": 64829,
    "stateCode": "S29",
    "stateName": "Telangana",
    "districtCode": "S2930",
    "districtName": "Bhadradri",
    "acNumber": 119,
    "acName": "Bhadrachalam",
    "partNumber": 56,
    "partName": "Suraveedu",
    "lat": 17.669105,
    "lon": 80.8932738
  },
  {
    "partId": 64830,
    "stateCode": "S29",
    "stateName": "Telangana",
    "districtCode": "S2930",
    "districtName": "Bhadradri",
    "acNumber": 119,
    "acName": "Bhadrachalam",
    "partNumber": 57,
    "partName": "Vijayapuri Colony H/O Suraveedu",
    "lat": 17.669105,
    "lon": 80.8932738
  },
  {
    "partId": 64917,
    "stateCode": "S29",
    "stateName": "Telangana",
    "districtCode": "S2930",
    "districtName": "Bhadradri",
    "acNumber": 119,
    "acName": "Bhadrachalam",
    "partNumber": 58,
    "partName": "K Kondapuram",
    "lat": 17.669105,
    "lon": 80.8932738
  },
  {
    "partId": 64831,
    "stateCode": "S29",
    "stateName": "Telangana",
    "districtCode": "S2930",
    "districtName": "Bhadradri",
    "acNumber": 119,
    "acName": "Bhadrachalam",
    "partNumber": 59,
    "partName": "Edira",
    "lat": 17.669105,
    "lon": 80.8932738
  },
  {
    "partId": 64918,
    "stateCode": "S29",
    "stateName": "Telangana",
    "districtCode": "S2930",
    "districtName": "Bhadradri",
    "acNumber": 119,
    "acName": "Bhadrachalam",
    "partNumber": 60,
    "partName": "Koyyuru",
    "lat": 18.0901182,
    "lon": 80.7983066
  },
  {
    "partId": 64832,
    "stateCode": "S29",
    "stateName": "Telangana",
    "districtCode": "S2930",
    "districtName": "Bhadradri",
    "acNumber": 119,
    "acName": "Bhadrachalam",
    "partNumber": 61,
    "partName": "Subbampeta",
    "lat": 18.0841139,
    "lon": 80.7951788
  },
  {
    "partId": 64919,
    "stateCode": "S29",
    "stateName": "Telangana",
    "districtCode": "S2930",
    "districtName": "Bhadradri",
    "acNumber": 119,
    "acName": "Bhadrachalam",
    "partNumber": 62,
    "partName": "Kothuru",
    "lat": 17.8481753,
    "lon": 80.9727907
  },
  {
    "partId": 64920,
    "stateCode": "S29",
    "stateName": "Telangana",
    "districtCode": "S2930",
    "districtName": "Bhadradri",
    "acNumber": 119,
    "acName": "Bhadrachalam",
    "partNumber": 63,
    "partName": "Upparigudem",
    "lat": 17.669105,
    "lon": 80.8932738
  },
  {
    "partId": 64921,
    "stateCode": "S29",
    "stateName": "Telangana",
    "districtCode": "S2930",
    "districtName": "Bhadradri",
    "acNumber": 119,
    "acName": "Bhadrachalam",
    "partNumber": 64,
    "partName": "Unjupalli",
    "lat": 17.669105,
    "lon": 80.8932738
  },
  {
    "partId": 64833,
    "stateCode": "S29",
    "stateName": "Telangana",
    "districtCode": "S2930",
    "districtName": "Bhadradri",
    "acNumber": 119,
    "acName": "Bhadrachalam",
    "partNumber": 65,
    "partName": "Cherla",
    "lat": 18.0740831,
    "lon": 80.8276601
  },
  {
    "partId": 64834,
    "stateCode": "S29",
    "stateName": "Telangana",
    "districtCode": "S2930",
    "districtName": "Bhadradri",
    "acNumber": 119,
    "acName": "Bhadrachalam",
    "partNumber": 66,
    "partName": "Charla",
    "lat": 18.0854396,
    "lon": 80.8351895
  },
  {
    "partId": 64922,
    "stateCode": "S29",
    "stateName": "Telangana",
    "districtCode": "S2930",
    "districtName": "Bhadradri",
    "acNumber": 119,
    "acName": "Bhadrachalam",
    "partNumber": 67,
    "partName": "Dosillapalli",
    "lat": 17.669105,
    "lon": 80.8932738
  },
  {
    "partId": 64923,
    "stateCode": "S29",
    "stateName": "Telangana",
    "districtCode": "S2930",
    "districtName": "Bhadradri",
    "acNumber": 119,
    "acName": "Bhadrachalam",
    "partNumber": 68,
    "partName": "Rallagudem",
    "lat": 17.9459074,
    "lon": 80.9013172
  },
  {
    "partId": 64924,
    "stateCode": "S29",
    "stateName": "Telangana",
    "districtCode": "S2930",
    "districtName": "Bhadradri",
    "acNumber": 119,
    "acName": "Bhadrachalam",
    "partNumber": 69,
    "partName": "Rice Peta",
    "lat": 17.669105,
    "lon": 80.8932738
  },
  {
    "partId": 64835,
    "stateCode": "S29",
    "stateName": "Telangana",
    "districtCode": "S2930",
    "districtName": "Bhadradri",
    "acNumber": 119,
    "acName": "Bhadrachalam",
    "partNumber": 70,
    "partName": "Charla",
    "lat": 18.0854396,
    "lon": 80.8351895
  },
  {
    "partId": 64925,
    "stateCode": "S29",
    "stateName": "Telangana",
    "districtCode": "S2930",
    "districtName": "Bhadradri",
    "acNumber": 119,
    "acName": "Bhadrachalam",
    "partNumber": 71,
    "partName": "Charla",
    "lat": 18.0854396,
    "lon": 80.8351895
  },
  {
    "partId": 64836,
    "stateCode": "S29",
    "stateName": "Telangana",
    "districtCode": "S2930",
    "districtName": "Bhadradri",
    "acNumber": 119,
    "acName": "Bhadrachalam",
    "partNumber": 72,
    "partName": "Charla",
    "lat": 18.0854396,
    "lon": 80.8351895
  },
  {
    "partId": 64926,
    "stateCode": "S29",
    "stateName": "Telangana",
    "districtCode": "S2930",
    "districtName": "Bhadradri",
    "acNumber": 119,
    "acName": "Bhadrachalam",
    "partNumber": 73,
    "partName": "Cherla",
    "lat": 18.0740831,
    "lon": 80.8276601
  },
  {
    "partId": 64837,
    "stateCode": "S29",
    "stateName": "Telangana",
    "districtCode": "S2930",
    "districtName": "Bhadradri",
    "acNumber": 119,
    "acName": "Bhadrachalam",
    "partNumber": 74,
    "partName": "Gompallli",
    "lat": 17.669105,
    "lon": 80.8932738
  },
  {
    "partId": 64838,
    "stateCode": "S29",
    "stateName": "Telangana",
    "districtCode": "S2930",
    "districtName": "Bhadradri",
    "acNumber": 119,
    "acName": "Bhadrachalam",
    "partNumber": 75,
    "partName": "Chintha Kunta",
    "lat": 17.669105,
    "lon": 80.8932738
  },
  {
    "partId": 64839,
    "stateCode": "S29",
    "stateName": "Telangana",
    "districtCode": "S2930",
    "districtName": "Bhadradri",
    "acNumber": 119,
    "acName": "Bhadrachalam",
    "partNumber": 76,
    "partName": "G.Puliboinapalli",
    "lat": 17.669105,
    "lon": 80.8932738
  },
  {
    "partId": 64927,
    "stateCode": "S29",
    "stateName": "Telangana",
    "districtCode": "S2930",
    "districtName": "Bhadradri",
    "acNumber": 119,
    "acName": "Bhadrachalam",
    "partNumber": 77,
    "partName": "Lingapuram",
    "lat": 17.9231014,
    "lon": 80.9617697
  },
  {
    "partId": 64928,
    "stateCode": "S29",
    "stateName": "Telangana",
    "districtCode": "S2930",
    "districtName": "Bhadradri",
    "acNumber": 119,
    "acName": "Bhadrachalam",
    "partNumber": 78,
    "partName": "Kothapalli",
    "lat": 17.7581862,
    "lon": 81.0488497
  },
  {
    "partId": 64929,
    "stateCode": "S29",
    "stateName": "Telangana",
    "districtCode": "S2930",
    "districtName": "Bhadradri",
    "acNumber": 119,
    "acName": "Bhadrachalam",
    "partNumber": 79,
    "partName": "Tegada",
    "lat": 18.036383,
    "lon": 80.8420104
  },
  {
    "partId": 64840,
    "stateCode": "S29",
    "stateName": "Telangana",
    "districtCode": "S2930",
    "districtName": "Bhadradri",
    "acNumber": 119,
    "acName": "Bhadrachalam",
    "partNumber": 80,
    "partName": "Kaliveru",
    "lat": 18.0232437,
    "lon": 80.8566294
  },
  {
    "partId": 64841,
    "stateCode": "S29",
    "stateName": "Telangana",
    "districtCode": "S2930",
    "districtName": "Bhadradri",
    "acNumber": 119,
    "acName": "Bhadrachalam",
    "partNumber": 81,
    "partName": "Tegeda",
    "lat": 17.669105,
    "lon": 80.8932738
  },
  {
    "partId": 64842,
    "stateCode": "S29",
    "stateName": "Telangana",
    "districtCode": "S2930",
    "districtName": "Bhadradri",
    "acNumber": 119,
    "acName": "Bhadrachalam",
    "partNumber": 82,
    "partName": "Pedamidisileru",
    "lat": 18.040614,
    "lon": 80.8492953
  },
  {
    "partId": 64843,
    "stateCode": "S29",
    "stateName": "Telangana",
    "districtCode": "S2930",
    "districtName": "Bhadradri",
    "acNumber": 119,
    "acName": "Bhadrachalam",
    "partNumber": 83,
    "partName": "Pedamidisileru",
    "lat": 18.040614,
    "lon": 80.8492953
  },
  {
    "partId": 64930,
    "stateCode": "S29",
    "stateName": "Telangana",
    "districtCode": "S2930",
    "districtName": "Bhadradri",
    "acNumber": 119,
    "acName": "Bhadrachalam",
    "partNumber": 84,
    "partName": "Thippapuram",
    "lat": 18.1215661,
    "lon": 80.8922386
  },
  {
    "partId": 64931,
    "stateCode": "S29",
    "stateName": "Telangana",
    "districtCode": "S2930",
    "districtName": "Bhadradri",
    "acNumber": 119,
    "acName": "Bhadrachalam",
    "partNumber": 85,
    "partName": "Danavaipeta",
    "lat": 18.0087319,
    "lon": 80.878013
  },
  {
    "partId": 64932,
    "stateCode": "S29",
    "stateName": "Telangana",
    "districtCode": "S2930",
    "districtName": "Bhadradri",
    "acNumber": 119,
    "acName": "Bhadrachalam",
    "partNumber": 86,
    "partName": "Gommugudem",
    "lat": 17.669105,
    "lon": 80.8932738
  },
  {
    "partId": 64844,
    "stateCode": "S29",
    "stateName": "Telangana",
    "districtCode": "S2930",
    "districtName": "Bhadradri",
    "acNumber": 119,
    "acName": "Bhadrachalam",
    "partNumber": 87,
    "partName": "Peddipalli",
    "lat": 17.9734724,
    "lon": 80.7738973
  },
  {
    "partId": 64845,
    "stateCode": "S29",
    "stateName": "Telangana",
    "districtCode": "S2930",
    "districtName": "Bhadradri",
    "acNumber": 119,
    "acName": "Bhadrachalam",
    "partNumber": 88,
    "partName": "Satyanarayana Puram",
    "lat": 17.6002036,
    "lon": 80.3291064
  },
  {
    "partId": 64846,
    "stateCode": "S29",
    "stateName": "Telangana",
    "districtCode": "S2930",
    "districtName": "Bhadradri",
    "acNumber": 119,
    "acName": "Bhadrachalam",
    "partNumber": 89,
    "partName": "R Kothagudem",
    "lat": 18.0062649,
    "lon": 80.8732569
  },
  {
    "partId": 64933,
    "stateCode": "S29",
    "stateName": "Telangana",
    "districtCode": "S2930",
    "districtName": "Bhadradri",
    "acNumber": 119,
    "acName": "Bhadrachalam",
    "partNumber": 90,
    "partName": "Danavaipeta",
    "lat": 18.0087319,
    "lon": 80.878013
  },
  {
    "partId": 64847,
    "stateCode": "S29",
    "stateName": "Telangana",
    "districtCode": "S2930",
    "districtName": "Bhadradri",
    "acNumber": 119,
    "acName": "Bhadrachalam",
    "partNumber": 91,
    "partName": "Kudunuru",
    "lat": 17.9881925,
    "lon": 80.8838318
  },
  {
    "partId": 64934,
    "stateCode": "S29",
    "stateName": "Telangana",
    "districtCode": "S2930",
    "districtName": "Bhadradri",
    "acNumber": 119,
    "acName": "Bhadrachalam",
    "partNumber": 92,
    "partName": "Chinthaguppa",
    "lat": 17.669105,
    "lon": 80.8932738
  },
  {
    "partId": 64848,
    "stateCode": "S29",
    "stateName": "Telangana",
    "districtCode": "S2930",
    "districtName": "Bhadradri",
    "acNumber": 119,
    "acName": "Bhadrachalam",
    "partNumber": 93,
    "partName": "Mamidigudem",
    "lat": 17.962099,
    "lon": 80.8942423
  },
  {
    "partId": 64935,
    "stateCode": "S29",
    "stateName": "Telangana",
    "districtCode": "S2930",
    "districtName": "Bhadradri",
    "acNumber": 119,
    "acName": "Bhadrachalam",
    "partNumber": 94,
    "partName": "Mamidigudem",
    "lat": 17.962099,
    "lon": 80.8942423
  },
  {
    "partId": 64936,
    "stateCode": "S29",
    "stateName": "Telangana",
    "districtCode": "S2930",
    "districtName": "Bhadradri",
    "acNumber": 119,
    "acName": "Bhadrachalam",
    "partNumber": 95,
    "partName": "Deverapalli",
    "lat": 17.669105,
    "lon": 80.8932738
  },
  {
    "partId": 64937,
    "stateCode": "S29",
    "stateName": "Telangana",
    "districtCode": "S2930",
    "districtName": "Bhadradri",
    "acNumber": 119,
    "acName": "Bhadrachalam",
    "partNumber": 96,
    "partName": "Sitanagaram",
    "lat": 17.9304872,
    "lon": 80.9059624
  },
  {
    "partId": 64849,
    "stateCode": "S29",
    "stateName": "Telangana",
    "districtCode": "S2930",
    "districtName": "Bhadradri",
    "acNumber": 119,
    "acName": "Bhadrachalam",
    "partNumber": 97,
    "partName": "Sitanagaram",
    "lat": 17.9304872,
    "lon": 80.9059624
  },
  {
    "partId": 64850,
    "stateCode": "S29",
    "stateName": "Telangana",
    "districtCode": "S2930",
    "districtName": "Bhadradri",
    "acNumber": 119,
    "acName": "Bhadrachalam",
    "partNumber": 98,
    "partName": "China Bandirevu",
    "lat": 17.669105,
    "lon": 80.8932738
  },
  {
    "partId": 64851,
    "stateCode": "S29",
    "stateName": "Telangana",
    "districtCode": "S2930",
    "districtName": "Bhadradri",
    "acNumber": 119,
    "acName": "Bhadrachalam",
    "partNumber": 99,
    "partName": "Peddabandirevu",
    "lat": 17.669105,
    "lon": 80.8932738
  },
  {
    "partId": 64938,
    "stateCode": "S29",
    "stateName": "Telangana",
    "districtCode": "S2930",
    "districtName": "Bhadradri",
    "acNumber": 119,
    "acName": "Bhadrachalam",
    "partNumber": 100,
    "partName": "Peda Nallaballi",
    "lat": 17.669105,
    "lon": 80.8932738
  },
  {
    "partId": 64939,
    "stateCode": "S29",
    "stateName": "Telangana",
    "districtCode": "S2930",
    "districtName": "Bhadradri",
    "acNumber": 119,
    "acName": "Bhadrachalam",
    "partNumber": 101,
    "partName": "K. Lakshmipuram",
    "lat": 17.9037589,
    "lon": 80.9423205
  },
  {
    "partId": 64940,
    "stateCode": "S29",
    "stateName": "Telangana",
    "districtCode": "S2930",
    "districtName": "Bhadradri",
    "acNumber": 119,
    "acName": "Bhadrachalam",
    "partNumber": 102,
    "partName": "Gowraram",
    "lat": 17.669105,
    "lon": 80.8932738
  },
  {
    "partId": 64852,
    "stateCode": "S29",
    "stateName": "Telangana",
    "districtCode": "S2930",
    "districtName": "Bhadradri",
    "acNumber": 119,
    "acName": "Bhadrachalam",
    "partNumber": 103,
    "partName": "Paidigudem",
    "lat": 17.9217769,
    "lon": 80.9832354
  },
  {
    "partId": 64853,
    "stateCode": "S29",
    "stateName": "Telangana",
    "districtCode": "S2930",
    "districtName": "Bhadradri",
    "acNumber": 119,
    "acName": "Bhadrachalam",
    "partNumber": 104,
    "partName": "Chinna Nalllaballi",
    "lat": 17.669105,
    "lon": 80.8932738
  },
  {
    "partId": 64854,
    "stateCode": "S29",
    "stateName": "Telangana",
    "districtCode": "S2930",
    "districtName": "Bhadradri",
    "acNumber": 119,
    "acName": "Bhadrachalam",
    "partNumber": 105,
    "partName": "Chinna Nallaballi",
    "lat": 17.669105,
    "lon": 80.8932738
  },
  {
    "partId": 64941,
    "stateCode": "S29",
    "stateName": "Telangana",
    "districtCode": "S2930",
    "districtName": "Bhadradri",
    "acNumber": 119,
    "acName": "Bhadrachalam",
    "partNumber": 106,
    "partName": "Kasinagaram",
    "lat": 17.71666325,
    "lon": 80.57126094455612
  },
  {
    "partId": 64942,
    "stateCode": "S29",
    "stateName": "Telangana",
    "districtCode": "S2930",
    "districtName": "Bhadradri",
    "acNumber": 119,
    "acName": "Bhadrachalam",
    "partNumber": 107,
    "partName": "Dummu Gudem",
    "lat": 17.71666325,
    "lon": 80.57126094455612
  },
  {
    "partId": 64943,
    "stateCode": "S29",
    "stateName": "Telangana",
    "districtCode": "S2930",
    "districtName": "Bhadradri",
    "acNumber": 119,
    "acName": "Bhadrachalam",
    "partNumber": 108,
    "partName": "Dummugudem",
    "lat": 17.84471695,
    "lon": 80.93790750094152
  },
  {
    "partId": 64855,
    "stateCode": "S29",
    "stateName": "Telangana",
    "districtCode": "S2930",
    "districtName": "Bhadradri",
    "acNumber": 119,
    "acName": "Bhadrachalam",
    "partNumber": 109,
    "partName": "K. Mulakapadu",
    "lat": 17.669105,
    "lon": 80.8932738
  },
  {
    "partId": 64856,
    "stateCode": "S29",
    "stateName": "Telangana",
    "districtCode": "S2930",
    "districtName": "Bhadradri",
    "acNumber": 119,
    "acName": "Bhadrachalam",
    "partNumber": 110,
    "partName": "Mahadevapuram",
    "lat": 17.8389732,
    "lon": 80.9235883
  },
  {
    "partId": 64857,
    "stateCode": "S29",
    "stateName": "Telangana",
    "districtCode": "S2930",
    "districtName": "Bhadradri",
    "acNumber": 119,
    "acName": "Bhadrachalam",
    "partNumber": 111,
    "partName": "Anju Baaka",
    "lat": 17.669105,
    "lon": 80.8932738
  },
  {
    "partId": 64858,
    "stateCode": "S29",
    "stateName": "Telangana",
    "districtCode": "S2930",
    "districtName": "Bhadradri",
    "acNumber": 119,
    "acName": "Bhadrachalam",
    "partNumber": 112,
    "partName": "Ramachandrapuram",
    "lat": 17.873579,
    "lon": 80.9144284
  },
  {
    "partId": 64944,
    "stateCode": "S29",
    "stateName": "Telangana",
    "districtCode": "S2930",
    "districtName": "Bhadradri",
    "acNumber": 119,
    "acName": "Bhadrachalam",
    "partNumber": 113,
    "partName": "Bairagulapadu",
    "lat": 17.669105,
    "lon": 80.8932738
  },
  {
    "partId": 64945,
    "stateCode": "S29",
    "stateName": "Telangana",
    "districtCode": "S2930",
    "districtName": "Bhadradri",
    "acNumber": 119,
    "acName": "Bhadrachalam",
    "partNumber": 114,
    "partName": "Lakshmi Nagaram",
    "lat": 17.669105,
    "lon": 80.8932738
  },
  {
    "partId": 64946,
    "stateCode": "S29",
    "stateName": "Telangana",
    "districtCode": "S2930",
    "districtName": "Bhadradri",
    "acNumber": 119,
    "acName": "Bhadrachalam",
    "partNumber": 115,
    "partName": "Achyuthapuram",
    "lat": 17.669105,
    "lon": 80.8932738
  },
  {
    "partId": 64947,
    "stateCode": "S29",
    "stateName": "Telangana",
    "districtCode": "S2930",
    "districtName": "Bhadradri",
    "acNumber": 119,
    "acName": "Bhadrachalam",
    "partNumber": 116,
    "partName": "Arlagudem",
    "lat": 17.8166574,
    "lon": 80.965071
  },
  {
    "partId": 64859,
    "stateCode": "S29",
    "stateName": "Telangana",
    "districtCode": "S2930",
    "districtName": "Bhadradri",
    "acNumber": 119,
    "acName": "Bhadrachalam",
    "partNumber": 117,
    "partName": "Arla Gudem",
    "lat": 17.669105,
    "lon": 80.8932738
  },
  {
    "partId": 64860,
    "stateCode": "S29",
    "stateName": "Telangana",
    "districtCode": "S2930",
    "districtName": "Bhadradri",
    "acNumber": 119,
    "acName": "Bhadrachalam",
    "partNumber": 118,
    "partName": "Arlagudem",
    "lat": 17.8166574,
    "lon": 80.965071
  },
  {
    "partId": 64861,
    "stateCode": "S29",
    "stateName": "Telangana",
    "districtCode": "S2930",
    "districtName": "Bhadradri",
    "acNumber": 119,
    "acName": "Bhadrachalam",
    "partNumber": 119,
    "partName": "Gangolu",
    "lat": 17.824268,
    "lon": 80.8944228
  },
  {
    "partId": 64948,
    "stateCode": "S29",
    "stateName": "Telangana",
    "districtCode": "S2930",
    "districtName": "Bhadradri",
    "acNumber": 119,
    "acName": "Bhadrachalam",
    "partNumber": 120,
    "partName": "D Kothagudem",
    "lat": 17.8230308,
    "lon": 80.933093
  },
  {
    "partId": 64949,
    "stateCode": "S29",
    "stateName": "Telangana",
    "districtCode": "S2930",
    "districtName": "Bhadradri",
    "acNumber": 119,
    "acName": "Bhadrachalam",
    "partNumber": 121,
    "partName": "Nadikudi",
    "lat": 17.8104417,
    "lon": 80.9085063
  },
  {
    "partId": 64950,
    "stateCode": "S29",
    "stateName": "Telangana",
    "districtCode": "S2930",
    "districtName": "Bhadradri",
    "acNumber": 119,
    "acName": "Bhadrachalam",
    "partNumber": 122,
    "partName": "Ramarao Peta",
    "lat": 17.7956065,
    "lon": 80.9055871
  },
  {
    "partId": 64862,
    "stateCode": "S29",
    "stateName": "Telangana",
    "districtCode": "S2930",
    "districtName": "Bhadradri",
    "acNumber": 119,
    "acName": "Bhadrachalam",
    "partNumber": 123,
    "partName": "Narasapuram",
    "lat": 17.71666325,
    "lon": 80.57126094455612
  },
  {
    "partId": 64863,
    "stateCode": "S29",
    "stateName": "Telangana",
    "districtCode": "S2930",
    "districtName": "Bhadradri",
    "acNumber": 119,
    "acName": "Bhadrachalam",
    "partNumber": 124,
    "partName": "W.L.Reguballi",
    "lat": 17.669105,
    "lon": 80.8932738
  },
  {
    "partId": 64864,
    "stateCode": "S29",
    "stateName": "Telangana",
    "districtCode": "S2930",
    "districtName": "Bhadradri",
    "acNumber": 119,
    "acName": "Bhadrachalam",
    "partNumber": 125,
    "partName": "Seetharampuram",
    "lat": 17.7906159,
    "lon": 80.8808896
  },
  {
    "partId": 64951,
    "stateCode": "S29",
    "stateName": "Telangana",
    "districtCode": "S2930",
    "districtName": "Bhadradri",
    "acNumber": 119,
    "acName": "Bhadrachalam",
    "partNumber": 126,
    "partName": "K. Maredu Bakaa",
    "lat": 17.71666325,
    "lon": 80.57126094455612
  },
  {
    "partId": 64952,
    "stateCode": "S29",
    "stateName": "Telangana",
    "districtCode": "S2930",
    "districtName": "Bhadradri",
    "acNumber": 119,
    "acName": "Bhadrachalam",
    "partNumber": 127,
    "partName": "Singavaram",
    "lat": 17.780132,
    "lon": 80.9411444
  },
  {
    "partId": 64953,
    "stateCode": "S29",
    "stateName": "Telangana",
    "districtCode": "S2930",
    "districtName": "Bhadradri",
    "acNumber": 119,
    "acName": "Bhadrachalam",
    "partNumber": 128,
    "partName": "Tuurubaaka",
    "lat": 17.669105,
    "lon": 80.8932738
  },
  {
    "partId": 64865,
    "stateCode": "S29",
    "stateName": "Telangana",
    "districtCode": "S2930",
    "districtName": "Bhadradri",
    "acNumber": 119,
    "acName": "Bhadrachalam",
    "partNumber": 129,
    "partName": "Bandarugudem",
    "lat": 17.9461936,
    "lon": 80.813318
  },
  {
    "partId": 64866,
    "stateCode": "S29",
    "stateName": "Telangana",
    "districtCode": "S2930",
    "districtName": "Bhadradri",
    "acNumber": 119,
    "acName": "Bhadrachalam",
    "partNumber": 130,
    "partName": "Kothapalli",
    "lat": 17.7581862,
    "lon": 81.0488497
  },
  {
    "partId": 64867,
    "stateCode": "S29",
    "stateName": "Telangana",
    "districtCode": "S2930",
    "districtName": "Bhadradri",
    "acNumber": 119,
    "acName": "Bhadrachalam",
    "partNumber": 131,
    "partName": "Kothapalli",
    "lat": 17.7581862,
    "lon": 81.0488497
  },
  {
    "partId": 64954,
    "stateCode": "S29",
    "stateName": "Telangana",
    "districtCode": "S2930",
    "districtName": "Bhadradri",
    "acNumber": 119,
    "acName": "Bhadrachalam",
    "partNumber": 132,
    "partName": "Maraigudem",
    "lat": 17.71666325,
    "lon": 80.57126094455612
  },
  {
    "partId": 64955,
    "stateCode": "S29",
    "stateName": "Telangana",
    "districtCode": "S2930",
    "districtName": "Bhadradri",
    "acNumber": 119,
    "acName": "Bhadrachalam",
    "partNumber": 133,
    "partName": "Ramachandrunipeta",
    "lat": 17.685845,
    "lon": 80.4335105
  },
  {
    "partId": 64956,
    "stateCode": "S29",
    "stateName": "Telangana",
    "districtCode": "S2930",
    "districtName": "Bhadradri",
    "acNumber": 119,
    "acName": "Bhadrachalam",
    "partNumber": 134,
    "partName": "Lachigudem",
    "lat": 17.71666325,
    "lon": 80.57126094455612
  },
  {
    "partId": 64868,
    "stateCode": "S29",
    "stateName": "Telangana",
    "districtCode": "S2930",
    "districtName": "Bhadradri",
    "acNumber": 119,
    "acName": "Bhadrachalam",
    "partNumber": 135,
    "partName": "Narayanaraopeta",
    "lat": 17.7849332,
    "lon": 80.9835707
  },
  {
    "partId": 64869,
    "stateCode": "S29",
    "stateName": "Telangana",
    "districtCode": "S2930",
    "districtName": "Bhadradri",
    "acNumber": 119,
    "acName": "Bhadrachalam",
    "partNumber": 136,
    "partName": "Bhadrachalam",
    "lat": 17.669105,
    "lon": 80.8932738
  },
  {
    "partId": 64870,
    "stateCode": "S29",
    "stateName": "Telangana",
    "districtCode": "S2930",
    "districtName": "Bhadradri",
    "acNumber": 119,
    "acName": "Bhadrachalam",
    "partNumber": 137,
    "partName": "Bhadrachalam",
    "lat": 17.669105,
    "lon": 80.8932738
  },
  {
    "partId": 64957,
    "stateCode": "S29",
    "stateName": "Telangana",
    "districtCode": "S2930",
    "districtName": "Bhadradri",
    "acNumber": 119,
    "acName": "Bhadrachalam",
    "partNumber": 138,
    "partName": "Bhadrachalam",
    "lat": 17.669105,
    "lon": 80.8932738
  },
  {
    "partId": 64958,
    "stateCode": "S29",
    "stateName": "Telangana",
    "districtCode": "S2930",
    "districtName": "Bhadradri",
    "acNumber": 119,
    "acName": "Bhadrachalam",
    "partNumber": 139,
    "partName": "Bhadrachalam",
    "lat": 17.669105,
    "lon": 80.8932738
  },
  {
    "partId": 64959,
    "stateCode": "S29",
    "stateName": "Telangana",
    "districtCode": "S2930",
    "districtName": "Bhadradri",
    "acNumber": 119,
    "acName": "Bhadrachalam",
    "partNumber": 140,
    "partName": "Bhadrachalam",
    "lat": 17.669105,
    "lon": 80.8932738
  },
  {
    "partId": 64871,
    "stateCode": "S29",
    "stateName": "Telangana",
    "districtCode": "S2930",
    "districtName": "Bhadradri",
    "acNumber": 119,
    "acName": "Bhadrachalam",
    "partNumber": 141,
    "partName": "Bhadrachalam",
    "lat": 17.669105,
    "lon": 80.8932738
  },
  {
    "partId": 64872,
    "stateCode": "S29",
    "stateName": "Telangana",
    "districtCode": "S2930",
    "districtName": "Bhadradri",
    "acNumber": 119,
    "acName": "Bhadrachalam",
    "partNumber": 142,
    "partName": "Bhadrachalam",
    "lat": 17.669105,
    "lon": 80.8932738
  },
  {
    "partId": 64873,
    "stateCode": "S29",
    "stateName": "Telangana",
    "districtCode": "S2930",
    "districtName": "Bhadradri",
    "acNumber": 119,
    "acName": "Bhadrachalam",
    "partNumber": 143,
    "partName": "Bhadrachalam",
    "lat": 17.669105,
    "lon": 80.8932738
  },
  {
    "partId": 64874,
    "stateCode": "S29",
    "stateName": "Telangana",
    "districtCode": "S2930",
    "districtName": "Bhadradri",
    "acNumber": 119,
    "acName": "Bhadrachalam",
    "partNumber": 144,
    "partName": "Bhadrachalam",
    "lat": 17.669105,
    "lon": 80.8932738
  },
  {
    "partId": 64960,
    "stateCode": "S29",
    "stateName": "Telangana",
    "districtCode": "S2930",
    "districtName": "Bhadradri",
    "acNumber": 119,
    "acName": "Bhadrachalam",
    "partNumber": 145,
    "partName": "Bhadrachalam",
    "lat": 17.669105,
    "lon": 80.8932738
  },
  {
    "partId": 64961,
    "stateCode": "S29",
    "stateName": "Telangana",
    "districtCode": "S2930",
    "districtName": "Bhadradri",
    "acNumber": 119,
    "acName": "Bhadrachalam",
    "partNumber": 146,
    "partName": "Bhadrachalam",
    "lat": 17.669105,
    "lon": 80.8932738
  },
  {
    "partId": 64962,
    "stateCode": "S29",
    "stateName": "Telangana",
    "districtCode": "S2930",
    "districtName": "Bhadradri",
    "acNumber": 119,
    "acName": "Bhadrachalam",
    "partNumber": 147,
    "partName": "Bhadrachalam",
    "lat": 17.669105,
    "lon": 80.8932738
  },
  {
    "partId": 64875,
    "stateCode": "S29",
    "stateName": "Telangana",
    "districtCode": "S2930",
    "districtName": "Bhadradri",
    "acNumber": 119,
    "acName": "Bhadrachalam",
    "partNumber": 148,
    "partName": "Bhadrachalam",
    "lat": 17.669105,
    "lon": 80.8932738
  },
  {
    "partId": 64963,
    "stateCode": "S29",
    "stateName": "Telangana",
    "districtCode": "S2930",
    "districtName": "Bhadradri",
    "acNumber": 119,
    "acName": "Bhadrachalam",
    "partNumber": 149,
    "partName": "Bhadrachalam",
    "lat": 17.669105,
    "lon": 80.8932738
  },
  {
    "partId": 64876,
    "stateCode": "S29",
    "stateName": "Telangana",
    "districtCode": "S2930",
    "districtName": "Bhadradri",
    "acNumber": 119,
    "acName": "Bhadrachalam",
    "partNumber": 150,
    "partName": "Bhadrachalam",
    "lat": 17.669105,
    "lon": 80.8932738
  },