[
  {
    "partId": 75914,
    "stateCode": "S29",
    "stateName": "Telangana",
    "districtCode": "S2912",
    "districtName": "Medak",
    "acNumber": 34,
    "acName": "Medak",
    "partNumber": 1,
    "partName": "Kompally",
    "lat": 18.0823869,
    "lon": 78.003997
  },
  {
    "partId": 76180,
    "stateCode": "S29",
    "stateName": "Telangana",
    "districtCode": "S2912",
    "districtName": "Medak",
    "acNumber": 34,
    "acName": "Medak",
    "partNumber": 2,
    "partName": "Cheekod",
    "lat": 18.0458792,
    "lon": 78.2651993
  },
  {
    "partId": 75916,
    "stateCode": "S29",
    "stateName": "Telangana",
    "districtCode": "S2912",
    "districtName": "Medak",
    "acNumber": 34,
    "acName": "Medak",
    "partNumber": 3,
    "partName": "Kotha Lingayipalli",
    "lat": 18.0458792,
    "lon": 78.2651993
  },
  {
    "partId": 76181,
    "stateCode": "S29",
    "stateName": "Telangana",
    "districtCode": "S2912",
    "districtName": "Medak",
    "acNumber": 34,
    "acName": "Medak",
    "partNumber": 4,
    "partName": "Patha Lingayipally",
    "lat": 18.0458792,
    "lon": 78.2651993
  },
  {
    "partId": 75918,
    "stateCode": "S29",
    "stateName": "Telangana",
    "districtCode": "S2912",
    "districtName": "Medak",
    "acNumber": 34,
    "acName": "Medak",
    "partNumber": 5,
    "partName": "Amriya Tanda",
    "lat": 18.0458792,
    "lon": 78.2651993
  },
  {
    "partId": 76182,
    "stateCode": "S29",
    "stateName": "Telangana",
    "districtCode": "S2912",
    "districtName": "Medak",
    "acNumber": 34,
    "acName": "Medak",
    "partNumber": 6,
    "partName": "Mallampet",
    "lat": 18.0633342,
    "lon": 78.047084
  },
  {
    "partId": 75920,
    "stateCode": "S29",
    "stateName": "Telangana",
    "districtCode": "S2912",
    "districtName": "Medak",
    "acNumber": 34,
    "acName": "Medak",
    "partNumber": 7,
    "partName": "Mallampet",
    "lat": 18.0633342,
    "lon": 78.047084
  },
  {
    "partId": 76183,
    "stateCode": "S29",
    "stateName": "Telangana",
    "districtCode": "S2912",
    "districtName": "Medak",
    "acNumber": 34,
    "acName": "Medak",
    "partNumber": 8,
    "partName": "Kandipally",
    "lat": 18.0458792,
    "lon": 78.2651993
  },
  {
    "partId": 75922,
    "stateCode": "S29",
    "stateName": "Telangana",
    "districtCode": "S2912",
    "districtName": "Medak",
    "acNumber": 34,
    "acName": "Medak",
    "partNumber": 9,
    "partName": "Ramathirtham",
    "lat": 18.0621328,
    "lon": 78.0759554
  },
  {
    "partId": 76184,
    "stateCode": "S29",
    "stateName": "Telangana",
    "districtCode": "S2912",
    "districtName": "Medak",
    "acNumber": 34,
    "acName": "Medak",
    "partNumber": 10,
    "partName": "Narsingraopally Thanda",
    "lat": 18.0458792,
    "lon": 78.2651993
  },
  {
    "partId": 75924,
    "stateCode": "S29",
    "stateName": "Telangana",
    "districtCode": "S2912",
    "districtName": "Medak",
    "acNumber": 34,
    "acName": "Medak",
    "partNumber": 11,
    "partName": "Arkela",
    "lat": 18.0273174,
    "lon": 78.0626117
  },
  {
    "partId": 76185,
    "stateCode": "S29",
    "stateName": "Telangana",
    "districtCode": "S2912",
    "districtName": "Medak",
    "acNumber": 34,
    "acName": "Medak",
    "partNumber": 12,
    "partName": "Thammaipally",
    "lat": 18.0376917,
    "lon": 78.0643769
  },
  {
    "partId": 75926,
    "stateCode": "S29",
    "stateName": "Telangana",
    "districtCode": "S2912",
    "districtName": "Medak",
    "acNumber": 34,
    "acName": "Medak",
    "partNumber": 13,
    "partName": "Dakya Thanda",
    "lat": 18.0204329,
    "lon": 78.0390076
  },
  {
    "partId": 76572,
    "stateCode": "S29",
    "stateName": "Telangana",
    "districtCode": "S2912",
    "districtName": "Medak",
    "acNumber": 34,
    "acName": "Medak",
    "partNumber": 14,
    "partName": "Rajya thanda",
    "lat": 18.0068988,
    "lon": 78.4307795
  },
  {
    "partId": 76186,
    "stateCode": "S29",
    "stateName": "Telangana",
    "districtCode": "S2912",
    "districtName": "Medak",
    "acNumber": 34,
    "acName": "Medak",
    "partNumber": 15,
    "partName": "Narsingi",
    "lat": 18.0440017,
    "lon": 78.4261317
  },
  {
    "partId": 76187,
    "stateCode": "S29",
    "stateName": "Telangana",
    "districtCode": "S2912",
    "districtName": "Medak",
    "acNumber": 34,
    "acName": "Medak",
    "partNumber": 16,
    "partName": "Narsingi",
    "lat": 18.0440017,
    "lon": 78.4261317
  },
  {
    "partId": 76188,
    "stateCode": "S29",
    "stateName": "Telangana",
    "districtCode": "S2912",
    "districtName": "Medak",
    "acNumber": 34,
    "acName": "Medak",
    "partNumber": 17,
    "partName": "Papannapet",
    "lat": 18.0366896,
    "lon": 78.0886904
  },
  {
    "partId": 75928,
    "stateCode": "S29",
    "stateName": "Telangana",
    "districtCode": "S2912",
    "districtName": "Medak",
    "acNumber": 34,
    "acName": "Medak",
    "partNumber": 18,
    "partName": "Papannapet",
    "lat": 18.0366896,
    "lon": 78.0886904
  },
  {
    "partId": 75930,
    "stateCode": "S29",
    "stateName": "Telangana",
    "districtCode": "S2912",
    "districtName": "Medak",
    "acNumber": 34,
    "acName": "Medak",
    "partNumber": 19,
    "partName": "Papannapet",
    "lat": 18.0366896,
    "lon": 78.0886904
  },
  {
    "partId": 75932,
    "stateCode": "S29",
    "stateName": "Telangana",
    "districtCode": "S2912",
    "districtName": "Medak",
    "acNumber": 34,
    "acName": "Medak",
    "partNumber": 20,
    "partName": "Papannapet",
    "lat": 18.0366896,
    "lon": 78.0886904
  },
  {
    "partId": 76189,
    "stateCode": "S29",
    "stateName": "Telangana",
    "districtCode": "S2912",
    "districtName": "Medak",
    "acNumber": 34,
    "acName": "Medak",
    "partNumber": 21,
    "partName": "Papannapet",
    "lat": 18.0366896,
    "lon": 78.0886904
  },
  {
    "partId": 76190,
    "stateCode": "S29",
    "stateName": "Telangana",
    "districtCode": "S2912",
    "districtName": "Medak",
    "acNumber": 34,
    "acName": "Medak",
    "partNumber": 22,
    "partName": "Namapur",
    "lat": 18.0061685,
    "lon": 78.0964613
  },
  {
    "partId": 76191,
    "stateCode": "S29",
    "stateName": "Telangana",
    "districtCode": "S2912",
    "districtName": "Medak",
    "acNumber": 34,
    "acName": "Medak",
    "partNumber": 23,
    "partName": "Minpur",
    "lat": 18.0566222,
    "lon": 78.1048842
  },
  {
    "partId": 76192,
    "stateCode": "S29",
    "stateName": "Telangana",
    "districtCode": "S2912",
    "districtName": "Medak",
    "acNumber": 34,
    "acName": "Medak",
    "partNumber": 24,
    "partName": "Minpur",
    "lat": 18.0566222,
    "lon": 78.1048842
  },
  {
    "partId": 75934,
    "stateCode": "S29",
    "stateName": "Telangana",
    "districtCode": "S2912",
    "districtName": "Medak",
    "acNumber": 34,
    "acName": "Medak",
    "partNumber": 25,
    "partName": "Muddapur",
    "lat": 18.0618889,
    "lon": 78.0846712
  },
  {
    "partId": 75936,
    "stateCode": "S29",
    "stateName": "Telangana",
    "districtCode": "S2912",
    "districtName": "Medak",
    "acNumber": 34,
    "acName": "Medak",
    "partNumber": 26,
    "partName": "Sardhana",
    "lat": 18.0835431,
    "lon": 78.1772159
  },
  {
    "partId": 75938,
    "stateCode": "S29",
    "stateName": "Telangana",
    "districtCode": "S2912",
    "districtName": "Medak",
    "acNumber": 34,
    "acName": "Medak",
    "partNumber": 27,
    "partName": "Sardhana",
    "lat": 18.0835431,
    "lon": 78.1772159
  },
  {
    "partId": 75940,
    "stateCode": "S29",
    "stateName": "Telangana",
    "districtCode": "S2912",
    "districtName": "Medak",
    "acNumber": 34,
    "acName": "Medak",
    "partNumber": 28,
    "partName": "Sardhana",
    "lat": 18.0835431,
    "lon": 78.1772159
  },
  {
    "partId": 75942,
    "stateCode": "S29",
    "stateName": "Telangana",
    "districtCode": "S2912",
    "districtName": "Medak",
    "acNumber": 34,
    "acName": "Medak",
    "partNumber": 29,
    "partName": "Jakkannapet",
    "lat": 18.0996852,
    "lon": 78.1932876
  },
  {
    "partId": 76193,
    "stateCode": "S29",
    "stateName": "Telangana",
    "districtCode": "S2912",
    "districtName": "Medak",
    "acNumber": 34,
    "acName": "Medak",
    "partNumber": 30,
    "partName": "Pochammaral",
    "lat": 18.0458792,
    "lon": 78.2651993
  },
  {
    "partId": 76194,
    "stateCode": "S29",
    "stateName": "Telangana",
    "districtCode": "S2912",
    "districtName": "Medak",
    "acNumber": 34,
    "acName": "Medak",
    "partNumber": 31,
    "partName": "Fareedpur",
    "lat": 18.0769541,
    "lon": 78.1991064
  },
  {
    "partId": 76195,
    "stateCode": "S29",
    "stateName": "Telangana",
    "districtCode": "S2912",
    "districtName": "Medak",
    "acNumber": 34,
    "acName": "Medak",
    "partNumber": 32,
    "partName": "Muthaipally",
    "lat": 18.0837716,
    "lon": 78.2170707
  },
  {
    "partId": 75944,
    "stateCode": "S29",
    "stateName": "Telangana",
    "districtCode": "S2912",
    "districtName": "Medak",
    "acNumber": 34,
    "acName": "Medak",
    "partNumber": 33,
    "partName": "Boguda Bhoopathipur",
    "lat": 18.098895,
    "lon": 78.2257944
  },
  {
    "partId": 75946,
    "stateCode": "S29",
    "stateName": "Telangana",
    "districtCode": "S2912",
    "districtName": "Medak",
    "acNumber": 34,
    "acName": "Medak",
    "partNumber": 34,
    "partName": "Kothapally",
    "lat": 17.9296823,
    "lon": 78.3347395
  },
  {
    "partId": 75948,
    "stateCode": "S29",
    "stateName": "Telangana",
    "districtCode": "S2912",
    "districtName": "Medak",
    "acNumber": 34,
    "acName": "Medak",
    "partNumber": 35,
    "partName": "Rajpet",
    "lat": 18.1510887,
    "lon": 78.1902008
  },
  {
    "partId": 76196,
    "stateCode": "S29",
    "stateName": "Telangana",
    "districtCode": "S2912",
    "districtName": "Medak",
    "acNumber": 34,
    "acName": "Medak",
    "partNumber": 36,
    "partName": "Rajpet",
    "lat": 18.1510887,
    "lon": 78.1902008
  },
  {
    "partId": 75950,
    "stateCode": "S29",
    "stateName": "Telangana",
    "districtCode": "S2912",
    "districtName": "Medak",
    "acNumber": 34,
    "acName": "Medak",
    "partNumber": 37,
    "partName": "Kapraipally",
    "lat": 18.0458792,
    "lon": 78.2651993
  },
  {
    "partId": 76197,
    "stateCode": "S29",
    "stateName": "Telangana",
    "districtCode": "S2912",
    "districtName": "Medak",
    "acNumber": 34,
    "acName": "Medak",
    "partNumber": 38,
    "partName": "Wadi",
    "lat": 18.1532935,
    "lon": 78.2151031
  },
  {
    "partId": 76573,
    "stateCode": "S29",
    "stateName": "Telangana",
    "districtCode": "S2912",
    "districtName": "Medak",
    "acNumber": 34,
    "acName": "Medak",
    "partNumber": 39,
    "partName": "Doop singh thanda",
    "lat": 18.0458792,
    "lon": 78.2651993
  },
  {
    "partId": 75952,
    "stateCode": "S29",
    "stateName": "Telangana",
    "districtCode": "S2912",
    "districtName": "Medak",
    "acNumber": 34,
    "acName": "Medak",
    "partNumber": 40,
    "partName": "Burugupally",
    "lat": 18.0458792,
    "lon": 78.2651993
  },
  {
    "partId": 76198,
    "stateCode": "S29",
    "stateName": "Telangana",
    "districtCode": "S2912",
    "districtName": "Medak",
    "acNumber": 34,
    "acName": "Medak",
    "partNumber": 41,
    "partName": "Burugupally",
    "lat": 18.0458792,
    "lon": 78.2651993
  },
  {
    "partId": 75954,
    "stateCode": "S29",
    "stateName": "Telangana",
    "districtCode": "S2912",
    "districtName": "Medak",
    "acNumber": 34,
    "acName": "Medak",
    "partNumber": 42,
    "partName": "Burugupally",
    "lat": 18.0458792,
    "lon": 78.2651993
  },
  {
    "partId": 76199,
    "stateCode": "S29",
    "stateName": "Telangana",
    "districtCode": "S2912",
    "districtName": "Medak",
    "acNumber": 34,
    "acName": "Medak",
    "partNumber": 43,
    "partName": "Burugupally",
    "lat": 18.0458792,
    "lon": 78.2651993
  },
  {
    "partId": 75956,
    "stateCode": "S29",
    "stateName": "Telangana",
    "districtCode": "S2912",
    "districtName": "Medak",
    "acNumber": 34,
    "acName": "Medak",
    "partNumber": 44,
    "partName": "Gajireddypally",
    "lat": 18.132813,
    "lon": 78.2239303
  },
  {
    "partId": 76200,
    "stateCode": "S29",
    "stateName": "Telangana",
    "districtCode": "S2912",
    "districtName": "Medak",
    "acNumber": 34,
    "acName": "Medak",
    "partNumber": 45,
    "partName": "Sulthanpur",
    "lat": 18.1141535,
    "lon": 78.2530916
  },
  {
    "partId": 76201,
    "stateCode": "S29",
    "stateName": "Telangana",
    "districtCode": "S2912",
    "districtName": "Medak",
    "acNumber": 34,
    "acName": "Medak",
    "partNumber": 46,
    "partName": "Thogita",
    "lat": 18.0763819,
    "lon": 78.2493768
  },
  {
    "partId": 76202,
    "stateCode": "S29",
    "stateName": "Telangana",
    "districtCode": "S2912",
    "districtName": "Medak",
    "acNumber": 34,
    "acName": "Medak",
    "partNumber": 47,
    "partName": "Thogita",
    "lat": 18.0763819,
    "lon": 78.2493768
  },
  {
    "partId": 75958,
    "stateCode": "S29",
    "stateName": "Telangana",
    "districtCode": "S2912",
    "districtName": "Medak",
    "acNumber": 34,
    "acName": "Medak",
    "partNumber": 48,
    "partName": "Nagapur",
    "lat": 18.1241777,
    "lon": 78.2601119
  },
  {
    "partId": 75960,
    "stateCode": "S29",
    "stateName": "Telangana",
    "districtCode": "S2912",
    "districtName": "Medak",
    "acNumber": 34,
    "acName": "Medak",
    "partNumber": 49,
    "partName": "Nagapur",
    "lat": 18.1241777,
    "lon": 78.2601119
  },
  {
    "partId": 76203,
    "stateCode": "S29",
    "stateName": "Telangana",
    "districtCode": "S2912",
    "districtName": "Medak",
    "acNumber": 34,
    "acName": "Medak",
    "partNumber": 50,
    "partName": "HaveliGhanapur",
    "lat": 18.0458792,
    "lon": 78.2651993
  },
  {
    "partId": 76204,
    "stateCode": "S29",
    "stateName": "Telangana",
    "districtCode": "S2912",
    "districtName": "Medak",
    "acNumber": 34,
    "acName": "Medak",
    "partNumber": 51,
    "partName": "HaveliGhanapur",
    "lat": 18.0458792,
    "lon": 78.2651993
  },
  {
    "partId": 76205,
    "stateCode": "S29",
    "stateName": "Telangana",
    "districtCode": "S2912",
    "districtName": "Medak",
    "acNumber": 34,
    "acName": "Medak",
    "partNumber": 52,
    "partName": "HaveliGhanapur Thanda",
    "lat": 18.0458792,
    "lon": 78.2651993
  },
  {
    "partId": 75962,
    "stateCode": "S29",
    "stateName": "Telangana",
    "districtCode": "S2912",
    "districtName": "Medak",
    "acNumber": 34,
    "acName": "Medak",
    "partNumber": 53,
    "partName": "Choutlapally",
    "lat": 18.0458792,
    "lon": 78.2651993
  },
  {
    "partId": 75964,
    "stateCode": "S29",
    "stateName": "Telangana",
    "districtCode": "S2912",
    "districtName": "Medak",
    "acNumber": 34,
    "acName": "Medak",
    "partNumber": 54,
    "partName": "Lingasanipally",
    "lat": 18.110681,
    "lon": 78.2827069
  },
  {
    "partId": 75966,
    "stateCode": "S29",
    "stateName": "Telangana",
    "districtCode": "S2912",
    "districtName": "Medak",
    "acNumber": 34,
    "acName": "Medak",
    "partNumber": 55,
    "partName": "Lingasanipally Thanda",
    "lat": 18.0458792,
    "lon": 78.2651993
  },
  {
    "partId": 76206,
    "stateCode": "S29",
    "stateName": "Telangana",
    "districtCode": "S2912",
    "districtName": "Medak",
    "acNumber": 34,
    "acName": "Medak",
    "partNumber": 56,
    "partName": "B. Thimmaipally",
    "lat": 18.1234233,
    "lon": 78.2791074
  },
  {
    "partId": 76207,
    "stateCode": "S29",
    "stateName": "Telangana",
    "districtCode": "S2912",
    "districtName": "Medak",
    "acNumber": 34,
    "acName": "Medak",
    "partNumber": 57,
    "partName": "Byathole",
    "lat": 18.1200495,
    "lon": 78.2938599
  },
  {
    "partId": 76208,
    "stateCode": "S29",
    "stateName": "Telangana",
    "districtCode": "S2912",
    "districtName": "Medak",
    "acNumber": 34,
    "acName": "Medak",
    "partNumber": 58,
    "partName": "Shamnapur",
    "lat": 18.1096467,
    "lon": 78.3161756
  },
  {
    "partId": 75968,
    "stateCode": "S29",
    "stateName": "Telangana",
    "districtCode": "S2912",
    "districtName": "Medak",
    "acNumber": 34,
    "acName": "Medak",
    "partNumber": 59,
    "partName": "Shamnapur",
    "lat": 18.1096467,
    "lon": 78.3161756
  },
  {
    "partId": 75970,
    "stateCode": "S29",
    "stateName": "Telangana",
    "districtCode": "S2912",
    "districtName": "Medak",
    "acNumber": 34,
    "acName": "Medak",
    "partNumber": 60,
    "partName": "Shamnapur Thanda",
    "lat": 18.0458792,
    "lon": 78.2651993
  },
  {
    "partId": 75972,
    "stateCode": "S29",
    "stateName": "Telangana",
    "districtCode": "S2912",
    "districtName": "Medak",
    "acNumber": 34,
    "acName": "Medak",
    "partNumber": 61,
    "partName": "Gangapur",
    "lat": 18.1252435,
    "lon": 78.321639
  },
  {
    "partId": 75974,
    "stateCode": "S29",
    "stateName": "Telangana",
    "districtCode": "S2912",
    "districtName": "Medak",
    "acNumber": 34,
    "acName": "Medak",
    "partNumber": 62,
    "partName": "Parvathapur",
    "lat": 18.1512416,
    "lon": 78.3264486
  },
  {
    "partId": 76209,
    "stateCode": "S29",
    "stateName": "Telangana",
    "districtCode": "S2912",
    "districtName": "Medak",
    "acNumber": 34,
    "acName": "Medak",
    "partNumber": 63,
    "partName": "Kishan Thanda",
    "lat": 18.1583729,
    "lon": 78.3298784
  },
  {
    "partId": 76210,
    "stateCode": "S29",
    "stateName": "Telangana",
    "districtCode": "S2912",
    "districtName": "Medak",
    "acNumber": 34,
    "acName": "Medak",
    "partNumber": 64,
    "partName": "Danthepally",
    "lat": 18.0458792,
    "lon": 78.2651993
  },
  {
    "partId": 76211,
    "stateCode": "S29",
    "stateName": "Telangana",
    "districtCode": "S2912",
    "districtName": "Medak",
    "acNumber": 34,
    "acName": "Medak",
    "partNumber": 65,
    "partName": "Katriyal",
    "lat": 18.0458792,
    "lon": 78.2651993
  },
  {
    "partId": 75976,
    "stateCode": "S29",
    "stateName": "Telangana",
    "districtCode": "S2912",
    "districtName": "Medak",
    "acNumber": 34,
    "acName": "Medak",
    "partNumber": 66,
    "partName": "Katriyal",
    "lat": 18.0458792,
    "lon": 78.2651993
  },
  {
    "partId": 75978,
    "stateCode": "S29",
    "stateName": "Telangana",
    "districtCode": "S2912",
    "districtName": "Medak",
    "acNumber": 34,
    "acName": "Medak",
    "partNumber": 67,
    "partName": "Laxmapur",
    "lat": 18.1253275,
    "lon": 78.3678818
  },
  {
    "partId": 75980,
    "stateCode": "S29",
    "stateName": "Telangana",
    "districtCode": "S2912",
    "districtName": "Medak",
    "acNumber": 34,
    "acName": "Medak",
    "partNumber": 68,
    "partName": "Laxmapur",
    "lat": 18.1253275,
    "lon": 78.3678818
  },
  {
    "partId": 76212,
    "stateCode": "S29",
    "stateName": "Telangana",
    "districtCode": "S2912",
    "districtName": "Medak",
    "acNumber": 34,
    "acName": "Medak",
    "partNumber": 69,
    "partName": "Thonigandla",
    "lat": 18.1197076,
    "lon": 78.3702596
  },
  {
    "partId": 75982,
    "stateCode": "S29",
    "stateName": "Telangana",
    "districtCode": "S2912",
    "districtName": "Medak",
    "acNumber": 34,
    "acName": "Medak",
    "partNumber": 70,
    "partName": "Akkannapet",
    "lat": 18.1133592,
    "lon": 78.399529
  },
  {
    "partId": 76213,
    "stateCode": "S29",
    "stateName": "Telangana",
    "districtCode": "S2912",
    "districtName": "Medak",
    "acNumber": 34,
    "acName": "Medak",
    "partNumber": 71,
    "partName": "Akkannapet",
    "lat": 18.1133592,
    "lon": 78.399529
  },
  {
    "partId": 75984,
    "stateCode": "S29",
    "stateName": "Telangana",
    "districtCode": "S2912",
    "districtName": "Medak",
    "acNumber": 34,
    "acName": "Medak",
    "partNumber": 72,
    "partName": "Akkannapet",
    "lat": 18.1133592,
    "lon": 78.399529
  },
  {
    "partId": 76214,
    "stateCode": "S29",
    "stateName": "Telangana",
    "districtCode": "S2912",
    "districtName": "Medak",
    "acNumber": 34,
    "acName": "Medak",
    "partNumber": 73,
    "partName": "Akkannapet",
    "lat": 18.1133592,
    "lon": 78.399529
  },
  {
    "partId": 75986,
    "stateCode": "S29",
    "stateName": "Telangana",
    "districtCode": "S2912",
    "districtName": "Medak",
    "acNumber": 34,
    "acName": "Medak",
    "partNumber": 74,
    "partName": "Jansi Lingapur",
    "lat": 18.0458792,
    "lon": 78.2651993
  },
  {
    "partId": 76215,
    "stateCode": "S29",
    "stateName": "Telangana",
    "districtCode": "S2912",
    "districtName": "Medak",
    "acNumber": 34,
    "acName": "Medak",
    "partNumber": 75,
    "partName": "Jansi Lingapur",
    "lat": 18.0458792,
    "lon": 78.2651993
  },
  {
    "partId": 75988,
    "stateCode": "S29",
    "stateName": "Telangana",
    "districtCode": "S2912",
    "districtName": "Medak",
    "acNumber": 34,
    "acName": "Medak",
    "partNumber": 76,
    "partName": "Ramayampet",
    "lat": 18.1163712,
    "lon": 78.4307212
  },
  {
    "partId": 76216,
    "stateCode": "S29",
    "stateName": "Telangana",
    "districtCode": "S2912",
    "districtName": "Medak",
    "acNumber": 34,
    "acName": "Medak",
    "partNumber": 77,
    "partName": "Ramayampet",
    "lat": 18.1163712,
    "lon": 78.4307212
  },
  {
    "partId": 76217,
    "stateCode": "S29",
    "stateName": "Telangana",
    "districtCode": "S2912",
    "districtName": "Medak",
    "acNumber": 34,
    "acName": "Medak",
    "partNumber": 78,
    "partName": "Ramayampet",
    "lat": 18.1163712,
    "lon": 78.4307212
  },
  {
    "partId": 76218,
    "stateCode": "S29",
    "stateName": "Telangana",
    "districtCode": "S2912",
    "districtName": "Medak",
    "acNumber": 34,
    "acName": "Medak",
    "partNumber": 79,
    "partName": "Ramayampet",
    "lat": 18.1163712,
    "lon": 78.4307212
  },
  {
    "partId": 75990,
    "stateCode": "S29",
    "stateName": "Telangana",
    "districtCode": "S2912",
    "districtName": "Medak",
    "acNumber": 34,
    "acName": "Medak",
    "partNumber": 80,
    "partName": "Ramayampet",
    "lat": 18.1163712,
    "lon": 78.4307212
  },
  {
    "partId": 75992,
    "stateCode": "S29",
    "stateName": "Telangana",
    "districtCode": "S2912",
    "districtName": "Medak",
    "acNumber": 34,
    "acName": "Medak",
    "partNumber": 81,
    "partName": "Dhamarachervu",
    "lat": 18.0458792,
    "lon": 78.2651993
  },
  {
    "partId": 75994,
    "stateCode": "S29",
    "stateName": "Telangana",
    "districtCode": "S2912",
    "districtName": "Medak",
    "acNumber": 34,
    "acName": "Medak",
    "partNumber": 82,
    "partName": "Ramayampet",
    "lat": 18.1163712,
    "lon": 78.4307212
  },
  {
    "partId": 75996,
    "stateCode": "S29",
    "stateName": "Telangana",
    "districtCode": "S2912",
    "districtName": "Medak",
    "acNumber": 34,
    "acName": "Medak",
    "partNumber": 83,
    "partName": "Ramayampet",
    "lat": 18.1163712,
    "lon": 78.4307212
  },
  {
    "partId": 76219,
    "stateCode": "S29",
    "stateName": "Telangana",
    "districtCode": "S2912",
    "districtName": "Medak",
    "acNumber": 34,
    "acName": "Medak",
    "partNumber": 84,
    "partName": "Ramayampet",
    "lat": 18.1163712,
    "lon": 78.4307212
  },
  {
    "partId": 76220,
    "stateCode": "S29",
    "stateName": "Telangana",
    "districtCode": "S2912",
    "districtName": "Medak",
    "acNumber": 34,
    "acName": "Medak",
    "partNumber": 85,
    "partName": "Ramayampet",
    "lat": 18.1163712,
    "lon": 78.4307212
  },
  {
    "partId": 76221,
    "stateCode": "S29",
    "stateName": "Telangana",
    "districtCode": "S2912",
    "districtName": "Medak",
    "acNumber": 34,
    "acName": "Medak",
    "partNumber": 86,
    "partName": "Ramayampet",
    "lat": 18.1163712,
    "lon": 78.4307212
  },
  {
    "partId": 76222,
    "stateCode": "S29",
    "stateName": "Telangana",
    "districtCode": "S2912",
    "districtName": "Medak",
    "acNumber": 34,
    "acName": "Medak",
    "partNumber": 87,
    "partName": "Ramayampet",
    "lat": 18.1163712,
    "lon": 78.4307212
  },
  {
    "partId": 75998,
    "stateCode": "S29",
    "stateName": "Telangana",
    "districtCode": "S2912",
    "districtName": "Medak",
    "acNumber": 34,
    "acName": "Medak",
    "partNumber": 88,
    "partName": "Ramayampet",
    "lat": 18.1163712,
    "lon": 78.4307212
  },
  {
    "partId": 76000,
    "stateCode": "S29",
    "stateName": "Telangana",
    "districtCode": "S2912",
    "districtName": "Medak",
    "acNumber": 34,
    "acName": "Medak",
    "partNumber": 89,
    "partName": "Komatpally",
    "lat": 18.0458792,
    "lon": 78.2651993
  },
  {
    "partId": 76002,
    "stateCode": "S29",
    "stateName": "Telangana",
    "districtCode": "S2912",
    "districtName": "Medak",
    "acNumber": 34,
    "acName": "Medak",
    "partNumber": 90,
    "partName": "Golparthy",
    "lat": 18.0458792,
    "lon": 78.2651993
  },
  {
    "partId": 76004,
    "stateCode": "S29",
    "stateName": "Telangana",
    "districtCode": "S2912",
    "districtName": "Medak",
    "acNumber": 34,
    "acName": "Medak",
    "partNumber": 91,
    "partName": "Konapur",
    "lat": 18.119502,
    "lon": 78.478527
  },
  {
    "partId": 76223,
    "stateCode": "S29",
    "stateName": "Telangana",
    "districtCode": "S2912",
    "districtName": "Medak",
    "acNumber": 34,
    "acName": "Medak",
    "partNumber": 92,
    "partName": "Konapur",
    "lat": 18.119502,
    "lon": 78.478527
  },
  {
    "partId": 76224,
    "stateCode": "S29",
    "stateName": "Telangana",
    "districtCode": "S2912",
    "districtName": "Medak",
    "acNumber": 34,
    "acName": "Medak",
    "partNumber": 93,
    "partName": "Chelmeda",
    "lat": 18.1388026,
    "lon": 78.5096365
  },
  {
    "partId": 76225,
    "stateCode": "S29",
    "stateName": "Telangana",
    "districtCode": "S2912",
    "districtName": "Medak",
    "acNumber": 34,
    "acName": "Medak",
    "partNumber": 94,
    "partName": "Chelmeda",
    "lat": 18.1388026,
    "lon": 78.5096365
  },
  {
    "partId": 76005,
    "stateCode": "S29",
    "stateName": "Telangana",
    "districtCode": "S2912",
    "districtName": "Medak",
    "acNumber": 34,
    "acName": "Medak",
    "partNumber": 95,
    "partName": "Chelmeda",
    "lat": 18.050404878413282,
    "lon": 78.28514587180536
  },
  {
    "partId": 76006,
    "stateCode": "S29",
    "stateName": "Telangana",
    "districtCode": "S2912",
    "districtName": "Medak",
    "acNumber": 34,
    "acName": "Medak",
    "partNumber": 96,
    "partName": "Chelmada",
    "lat": 18.0458792,
    "lon": 78.2651993
  },
  {
    "partId": 76007,
    "stateCode": "S29",
    "stateName": "Telangana",
    "districtCode": "S2912",
    "districtName": "Medak",
    "acNumber": 34,
    "acName": "Medak",
    "partNumber": 97,
    "partName": "Naskal",
    "lat": 18.050404878413282,
    "lon": 78.28514587180536
  },
  {
    "partId": 76226,
    "stateCode": "S29",
    "stateName": "Telangana",
    "districtCode": "S2912",
    "districtName": "Medak",
    "acNumber": 34,
    "acName": "Medak",
    "partNumber": 98,
    "partName": "Naskal",
    "lat": 18.050404878413282,
    "lon": 78.28514587180536
  },
  {
    "partId": 76227,
    "stateCode": "S29",
    "stateName": "Telangana",
    "districtCode": "S2912",
    "districtName": "Medak",
    "acNumber": 34,
    "acName": "Medak",
    "partNumber": 99,
    "partName": "Nandhagokul",
    "lat": 18.0458792,
    "lon": 78.2651993
  },
  {
    "partId": 76228,
    "stateCode": "S29",
    "stateName": "Telangana",
    "districtCode": "S2912",
    "districtName": "Medak",
    "acNumber": 34,
    "acName": "Medak",
    "partNumber": 100,
    "partName": "Naskal",
    "lat": 18.0458792,
    "lon": 78.2651993
  },
  {
    "partId": 76008,
    "stateCode": "S29",
    "stateName": "Telangana",
    "districtCode": "S2912",
    "districtName": "Medak",
    "acNumber": 34,
    "acName": "Medak",
    "partNumber": 101,
    "partName": "Naagaram (Lt)",
    "lat": 18.0458792,
    "lon": 78.2651993
  },
  {
    "partId": 76009,
    "stateCode": "S29",
    "stateName": "Telangana",
    "districtCode": "S2912",
    "districtName": "Medak",
    "acNumber": 34,
    "acName": "Medak",
    "partNumber": 102,
    "partName": "Rampur",
    "lat": 18.1755582,
    "lon": 78.5701632
  },
  {
    "partId": 76229,
    "stateCode": "S29",
    "stateName": "Telangana",
    "districtCode": "S2912",
    "districtName": "Medak",
    "acNumber": 34,
    "acName": "Medak",
    "partNumber": 103,
    "partName": "Nizampet",
    "lat": 18.1287229,
    "lon": 78.5317325
  },
  {
    "partId": 76230,
    "stateCode": "S29",
    "stateName": "Telangana",
    "districtCode": "S2912",
    "districtName": "Medak",
    "acNumber": 34,
    "acName": "Medak",
    "partNumber": 104,
    "partName": "Nizampet",
    "lat": 18.1287229,
    "lon": 78.5317325
  },
  {
    "partId": 76231,
    "stateCode": "S29",
    "stateName": "Telangana",
    "districtCode": "S2912",
    "districtName": "Medak",
    "acNumber": 34,
    "acName": "Medak",
    "partNumber": 105,
    "partName": "Nizampet",
    "lat": 18.1287229,
    "lon": 78.5317325
  },
  {
    "partId": 76010,
    "stateCode": "S29",
    "stateName": "Telangana",
    "districtCode": "S2912",
    "districtName": "Medak",
    "acNumber": 34,
    "acName": "Medak",
    "partNumber": 106,
    "partName": "Nizampet",
    "lat": 18.1287229,
    "lon": 78.5317325
  },
  {
    "partId": 76011,
    "stateCode": "S29",
    "stateName": "Telangana",
    "districtCode": "S2912",
    "districtName": "Medak",
    "acNumber": 34,
    "acName": "Medak",
    "partNumber": 107,
    "partName": "Nizampet",
    "lat": 18.1287229,
    "lon": 78.5317325
  },
  {
    "partId": 76012,
    "stateCode": "S29",
    "stateName": "Telangana",
    "districtCode": "S2912",
    "districtName": "Medak",
    "acNumber": 34,
    "acName": "Medak",
    "partNumber": 108,
    "partName": "Nandigama",
    "lat": 18.1240734,
    "lon": 78.5123777
  },
  {
    "partId": 76232,
    "stateCode": "S29",
    "stateName": "Telangana",
    "districtCode": "S2912",
    "districtName": "Medak",
    "acNumber": 34,
    "acName": "Medak",
    "partNumber": 109,
    "partName": "Nandigama",
    "lat": 18.1240734,
    "lon": 78.5123777
  },
  {
    "partId": 76233,
    "stateCode": "S29",
    "stateName": "Telangana",
    "districtCode": "S2912",
    "districtName": "Medak",
    "acNumber": 34,
    "acName": "Medak",
    "partNumber": 110,
    "partName": "Bachurajpally",
    "lat": 18.0458792,
    "lon": 78.2651993
  },
  {
    "partId": 76234,
    "stateCode": "S29",
    "stateName": "Telangana",
    "districtCode": "S2912",
    "districtName": "Medak",
    "acNumber": 34,
    "acName": "Medak",
    "partNumber": 111,
    "partName": "Jadcheruvu Thanda",
    "lat": 18.0458792,
    "lon": 78.2651993
  },
  {
    "partId": 76013,
    "stateCode": "S29",
    "stateName": "Telangana",
    "districtCode": "S2912",
    "districtName": "Medak",
    "acNumber": 34,
    "acName": "Medak",
    "partNumber": 112,
    "partName": "Railapur",
    "lat": 17.8440718,
    "lon": 78.2272031
  },
  {
    "partId": 76014,
    "stateCode": "S29",
    "stateName": "Telangana",
    "districtCode": "S2912",
    "districtName": "Medak",
    "acNumber": 34,
    "acName": "Medak",
    "partNumber": 113,
    "partName": "Sutarpalli",
    "lat": 18.0458792,
    "lon": 78.2651993
  },
  {
    "partId": 76015,
    "stateCode": "S29",
    "stateName": "Telangana",
    "districtCode": "S2912",
    "districtName": "Medak",
    "acNumber": 34,
    "acName": "Medak",
    "partNumber": 114,
    "partName": "Railapur",
    "lat": 17.8440718,
    "lon": 78.2272031
  },
  {
    "partId": 76016,
    "stateCode": "S29",
    "stateName": "Telangana",
    "districtCode": "S2912",
    "districtName": "Medak",
    "acNumber": 34,
    "acName": "Medak",
    "partNumber": 115,
    "partName": "Venkatapur (R)",
    "lat": 18.091481,
    "lon": 78.4654796
  },
  {
    "partId": 76235,
    "stateCode": "S29",
    "stateName": "Telangana",
    "districtCode": "S2912",
    "districtName": "Medak",
    "acNumber": 34,
    "acName": "Medak",
    "partNumber": 116,
    "partName": "Japti Shivanoor",
    "lat": 18.0458792,
    "lon": 78.2651993
  },
  {
    "partId": 76236,
    "stateCode": "S29",
    "stateName": "Telangana",
    "districtCode": "S2912",
    "districtName": "Medak",
    "acNumber": 34,
    "acName": "Medak",
    "partNumber": 117,
    "partName": "Japti Shivanoor",
    "lat": 18.0458792,
    "lon": 78.2651993
  },
  {
    "partId": 76237,
    "stateCode": "S29",
    "stateName": "Telangana",
    "districtCode": "S2912",
    "districtName": "Medak",
    "acNumber": 34,
    "acName": "Medak",
    "partNumber": 118,
    "partName": "Shankapur",
    "lat": 18.0687632,
    "lon": 78.4036179
  },
  {
    "partId": 76238,
    "stateCode": "S29",
    "stateName": "Telangana",
    "districtCode": "S2912",
    "districtName": "Medak",
    "acNumber": 34,
    "acName": "Medak",
    "partNumber": 119,
    "partName": "Shankapur",
    "lat": 18.0687632,
    "lon": 78.4036179
  },
  {
    "partId": 76017,
    "stateCode": "S29",
    "stateName": "Telangana",
    "districtCode": "S2912",
    "districtName": "Medak",
    "acNumber": 34,
    "acName": "Medak",
    "partNumber": 120,
    "partName": "Khajapur",
    "lat": 18.0584177,
    "lon": 78.3882824
  },
  {
    "partId": 76018,
    "stateCode": "S29",
    "stateName": "Telangana",
    "districtCode": "S2912",
    "districtName": "Medak",
    "acNumber": 34,
    "acName": "Medak",
    "partNumber": 121,
    "partName": "Khajapur",
    "lat": 18.0584177,
    "lon": 78.3882824
  },
  {
    "partId": 76019,
    "stateCode": "S29",
    "stateName": "Telangana",
    "districtCode": "S2912",
    "districtName": "Medak",
    "acNumber": 34,
    "acName": "Medak",
    "partNumber": 122,
    "partName": "Khajapur Thanda",
    "lat": 18.0676966,
    "lon": 78.391386
  },
  {
    "partId": 76020,
    "stateCode": "S29",
    "stateName": "Telangana",
    "districtCode": "S2912",
    "districtName": "Medak",
    "acNumber": 34,
    "acName": "Medak",
    "partNumber": 123,
    "partName": "Thimmanagar",
    "lat": 18.0594209,
    "lon": 78.3248952
  },
  {
    "partId": 76239,
    "stateCode": "S29",
    "stateName": "Telangana",
    "districtCode": "S2912",
    "districtName": "Medak",
    "acNumber": 34,
    "acName": "Medak",
    "partNumber": 124,
    "partName": "Thimmanagar",
    "lat": 18.0594209,
    "lon": 78.3248952
  },
  {
    "partId": 76240,
    "stateCode": "S29",
    "stateName": "Telangana",
    "districtCode": "S2912",
    "districtName": "Medak",
    "acNumber": 34,
    "acName": "Medak",
    "partNumber": 125,
    "partName": "Maktha Boopathipur",
    "lat": 18.0458792,
    "lon": 78.2651993
  },
  {
    "partId": 76241,
    "stateCode": "S29",
    "stateName": "Telangana",
    "districtCode": "S2912",
    "districtName": "Medak",
    "acNumber": 34,
    "acName": "Medak",
    "partNumber": 126,
    "partName": "Maktha Boopathipur",
    "lat": 18.0458792,
    "lon": 78.2651993
  },
  {
    "partId": 76021,
    "stateCode": "S29",
    "stateName": "Telangana",
    "districtCode": "S2912",
    "districtName": "Medak",
    "acNumber": 34,
    "acName": "Medak",
    "partNumber": 127,
    "partName": "Rayanpally",
    "lat": 18.0458792,
    "lon": 78.2651993
  },
  {
    "partId": 76242,
    "stateCode": "S29",
    "stateName": "Telangana",
    "districtCode": "S2912",
    "districtName": "Medak",
    "acNumber": 34,
    "acName": "Medak",
    "partNumber": 128,
    "partName": "Malkapur Thanda",
    "lat": 18.0458792,
    "lon": 78.2651993
  },
  {
    "partId": 76022,
    "stateCode": "S29",
    "stateName": "Telangana",
    "districtCode": "S2912",
    "districtName": "Medak",
    "acNumber": 34,
    "acName": "Medak",
    "partNumber": 129,
    "partName": "Shivaipally",
    "lat": 18.0565678,
    "lon": 77.912619
  },
  {
    "partId": 76243,
    "stateCode": "S29",
    "stateName": "Telangana",
    "districtCode": "S2912",
    "districtName": "Medak",
    "acNumber": 34,
    "acName": "Medak",
    "partNumber": 130,
    "partName": "Venkatapur",
    "lat": 18.0134252,
    "lon": 78.0480923
  },
  {
    "partId": 76023,
    "stateCode": "S29",
    "stateName": "Telangana",
    "districtCode": "S2912",
    "districtName": "Medak",
    "acNumber": 34,
    "acName": "Medak",
    "partNumber": 131,
    "partName": "Guttakindipally",
    "lat": 18.0458792,
    "lon": 78.2651993
  },
  {
    "partId": 76244,
    "stateCode": "S29",
    "stateName": "Telangana",
    "districtCode": "S2912",
    "districtName": "Medak",
    "acNumber": 34,
    "acName": "Medak",
    "partNumber": 132,
    "partName": "Medak",
    "lat": 18.0458792,
    "lon": 78.2651993
  },
  {
    "partId": 76571,
    "stateCode": "S29",
    "stateName": "Telangana",
    "districtCode": "S2912",
    "districtName": "Medak",
    "acNumber": 34,
    "acName": "Medak",
    "partNumber": 133,
    "partName": "Medak",
    "lat": 18.0458792,
    "lon": 78.2651993
  },
  {
    "partId": 76024,
    "stateCode": "S29",
    "stateName": "Telangana",
    "districtCode": "S2912",
    "districtName": "Medak",
    "acNumber": 34,
    "acName": "Medak",
    "partNumber": 134,
    "partName": "Medak",
    "lat": 18.0458792,
    "lon": 78.2651993
  },
  {
    "partId": 76245,
    "stateCode": "S29",
    "stateName": "Telangana",
    "districtCode": "S2912",
    "districtName": "Medak",
    "acNumber": 34,
    "acName": "Medak",
    "partNumber": 135,
    "partName": "Medak",
    "lat": 18.0458792,
    "lon": 78.2651993
  },
  {
    "partId": 76025,
    "stateCode": "S29",
    "stateName": "Telangana",
    "districtCode": "S2912",
    "districtName": "Medak",
    "acNumber": 34,
    "acName": "Medak",
    "partNumber": 136,
    "partName": "Medak",
    "lat": 18.0458792,
    "lon": 78.2651993
  },
  {
    "partId": 76026,
    "stateCode": "S29",
    "stateName": "Telangana",
    "districtCode": "S2912",
    "districtName": "Medak",
    "acNumber": 34,
    "acName": "Medak",
    "partNumber": 137,
    "partName": "Medak",
    "lat": 18.0458792,
    "lon": 78.2651993
  },
  {
    "partId": 76027,
    "stateCode": "S29",
    "stateName": "Telangana",
    "districtCode": "S2912",
    "districtName": "Medak",
    "acNumber": 34,
    "acName": "Medak",
    "partNumber": 138,
    "partName": "Medak",
    "lat": 18.0458792,
    "lon": 78.2651993
  },
  {
    "partId": 76246,
    "stateCode": "S29",
    "stateName": "Telangana",
    "districtCode": "S2912",
    "districtName": "Medak",
    "acNumber": 34,
    "acName": "Medak",
    "partNumber": 139,
    "partName": "Medak",
    "lat": 18.0458792,
    "lon": 78.2651993
  },
  {
    "partId": 76247,
    "stateCode": "S29",
    "stateName": "Telangana",
    "districtCode": "S2912",
    "districtName": "Medak",
    "acNumber": 34,
    "acName": "Medak",
    "partNumber": 140,
    "partName": "Medak",
    "lat": 18.0458792,
    "lon": 78.2651993
  },
  {
    "partId": 76248,
    "stateCode": "S29",
    "stateName": "Telangana",
    "districtCode": "S2912",
    "districtName": "Medak",
    "acNumber": 34,
    "acName": "Medak",
    "partNumber": 141,
    "partName": "Medak",
    "lat": 18.0458792,
    "lon": 78.2651993
  },
  {
    "partId": 76028,
    "stateCode": "S29",
    "stateName": "Telangana",
    "districtCode": "S2912",
    "districtName": "Medak",
    "acNumber": 34,
    "acName": "Medak",
    "partNumber": 142,
    "partName": "Medak",
    "lat": 18.0458792,
    "lon": 78.2651993
  },
  {
    "partId": 76029,
    "stateCode": "S29",
    "stateName": "Telangana",
    "districtCode": "S2912",
    "districtName": "Medak",
    "acNumber": 34,
    "acName": "Medak",
    "partNumber": 143,
    "partName": "Medak",
    "lat": 18.0458792,
    "lon": 78.2651993
  },
  {
    "partId": 76030,
    "stateCode": "S29",
    "stateName": "Telangana",
    "districtCode": "S2912",
    "districtName": "Medak",
    "acNumber": 34,
    "acName": "Medak",
    "partNumber": 144,
    "partName": "Medak",
    "lat": 18.0458792,
    "lon": 78.2651993
  },
  {
    "partId": 76031,
    "stateCode": "S29",
    "stateName": "Telangana",
    "districtCode": "S2912",
    "districtName": "Medak",
    "acNumber": 34,
    "acName": "Medak",
    "partNumber": 145,
    "partName": "Medak",
    "lat": 18.0458792,
    "lon": 78.2651993
  },
  {
    "partId": 76249,
    "stateCode": "S29",
    "stateName": "Telangana",
    "districtCode": "S2912",
    "districtName": "Medak",
    "acNumber": 34,
    "acName": "Medak",
    "partNumber": 146,
    "partName": "Medak",
    "lat": 18.0458792,
    "lon": 78.2651993
  },
  {
    "partId": 76250,
    "stateCode": "S29",
    "stateName": "Telangana",
    "districtCode": "S2912",
    "districtName": "Medak",
    "acNumber": 34,
    "acName": "Medak",
    "partNumber": 147,
    "partName": "Medak",
    "lat": 18.0458792,
    "lon": 78.2651993
  },
  {
    "partId": 76251,
    "stateCode": "S29",
    "stateName": "Telangana",
    "districtCode": "S2912",
    "districtName": "Medak",
    "acNumber": 34,
    "acName": "Medak",
    "partNumber": 148,
    "partName": "Medak",
    "lat": 18.0458792,
    "lon": 78.2651993
  },
  {
    "partId": 76032,
    "stateCode": "S29",
    "stateName": "Telangana",
    "districtCode": "S2912",
    "districtName": "Medak",
    "acNumber": 34,
    "acName": "Medak",
    "partNumber": 149,
    "partName": "Medak",
    "lat": 18.0458792,
    "lon": 78.2651993
  },
  {
    "partId": 76033,
    "stateCode": "S29",
    "stateName": "Telangana",
    "districtCode": "S2912",
    "districtName": "Medak",
    "acNumber": 34,
    "acName": "Medak",
    "partNumber": 150,
    "partName": "Medak",
    "lat": 18.0458792,
    "lon": 78.2651993
  },
  {
    "partId": 76034,
    "stateCode": "S29",
    "stateName": "Telangana",
    "districtCode": "S2912",
    "districtName": "Medak",
    "acNumber": 34,
    "acName": "Medak",
    "partNumber": 151,
    "partName": "Medak",
    "lat": 18.0458792,
    "lon": 78.2651993
  },
  {
    "partId": 76252,
    "stateCode": "S29",
    "stateName": "Telangana",
    "districtCode": "S2912",
    "districtName": "Medak",
    "acNumber": 34,
    "acName": "Medak",
    "partNumber": 152,
    "partName": "Medak",
    "lat": 18.0458792,
    "lon": 78.2651993
  },
  {
    "partId": 76253,
    "stateCode": "S29",
    "stateName": "Telangana",
    "districtCode": "S2912",
    "districtName": "Medak",
    "acNumber": 34,
    "acName": "Medak",
    "partNumber": 153,
    "partName": "Medak",
    "lat": 18.0458792,
    "lon": 78.2651993
  },
  {
    "partId": 76254,
    "stateCode": "S29",
    "stateName": "Telangana",
    "districtCode": "S2912",
    "districtName": "Medak",
    "acNumber": 34,
    "acName": "Medak",
    "partNumber": 154,
    "partName": "Medak",
    "lat": 18.0458792,
    "lon": 78.2651993
  },
  {
    "partId": 76035,
    "stateCode": "S29",
    "stateName": "Telangana",
    "districtCode": "S2912",
    "districtName": "Medak",
    "acNumber": 34,
    "acName": "Medak",
    "partNumber": 155,
    "partName": "Medak",
    "lat": 18.0458792,
    "lon": 78.2651993
  },
  {
    "partId": 76036,
    "stateCode": "S29",
    "stateName": "Telangana",
    "districtCode": "S2912",
    "districtName": "Medak",
    "acNumber": 34,
    "acName": "Medak",
    "partNumber": 156,
    "partName": "Medak",
    "lat": 18.0458792,
    "lon": 78.2651993
  },
  {
    "partId": 76255,
    "stateCode": "S29",
    "stateName": "Telangana",
    "districtCode": "S2912",
    "districtName": "Medak",
    "acNumber": 34,
    "acName": "Medak",
    "partNumber": 157,
    "partName": "Medak",
    "lat": 18.0458792,
    "lon": 78.2651993
  },
  {
    "partId": 76256,
    "stateCode": "S29",
    "stateName": "Telangana",
    "districtCode": "S2912",
    "districtName": "Medak",
    "acNumber": 34,
    "acName": "Medak",
    "partNumber": 158,
    "partName": "Medak",
    "lat": 18.0458792,
    "lon": 78.2651993
  },
  {
    "partId": 76257,
    "stateCode": "S29",
    "stateName": "Telangana",
    "districtCode": "S2912",
    "districtName": "Medak",
    "acNumber": 34,
    "acName": "Medak",
    "partNumber": 159,
    "partName": "Medak",
    "lat": 18.0458792,
    "lon": 78.2651993
  },
  {
    "partId": 76037,
    "stateCode": "S29",
    "stateName": "Telangana",
    "districtCode": "S2912",
    "districtName": "Medak",
    "acNumber": 34,
    "acName": "Medak",
    "partNumber": 160,
    "partName": "Pillikottal,Medak",
    "lat": 18.0458792,
    "lon": 78.2651993
  },
  {
    "partId": 76258,
    "stateCode": "S29",
    "stateName": "Telangana",
    "districtCode": "S2912",
    "districtName": "Medak",
    "acNumber": 34,
    "acName": "Medak",
    "partNumber": 161,
    "partName": "Medak",
    "lat": 18.0458792,
    "lon": 78.2651993
  },
  {
    "partId": 76038,
    "stateCode": "S29",
    "stateName": "Telangana",
    "districtCode": "S2912",
    "districtName": "Medak",
    "acNumber": 34,
    "acName": "Medak",
    "partNumber": 162,
    "partName": "Medak",
    "lat": 18.0458792,
    "lon": 78.2651993
  },
  {
    "partId": 76259,
    "stateCode": "S29",
    "stateName": "Telangana",
    "districtCode": "S2912",
    "districtName": "Medak",
    "acNumber": 34,
    "acName": "Medak",
    "partNumber": 163,
    "partName": "Medak",
    "lat": 18.0458792,
    "lon": 78.2651993
  },
  {
    "partId": 76039,
    "stateCode": "S29",
    "stateName": "Telangana",
    "districtCode": "S2912",
    "districtName": "Medak",
    "acNumber": 34,
    "acName": "Medak",
    "partNumber": 164,
    "partName": "Medak",
    "lat": 18.0458792,
    "lon": 78.2651993
  },
  {
    "partId": 76260,
    "stateCode": "S29",
    "stateName": "Telangana",
    "districtCode": "S2912",
    "districtName": "Medak",
    "acNumber": 34,
    "acName": "Medak",
    "partNumber": 165,
    "partName": "Medak",
    "lat": 18.0458792,
    "lon": 78.2651993
  },
  {
    "partId": 76168,
    "stateCode": "S29",
    "stateName": "Telangana",
    "districtCode": "S2912",
    "districtName": "Medak",
    "acNumber": 34,
    "acName": "Medak",
    "partNumber": 166,
    "partName": "Medak",
    "lat": 18.0458792,
    "lon": 78.2651993
  },
  {
    "partId": 76261,
    "stateCode": "S29",
    "stateName": "Telangana",
    "districtCode": "S2912",
    "districtName": "Medak",
    "acNumber": 34,
    "acName": "Medak",
    "partNumber": 167,
    "partName": "Maqdumpur",
    "lat": 18.0508685,
    "lon": 78.2279779
  },
  {
    "partId": 76169,
    "stateCode": "S29",
    "stateName": "Telangana",
    "districtCode": "S2912",
    "districtName": "Medak",
    "acNumber": 34,
    "acName": "Medak",
    "partNumber": 168,
    "partName": "Kuchanpally",
    "lat": 18.0676155,
    "lon": 78.22949
  },
  {
    "partId": 76170,
    "stateCode": "S29",
    "stateName": "Telangana",
    "districtCode": "S2912",
    "districtName": "Medak",
    "acNumber": 34,
    "acName": "Medak",
    "partNumber": 169,
    "partName": "Kuchanpally",
    "lat": 18.0676155,
    "lon": 78.22949
  },
  {
    "partId": 76171,
    "stateCode": "S29",
    "stateName": "Telangana",
    "districtCode": "S2912",
    "districtName": "Medak",
    "acNumber": 34,
    "acName": "Medak",
    "partNumber": 170,
    "partName": "Kurthiwada",
    "lat": 18.0629593,
    "lon": 78.1153295
  },
  {
    "partId": 76262,
    "stateCode": "S29",
    "stateName": "Telangana",
    "districtCode": "S2912",
    "districtName": "Medak",
    "acNumber": 34,
    "acName": "Medak",
    "partNumber": 171,
    "partName": "Doulapur",
    "lat": 18.0363621,
    "lon": 78.1152203
  },
  {
    "partId": 76263,
    "stateCode": "S29",
    "stateName": "Telangana",
    "districtCode": "S2912",
    "districtName": "Medak",
    "acNumber": 34,
    "acName": "Medak",
    "partNumber": 172,
    "partName": "Kurthiwada",
    "lat": 18.0629593,
    "lon": 78.1153295
  },
  {
    "partId": 76264,
    "stateCode": "S29",
    "stateName": "Telangana",
    "districtCode": "S2912",
    "districtName": "Medak",
    "acNumber": 34,
    "acName": "Medak",
    "partNumber": 173,
    "partName": "Kurthiwada",
    "lat": 18.0629593,
    "lon": 78.1153295
  },
  {
    "partId": 76172,
    "stateCode": "S29",
    "stateName": "Telangana",
    "districtCode": "S2912",
    "districtName": "Medak",
    "acNumber": 34,
    "acName": "Medak",
    "partNumber": 174,
    "partName": "Yousufpet",
    "lat": 18.050404878413282,
    "lon": 78.28514587180536
  },
  {
    "partId": 76173,
    "stateCode": "S29",
    "stateName": "Telangana",
    "districtCode": "S2912",
    "districtName": "Medak",
    "acNumber": 34,
    "acName": "Medak",
    "partNumber": 175,
    "partName": "Yousfupet",
    "lat": 18.0458792,
    "lon": 78.2651993
  },
  {
    "partId": 76174,
    "stateCode": "S29",
    "stateName": "Telangana",
    "districtCode": "S2912",
    "districtName": "Medak",
    "acNumber": 34,
    "acName": "Medak",
    "partNumber": 176,
    "partName": "Yousfupet",
    "lat": 18.0458792,
    "lon": 78.2651993
  },
  {
    "partId": 76175,
    "stateCode": "S29",
    "stateName": "Telangana",
    "districtCode": "S2912",
    "districtName": "Medak",
    "acNumber": 34,
    "acName": "Medak",
    "partNumber": 177,
    "partName": "Yousufpet",
    "lat": 18.0458792,
    "lon": 78.2651993
  },
  {
    "partId": 76176,
    "stateCode": "S29",
    "stateName": "Telangana",
    "districtCode": "S2912",
    "districtName": "Medak",
    "acNumber": 34,
    "acName": "Medak",
    "partNumber": 178,
    "partName": "Bacharam",
    "lat": 18.050404878413282,
    "lon": 78.28514587180536
  },
  {
    "partId": 76265,
    "stateCode": "S29",
    "stateName": "Telangana",
    "districtCode": "S2912",
    "districtName": "Medak",
    "acNumber": 34,
    "acName": "Medak",
    "partNumber": 179,
    "partName": "Seethanagar",
    "lat": 18.0021878,
    "lon": 77.9193422
  },
  {
    "partId": 76266,
    "stateCode": "S29",
    "stateName": "Telangana",
    "districtCode": "S2912",
    "districtName": "Medak",
    "acNumber": 34,
    "acName": "Medak",
    "partNumber": 180,
    "partName": "Gajulagudem",
    "lat": 17.9845134,
    "lon": 78.1174308
  },
  {
    "partId": 76267,
    "stateCode": "S29",
    "stateName": "Telangana",
    "districtCode": "S2912",
    "districtName": "Medak",
    "acNumber": 34,
    "acName": "Medak",
    "partNumber": 181,
    "partName": "Chitriyal",
    "lat": 18.0458792,
    "lon": 78.2651993
  },
  {
    "partId": 76268,
    "stateCode": "S29",
    "stateName": "Telangana",
    "districtCode": "S2912",
    "districtName": "Medak",
    "acNumber": 34,
    "acName": "Medak",
    "partNumber": 182,
    "partName": "Enkepally",
    "lat": 18.0458792,
    "lon": 78.2651993
  },
  {
    "partId": 76177,
    "stateCode": "S29",
    "stateName": "Telangana",
    "districtCode": "S2912",
    "districtName": "Medak",
    "acNumber": 34,
    "acName": "Medak",
    "partNumber": 183,
    "partName": "Kodpak",
    "lat": 17.9802994,
    "lon": 78.1378227
  },
  {
    "partId": 76178,
    "stateCode": "S29",
    "stateName": "Telangana",
    "districtCode": "S2912",
    "districtName": "Medak",
    "acNumber": 34,
    "acName": "Medak",
    "partNumber": 184,
    "partName": "Kodapak",
    "lat": 18.0458792,
    "lon": 78.2651993
  },
  {
    "partId": 76179,
    "stateCode": "S29",
    "stateName": "Telangana",
    "districtCode": "S2912",
    "districtName": "Medak",
    "acNumber": 34,
    "acName": "Medak",
    "partNumber": 185,
    "partName": "Kodpak",
    "lat": 17.9802994,
    "lon": 78.1378227
  },
  {
    "partId": 76269,
    "stateCode": "S29",
    "stateName": "Telangana",
    "districtCode": "S2912",
    "districtName": "Medak",
    "acNumber": 34,
    "acName": "Medak",
    "partNumber": 186,
    "partName": "Sheripally",
    "lat": 18.0282967,
    "lon": 78.4149009
  },
  {
    "partId": 76270,
    "stateCode": "S29",
    "stateName": "Telangana",
    "districtCode": "S2912",
    "districtName": "Medak",
    "acNumber": 34,
    "acName": "Medak",
    "partNumber": 187,
    "partName": "Ablapur",
    "lat": 18.011382,
    "lon": 78.1390495
  },
  {
    "partId": 76271,
    "stateCode": "S29",
    "stateName": "Telangana",
    "districtCode": "S2912",
    "districtName": "Medak",
    "acNumber": 34,
    "acName": "Medak",
    "partNumber": 188,
    "partName": "Annaram",
    "lat": 18.0197119,
    "lon": 78.1366112
  },
  {
    "partId": 75917,
    "stateCode": "S29",
    "stateName": "Telangana",
    "districtCode": "S2912",
    "districtName": "Medak",
    "acNumber": 34,
    "acName": "Medak",
    "partNumber": 189,
    "partName": "Annaram",
    "lat": 18.0197119,
    "lon": 78.1366112
  },
  {
    "partId": 76272,
    "stateCode": "S29",
    "stateName": "Telangana",
    "districtCode": "S2912",
    "districtName": "Medak",
    "acNumber": 34,
    "acName": "Medak",
    "partNumber": 190,
    "partName": "Kothapally",
    "lat": 17.9296823,
    "lon": 78.3347395
  },
  {
    "partId": 75919,
    "stateCode": "S29",
    "stateName": "Telangana",
    "districtCode": "S2912",
    "districtName": "Medak",
    "acNumber": 34,
    "acName": "Medak",
    "partNumber": 191,
    "partName": "Kothapally",
    "lat": 17.9296823,
    "lon": 78.3347395
  },
  {
    "partId": 76273,
    "stateCode": "S29",
    "stateName": "Telangana",
    "districtCode": "S2912",
    "districtName": "Medak",
    "acNumber": 34,
    "acName": "Medak",
    "partNumber": 192,
    "partName": "Laxminagar",
    "lat": 18.0420074,
    "lon": 78.1661726
  },
  {
    "partId": 75921,
    "stateCode": "S29",
    "stateName": "Telangana",
    "districtCode": "S2912",
    "districtName": "Medak",
    "acNumber": 34,
    "acName": "Medak",
    "partNumber": 193,
    "partName": "Nagsanpally",
    "lat": 18.0079182,
    "lon": 78.1605993
  },
  {
    "partId": 76274,
    "stateCode": "S29",
    "stateName": "Telangana",
    "districtCode": "S2912",
    "districtName": "Medak",
    "acNumber": 34,
    "acName": "Medak",
    "partNumber": 194,
    "partName": "Nagsanpally",
    "lat": 18.0079182,
    "lon": 78.1605993
  },
  {
    "partId": 75923,
    "stateCode": "S29",
    "stateName": "Telangana",
    "districtCode": "S2912",
    "districtName": "Medak",
    "acNumber": 34,
    "acName": "Medak",
    "partNumber": 195,
    "partName": "Yellapur",
    "lat": 17.6974005,
    "lon": 78.2426351
  },
  {
    "partId": 76275,
    "stateCode": "S29",
    "stateName": "Telangana",
    "districtCode": "S2912",
    "districtName": "Medak",
    "acNumber": 34,
    "acName": "Medak",
    "partNumber": 196,
    "partName": "Yellapur",
    "lat": 17.6974005,
    "lon": 78.2426351
  },
  {
    "partId": 75925,
    "stateCode": "S29",
    "stateName": "Telangana",
    "districtCode": "S2912",
    "districtName": "Medak",
    "acNumber": 34,
    "acName": "Medak",
    "partNumber": 197,
    "partName": "Podchanpally",
    "lat": 18.0398534,
    "lon": 78.1701589
  },
  {
    "partId": 76276,
    "stateCode": "S29",
    "stateName": "Telangana",
    "districtCode": "S2912",
    "districtName": "Medak",
    "acNumber": 34,
    "acName": "Medak",
    "partNumber": 198,
    "partName": "Podchanpally",
    "lat": 18.0398534,
    "lon": 78.1701589
  },
  {
    "partId": 75927,
    "stateCode": "S29",
    "stateName": "Telangana",
    "districtCode": "S2912",
    "districtName": "Medak",
    "acNumber": 34,
    "acName": "Medak",
    "partNumber": 199,
    "partName": "Podchanpally",
    "lat": 18.0398534,
    "lon": 78.1701589
  },
  {
    "partId": 76277,
    "stateCode": "S29",
    "stateName": "Telangana",
    "districtCode": "S2912",
    "districtName": "Medak",
    "acNumber": 34,
    "acName": "Medak",
    "partNumber": 200,
    "partName": "Podchanpally",
    "lat": 18.0398534,
    "lon": 78.1701589
  },
  {
    "partId": 75929,
    "stateCode": "S29",
    "stateName": "Telangana",
    "districtCode": "S2912",
    "districtName": "Medak",
    "acNumber": 34,
    "acName": "Medak",
    "partNumber": 201,
    "partName": "Podchanpally Thanda",
    "lat": 18.0398534,
    "lon": 78.1701589
  },
  {
    "partId": 75931,
    "stateCode": "S29",
    "stateName": "Telangana",
    "districtCode": "S2912",
    "districtName": "Medak",
    "acNumber": 34,
    "acName": "Medak",
    "partNumber": 202,
    "partName": "Gandharpally",
    "lat": 18.0458792,
    "lon": 78.2651993
  },
  {
    "partId": 75933,
    "stateCode": "S29",
    "stateName": "Telangana",
    "districtCode": "S2912",
    "districtName": "Medak",
    "acNumber": 34,
    "acName": "Medak",
    "partNumber": 203,
    "partName": "Jayapuram",
    "lat": 18.0623073,
    "lon": 78.1667248
  },
  {
    "partId": 76278,
    "stateCode": "S29",
    "stateName": "Telangana",
    "districtCode": "S2912",
    "districtName": "Medak",
    "acNumber": 34,
    "acName": "Medak",
    "partNumber": 204,
    "partName": "Perur",
    "lat": 18.0272313,
    "lon": 78.2164491
  },
  {
    "partId": 76279,
    "stateCode": "S29",
    "stateName": "Telangana",
    "districtCode": "S2912",
    "districtName": "Medak",
    "acNumber": 34,
    "acName": "Medak",
    "partNumber": 205,
    "partName": "Ryalamadgu",
    "lat": 18.0458792,
    "lon": 78.2651993
  },
  {
    "partId": 76280,
    "stateCode": "S29",
    "stateName": "Telangana",
    "districtCode": "S2912",
    "districtName": "Medak",
    "acNumber": 34,
    "acName": "Medak",
    "partNumber": 206,
    "partName": "Machavaram",
    "lat": 18.0184904,
    "lon": 78.2404718
  },
  {
    "partId": 75935,
    "stateCode": "S29",
    "stateName": "Telangana",
    "districtCode": "S2912",
    "districtName": "Medak",
    "acNumber": 34,
    "acName": "Medak",
    "partNumber": 207,
    "partName": "Machavaram",
    "lat": 18.0184904,
    "lon": 78.2404718
  },
  {
    "partId": 75937,
    "stateCode": "S29",
    "stateName": "Telangana",
    "districtCode": "S2912",
    "districtName": "Medak",
    "acNumber": 34,
    "acName": "Medak",
    "partNumber": 208,
    "partName": "Mambojipally",
    "lat": 18.0217443,
    "lon": 78.2517153
  },
  {
    "partId": 75939,
    "stateCode": "S29",
    "stateName": "Telangana",
    "districtCode": "S2912",
    "districtName": "Medak",
    "acNumber": 34,
    "acName": "Medak",
    "partNumber": 209,
    "partName": "Mambojipally",
    "lat": 18.0217443,
    "lon": 78.2517153
  },
  {
    "partId": 75941,
    "stateCode": "S29",
    "stateName": "Telangana",
    "districtCode": "S2912",
    "districtName": "Medak",
    "acNumber": 34,
    "acName": "Medak",
    "partNumber": 210,
    "partName": "Chityala",
    "lat": 18.009645,
    "lon": 78.2598062
  },
  {
    "partId": 76281,
    "stateCode": "S29",
    "stateName": "Telangana",
    "districtCode": "S2912",
    "districtName": "Medak",
    "acNumber": 34,
    "acName": "Medak",
    "partNumber": 211,
    "partName": "Janakampally",
    "lat": 18.0019973,
    "lon": 78.2694998
  },
  {
    "partId": 76282,
    "stateCode": "S29",
    "stateName": "Telangana",
    "districtCode": "S2912",
    "districtName": "Medak",
    "acNumber": 34,
    "acName": "Medak",
    "partNumber": 212,
    "partName": "Maddulwai",
    "lat": 18.0458792,
    "lon": 78.2651993
  },
  {
    "partId": 76283,
    "stateCode": "S29",
    "stateName": "Telangana",
    "districtCode": "S2912",
    "districtName": "Medak",
    "acNumber": 34,
    "acName": "Medak",
    "partNumber": 213,
    "partName": "Madulwai",
    "lat": 18.0706838,
    "lon": 78.2459995
  },
  {
    "partId": 76284,
    "stateCode": "S29",
    "stateName": "Telangana",
    "districtCode": "S2912",
    "districtName": "Medak",
    "acNumber": 34,
    "acName": "Medak",
    "partNumber": 214,
    "partName": "Aurangabad",
    "lat": 18.078477,
    "lon": 78.2698824
  },
  {
    "partId": 75943,
    "stateCode": "S29",
    "stateName": "Telangana",
    "districtCode": "S2912",
    "districtName": "Medak",
    "acNumber": 34,
    "acName": "Medak",
    "partNumber": 215,
    "partName": "Aurangabad Thada",
    "lat": 18.0458792,
    "lon": 78.2651993
  },
  {
    "partId": 75945,
    "stateCode": "S29",
    "stateName": "Telangana",
    "districtCode": "S2912",
    "districtName": "Medak",
    "acNumber": 34,
    "acName": "Medak",
    "partNumber": 216,
    "partName": "Ausulapally",
    "lat": 18.0762196,
    "lon": 78.2879989
  },
  {
    "partId": 75947,
    "stateCode": "S29",
    "stateName": "Telangana",
    "districtCode": "S2912",
    "districtName": "Medak",
    "acNumber": 34,
    "acName": "Medak",
    "partNumber": 217,
    "partName": "Ausulapally",
    "lat": 18.0762196,
    "lon": 78.2879989
  },
  {
    "partId": 76285,
    "stateCode": "S29",
    "stateName": "Telangana",
    "districtCode": "S2912",
    "districtName": "Medak",
    "acNumber": 34,
    "acName": "Medak",
    "partNumber": 218,
    "partName": "Pathur",
    "lat": 18.0907604,
    "lon": 78.3175024
  },
  {
    "partId": 76286,
    "stateCode": "S29",
    "stateName": "Telangana",
    "districtCode": "S2912",
    "districtName": "Medak",
    "acNumber": 34,
    "acName": "Medak",
    "partNumber": 219,
    "partName": "Pathur",
    "lat": 18.0907604,
    "lon": 78.3175024
  },
  {
    "partId": 76287,
    "stateCode": "S29",
    "stateName": "Telangana",
    "districtCode": "S2912",
    "districtName": "Medak",
    "acNumber": 34,
    "acName": "Medak",
    "partNumber": 220,
    "partName": "Shivaipally",
    "lat": 18.0565678,
    "lon": 77.912619
  },
  {
    "partId": 75949,
    "stateCode": "S29",
    "stateName": "Telangana",
    "districtCode": "S2912",
    "districtName": "Medak",
    "acNumber": 34,
    "acName": "Medak",
    "partNumber": 221,
    "partName": "Thippannagulla",
    "lat": 18.0458792,
    "lon": 78.2651993
  },
  {
    "partId": 76288,
    "stateCode": "S29",
    "stateName": "Telangana",
    "districtCode": "S2912",
    "districtName": "Medak",
    "acNumber": 34,
    "acName": "Medak",
    "partNumber": 222,
    "partName": "Thippannagulla",
    "lat": 18.0458792,
    "lon": 78.2651993
  },
  {
    "partId": 75951,
    "stateCode": "S29",
    "stateName": "Telangana",
    "districtCode": "S2912",
    "districtName": "Medak",
    "acNumber": 34,
    "acName": "Medak",
    "partNumber": 223,
    "partName": "Razakpally",
    "lat": 18.1079621,
    "lon": 78.5458088
  },
  {
    "partId": 76289,
    "stateCode": "S29",
    "stateName": "Telangana",
    "districtCode": "S2912",
    "districtName": "Medak",
    "acNumber": 34,
    "acName": "Medak",
    "partNumber": 224,
    "partName": "Kalvakunta",
    "lat": 18.0458792,
    "lon": 78.2651993
  },
  {
    "partId": 75953,
    "stateCode": "S29",
    "stateName": "Telangana",
    "districtCode": "S2912",
    "districtName": "Medak",
    "acNumber": 34,
    "acName": "Medak",
    "partNumber": 225,
    "partName": "Kalvakunta",
    "lat": 18.0458792,
    "lon": 78.2651993
  },
  {
    "partId": 76290,
    "stateCode": "S29",
    "stateName": "Telangana",
    "districtCode": "S2912",
    "districtName": "Medak",
    "acNumber": 34,
    "acName": "Medak",
    "partNumber": 226,
    "partName": "Kalvakunta",
    "lat": 18.0458792,
    "lon": 78.2651993
  },
  {
    "partId": 76291,
    "stateCode": "S29",
    "stateName": "Telangana",
    "districtCode": "S2912",
    "districtName": "Medak",
    "acNumber": 34,
    "acName": "Medak",
    "partNumber": 227,
    "partName": "K.Venkatapur",
    "lat": 18.0768571,
    "lon": 78.5518813
  },
  {
    "partId": 76292,
    "stateCode": "S29",
    "stateName": "Telangana",
    "districtCode": "S2912",
    "districtName": "Medak",
    "acNumber": 34,
    "acName": "Medak",
    "partNumber": 228,
    "partName": "Narlapur",
    "lat": 18.0736953,
    "lon": 78.5400581
  },
  {
    "partId": 75955,
    "stateCode": "S29",
    "stateName": "Telangana",
    "districtCode": "S2912",
    "districtName": "Medak",
    "acNumber": 34,
    "acName": "Medak",
    "partNumber": 229,
    "partName": "Narlapur",
    "lat": 18.0736953,
    "lon": 78.5400581
  },
  {
    "partId": 75957,
    "stateCode": "S29",
    "stateName": "Telangana",
    "districtCode": "S2912",
    "districtName": "Medak",
    "acNumber": 34,
    "acName": "Medak",
    "partNumber": 230,
    "partName": "Dongal Dharmaram",
    "lat": 18.0598339,
    "lon": 78.499369
  },
  {
    "partId": 75959,
    "stateCode": "S29",
    "stateName": "Telangana",
    "districtCode": "S2912",
    "districtName": "Medak",
    "acNumber": 34,
    "acName": "Medak",
    "partNumber": 231,
    "partName": "Dongal Dharmaram",
    "lat": 18.0598339,
    "lon": 78.499369
  },
  {
    "partId": 76293,
    "stateCode": "S29",
    "stateName": "Telangana",
    "districtCode": "S2912",
    "districtName": "Medak",
    "acNumber": 34,
    "acName": "Medak",
    "partNumber": 232,
    "partName": "Dongal Dharmaram",
    "lat": 18.0598339,
    "lon": 78.499369
  },
  {
    "partId": 76294,
    "stateCode": "S29",
    "stateName": "Telangana",
    "districtCode": "S2912",
    "districtName": "Medak",
    "acNumber": 34,
    "acName": "Medak",
    "partNumber": 233,
    "partName": "Shalipet",
    "lat": 18.0978065,
    "lon": 78.2334266
  },
  {
    "partId": 76295,
    "stateCode": "S29",
    "stateName": "Telangana",
    "districtCode": "S2912",
    "districtName": "Medak",
    "acNumber": 34,
    "acName": "Medak",
    "partNumber": 234,
    "partName": "Shalipet",
    "lat": 18.0978065,
    "lon": 78.2334266
  },
  {
    "partId": 76552,
    "stateCode": "S29",
    "stateName": "Telangana",
    "districtCode": "S2912",
    "districtName": "Medak",
    "acNumber": 34,
    "acName": "Medak",
    "partNumber": 235,
    "partName": "Shalipet",
    "lat": 18.0978065,
    "lon": 78.2334266
  },
  {
    "partId": 75961,
    "stateCode": "S29",
    "stateName": "Telangana",
    "districtCode": "S2912",
    "districtName": "Medak",
    "acNumber": 34,
    "acName": "Medak",
    "partNumber": 236,
    "partName": "Turkala Mandapur",
    "lat": 18.0458792,
    "lon": 78.2651993
  },
  {
    "partId": 75963,
    "stateCode": "S29",
    "stateName": "Telangana",
    "districtCode": "S2912",
    "districtName": "Medak",
    "acNumber": 34,
    "acName": "Medak",
    "partNumber": 237,
    "partName": "Turkala Mandapur Thanda",
    "lat": 18.0458792,
    "lon": 78.2651993
  },
  {
    "partId": 75965,
    "stateCode": "S29",
    "stateName": "Telangana",
    "districtCode": "S2912",
    "districtName": "Medak",
    "acNumber": 34,
    "acName": "Medak",
    "partNumber": 238,
    "partName": "Khajipally",
    "lat": 18.0116232,
    "lon": 78.315804
  },
  {
    "partId": 76574,
    "stateCode": "S29",
    "stateName": "Telangana",
    "districtCode": "S2912",
    "districtName": "Medak",
    "acNumber": 34,
    "acName": "Medak",
    "partNumber": 239,
    "partName": "pashapur",
    "lat": 18.0257076,
    "lon": 78.3293926
  },
  {
    "partId": 75967,
    "stateCode": "S29",
    "stateName": "Telangana",
    "districtCode": "S2912",
    "districtName": "Medak",
    "acNumber": 34,
    "acName": "Medak",
    "partNumber": 240,
    "partName": "Khajipally",
    "lat": 18.0116232,
    "lon": 78.315804
  },
  {
    "partId": 76553,
    "stateCode": "S29",
    "stateName": "Telangana",
    "districtCode": "S2912",
    "districtName": "Medak",
    "acNumber": 34,
    "acName": "Medak",
    "partNumber": 241,
    "partName": "Rajpally",
    "lat": 18.0208427,
    "lon": 78.2949337
  },
  {
    "partId": 76554,
    "stateCode": "S29",
    "stateName": "Telangana",
    "districtCode": "S2912",
    "districtName": "Medak",
    "acNumber": 34,
    "acName": "Medak",
    "partNumber": 242,
    "partName": "Rajpally",
    "lat": 18.0208427,
    "lon": 78.2949337
  },
  {
    "partId": 76555,
    "stateCode": "S29",
    "stateName": "Telangana",
    "districtCode": "S2912",
    "districtName": "Medak",
    "acNumber": 34,
    "acName": "Medak",
    "partNumber": 243,
    "partName": "Rajpally",
    "lat": 18.050404878413282,
    "lon": 78.28514587180536
  },
  {
    "partId": 76556,
    "stateCode": "S29",
    "stateName": "Telangana",
    "districtCode": "S2912",
    "districtName": "Medak",
    "acNumber": 34,
    "acName": "Medak",
    "partNumber": 244,
    "partName": "Balanagar",
    "lat": 18.0018724,
    "lon": 78.2873322
  },
  {
    "partId": 75969,
    "stateCode": "S29",
    "stateName": "Telangana",
    "districtCode": "S2912",
    "districtName": "Medak",
    "acNumber": 34,
    "acName": "Medak",
    "partNumber": 245,
    "partName": "S.Kondapur",
    "lat": 17.9858264,
    "lon": 78.348397
  },
  {
    "partId": 75971,
    "stateCode": "S29",
    "stateName": "Telangana",
    "districtCode": "S2912",
    "districtName": "Medak",
    "acNumber": 34,
    "acName": "Medak",
    "partNumber": 246,
    "partName": "S.Kondapur",
    "lat": 17.9858264,
    "lon": 78.348397
  },
  {
    "partId": 75973,
    "stateCode": "S29",
    "stateName": "Telangana",
    "districtCode": "S2912",
    "districtName": "Medak",
    "acNumber": 34,
    "acName": "Medak",
    "partNumber": 247,
    "partName": "Gajagatlapally",
    "lat": 18.0458792,
    "lon": 78.2651993
  },
  {
    "partId": 75975,
    "stateCode": "S29",
    "stateName": "Telangana",
    "districtCode": "S2912",
    "districtName": "Medak",
    "acNumber": 34,
    "acName": "Medak",
    "partNumber": 248,
    "partName": "Venkatraopalli",
    "lat": 18.0458792,
    "lon": 78.2651993
  },
  {
    "partId": 76557,
    "stateCode": "S29",
    "stateName": "Telangana",
    "districtCode": "S2912",
    "districtName": "Medak",
    "acNumber": 34,
    "acName": "Medak",
    "partNumber": 249,
    "partName": "Chennaipally",
    "lat": 18.050404878413282,
    "lon": 78.28514587180536
  },
  {
    "partId": 76558,
    "stateCode": "S29",
    "stateName": "Telangana",
    "districtCode": "S2912",
    "districtName": "Medak",
    "acNumber": 34,
    "acName": "Medak",
    "partNumber": 250,
    "partName": "Sheripally",
    "lat": 18.0282967,
    "lon": 78.4149009
  },
  {
    "partId": 76559,
    "stateCode": "S29",
    "stateName": "Telangana",
    "districtCode": "S2912",
    "districtName": "Medak",
    "acNumber": 34,
    "acName": "Medak",
    "partNumber": 251,
    "partName": "Sheripally",
    "lat": 18.0282967,
    "lon": 78.4149009
  },
  {
    "partId": 75977,
    "stateCode": "S29",
    "stateName": "Telangana",
    "districtCode": "S2912",
    "districtName": "Medak",
    "acNumber": 34,
    "acName": "Medak",
    "partNumber": 252,
    "partName": "Mirzapally",
    "lat": 18.0177713,
    "lon": 78.4135241
  },
  {
    "partId": 75979,
    "stateCode": "S29",
    "stateName": "Telangana",
    "districtCode": "S2912",
    "districtName": "Medak",
    "acNumber": 34,
    "acName": "Medak",
    "partNumber": 253,
    "partName": "Mirzapally",
    "lat": 18.0177713,
    "lon": 78.4135241
  },
  {
    "partId": 75981,
    "stateCode": "S29",
    "stateName": "Telangana",
    "districtCode": "S2912",
    "districtName": "Medak",
    "acNumber": 34,
    "acName": "Medak",
    "partNumber": 254,
    "partName": "Mirzapally Thanda",
    "lat": 18.0458792,
    "lon": 78.2651993
  },
  {
    "partId": 76560,
    "stateCode": "S29",
    "stateName": "Telangana",
    "districtCode": "S2912",
    "districtName": "Medak",
    "acNumber": 34,
    "acName": "Medak",
    "partNumber": 255,
    "partName": "Kamaram",
    "lat": 18.0458792,
    "lon": 78.2651993
  },
  {
    "partId": 75983,
    "stateCode": "S29",
    "stateName": "Telangana",
    "districtCode": "S2912",
    "districtName": "Medak",
    "acNumber": 34,
    "acName": "Medak",
    "partNumber": 256,
    "partName": "Sangaipally",
    "lat": 18.0458792,
    "lon": 78.2651993
  },
  {
    "partId": 76561,
    "stateCode": "S29",
    "stateName": "Telangana",
    "districtCode": "S2912",
    "districtName": "Medak",
    "acNumber": 34,
    "acName": "Medak",
    "partNumber": 257,
    "partName": "Madoor",
    "lat": 18.0170159,
    "lon": 78.3883055
  },
  {
    "partId": 75985,
    "stateCode": "S29",
    "stateName": "Telangana",
    "districtCode": "S2912",
    "districtName": "Medak",
    "acNumber": 34,
    "acName": "Medak",
    "partNumber": 258,
    "partName": "Korvipally",
    "lat": 17.9998217,
    "lon": 78.366302
  },
  {
    "partId": 76562,
    "stateCode": "S29",
    "stateName": "Telangana",
    "districtCode": "S2912",
    "districtName": "Medak",
    "acNumber": 34,
    "acName": "Medak",
    "partNumber": 259,
    "partName": "Gavvalapally",
    "lat": 17.991772,
    "lon": 78.3833715
  },
  {
    "partId": 76563,
    "stateCode": "S29",
    "stateName": "Telangana",
    "districtCode": "S2912",
    "districtName": "Medak",
    "acNumber": 34,
    "acName": "Medak",
    "partNumber": 260,
    "partName": "Gavvalapally",
    "lat": 17.991772,
    "lon": 78.3833715
  },
  {
    "partId": 76564,
    "stateCode": "S29",
    "stateName": "Telangana",
    "districtCode": "S2912",
    "districtName": "Medak",
    "acNumber": 34,
    "acName": "Medak",
    "partNumber": 261,
    "partName": "Nadimithanda",
    "lat": 18.0458792,
    "lon": 78.2651993
  },
  {
    "partId": 75987,
    "stateCode": "S29",
    "stateName": "Telangana",
    "districtCode": "S2912",
    "districtName": "Medak",
    "acNumber": 34,
    "acName": "Medak",
    "partNumber": 262,
    "partName": "Shankarampet (R)",
    "lat": 17.993044750000003,
    "lon": 78.38479318641711
  },
  {
    "partId": 75989,
    "stateCode": "S29",
    "stateName": "Telangana",
    "districtCode": "S2912",
    "districtName": "Medak",
    "acNumber": 34,
    "acName": "Medak",
    "partNumber": 263,
    "partName": "Ambajipet",
    "lat": 17.9928581,
    "lon": 78.3890335
  },
  {
    "partId": 75991,
    "stateCode": "S29",
    "stateName": "Telangana",
    "districtCode": "S2912",
    "districtName": "Medak",
    "acNumber": 34,
    "acName": "Medak",
    "partNumber": 264,
    "partName": "Shankarampet (R)",
    "lat": 17.993044750000003,
    "lon": 78.38479318641711
  },
  {
    "partId": 76565,
    "stateCode": "S29",
    "stateName": "Telangana",
    "districtCode": "S2912",
    "districtName": "Medak",
    "acNumber": 34,
    "acName": "Medak",
    "partNumber": 265,
    "partName": "Mallupally",
    "lat": 18.1505576,
    "lon": 78.4545953
  },
  {
    "partId": 76566,
    "stateCode": "S29",
    "stateName": "Telangana",
    "districtCode": "S2912",
    "districtName": "Medak",
    "acNumber": 34,
    "acName": "Medak",
    "partNumber": 266,
    "partName": "Kamaram Thanda",
    "lat": 18.0458792,
    "lon": 78.2651993
  },
  {
    "partId": 76567,
    "stateCode": "S29",
    "stateName": "Telangana",
    "districtCode": "S2912",
    "districtName": "Medak",
    "acNumber": 34,
    "acName": "Medak",
    "partNumber": 267,
    "partName": "Rudraram",
    "lat": 17.9788778,
    "lon": 78.417937
  },
  {
    "partId": 76568,
    "stateCode": "S29",
    "stateName": "Telangana",
    "districtCode": "S2912",
    "districtName": "Medak",
    "acNumber": 34,
    "acName": "Medak",
    "partNumber": 268,
    "partName": "Shankarampet (R)",
    "lat": 17.993044750000003,
    "lon": 78.38479318641711
  },
  {
    "partId": 75993,
    "stateCode": "S29",
    "stateName": "Telangana",
    "districtCode": "S2912",
    "districtName": "Medak",
    "acNumber": 34,
    "acName": "Medak",
    "partNumber": 269,
    "partName": "Chandhapur",
    "lat": 18.0458792,
    "lon": 78.2651993
  },
  {
    "partId": 75995,
    "stateCode": "S29",
    "stateName": "Telangana",
    "districtCode": "S2912",
    "districtName": "Medak",
    "acNumber": 34,
    "acName": "Medak",
    "partNumber": 270,
    "partName": "Chandampet",
    "lat": 17.9692441,
    "lon": 78.4234087
  },
  {
    "partId": 75997,
    "stateCode": "S29",
    "stateName": "Telangana",
    "districtCode": "S2912",
    "districtName": "Medak",
    "acNumber": 34,
    "acName": "Medak",
    "partNumber": 271,
    "partName": "Chandampet",
    "lat": 17.9692441,
    "lon": 78.4234087
  },
  {
    "partId": 75999,
    "stateCode": "S29",
    "stateName": "Telangana",
    "districtCode": "S2912",
    "districtName": "Medak",
    "acNumber": 34,
    "acName": "Medak",
    "partNumber": 272,
    "partName": "Jangarai",
    "lat": 17.9572085,
    "lon": 78.3788329
  },
  {
    "partId": 76569,
    "stateCode": "S29",
    "stateName": "Telangana",
    "districtCode": "S2912",
    "districtName": "Medak",
    "acNumber": 34,
    "acName": "Medak",
    "partNumber": 273,
    "partName": "Jangarai Thanda",
    "lat": 18.0458792,
    "lon": 78.2651993
  },
  {
    "partId": 76570,
    "stateCode": "S29",
    "stateName": "Telangana",
    "districtCode": "S2912",
    "districtName": "Medak",
    "acNumber": 34,
    "acName": "Medak",
    "partNumber": 274,
    "partName": "Suraram",
    "lat": 17.9507303,
    "lon": 78.3995906
  },
  {
    "partId": 75849,
    "stateCode": "S29",
    "stateName": "Telangana",
    "districtCode": "S2912",
    "districtName": "Medak",
    "acNumber": 34,
    "acName": "Medak",
    "partNumber": 275,
    "partName": "Suraram",
    "lat": 17.9507303,
    "lon": 78.3995906
  },
  {
    "partId": 75915,
    "stateCode": "S29",
    "stateName": "Telangana",
    "districtCode": "S2912",
    "districtName": "Medak",
    "acNumber": 34,
    "acName": "Medak",
    "partNumber": 276,
    "partName": "Bhagirthipally",
    "lat": 18.0458792,
    "lon": 78.2651993
  },
  {
    "partId": 76001,
    "stateCode": "S29",
    "stateName": "Telangana",
    "districtCode": "S2912",
    "districtName": "Medak",
    "acNumber": 34,
    "acName": "Medak",
    "partNumber": 277,
    "partName": "Dharipally",
    "lat": 17.9204736,
    "lon": 78.3934392
  },
  {
    "partId": 76003,
    "stateCode": "S29",
    "stateName": "Telangana",
    "districtCode": "S2912",
    "districtName": "Medak",
    "acNumber": 34,
    "acName": "Medak",
    "partNumber": 278,
    "partName": "Dharipally",
    "lat": 17.9204736,
    "lon": 78.3934392
  },
  {
    "partId": 65696,
    "stateCode": "S29",
    "stateName": "Telangana",
    "districtCode": "S2912",
    "districtName": "Medak",
    "acNumber": 37,
    "acName": "Narsapur",
    "partNumber": 1,
    "partName": "Kistapur",
    "lat": 17.7384006,
    "lon": 78.279637
  },
  {
    "partId": 65697,
    "stateCode": "S29",
    "stateName": "Telangana",
    "districtCode": "S2912",
    "districtName": "Medak",
    "acNumber": 37,
    "acName": "Narsapur",
    "partNumber": 2,
    "partName": "Kistapur",
    "lat": 18.0426244,
    "lon": 78.5213445
  },
  {
    "partId": 65977,
    "stateCode": "S29",
    "stateName": "Telangana",
    "districtCode": "S2912",
    "districtName": "Medak",
    "acNumber": 37,
    "acName": "Narsapur",
    "partNumber": 3,
    "partName": "Potamshetpally",
    "lat": 17.7384006,
    "lon": 78.279637
  },
  {
    "partId": 65978,
    "stateCode": "S29",
    "stateName": "Telangana",
    "districtCode": "S2912",
    "districtName": "Medak",
    "acNumber": 37,
    "acName": "Narsapur",
    "partNumber": 4,
    "partName": "Potamsetpally",
    "lat": 17.784274936654136,
    "lon": 78.27636689987816
  },
  {
    "partId": 65979,
    "stateCode": "S29",
    "stateName": "Telangana",
    "districtCode": "S2912",
    "districtName": "Medak",
    "acNumber": 37,
    "acName": "Narsapur",
    "partNumber": 5,
    "partName": "Rampur",
    "lat": 18.1755582,
    "lon": 78.5701632
  },
  {
    "partId": 65698,
    "stateCode": "S29",
    "stateName": "Telangana",
    "districtCode": "S2912",
    "districtName": "Medak",
    "acNumber": 37,
    "acName": "Narsapur",
    "partNumber": 6,
    "partName": "Amsanpalli",
    "lat": 17.7384006,
    "lon": 78.279637
  },
  {
    "partId": 65699,
    "stateCode": "S29",
    "stateName": "Telangana",
    "districtCode": "S2912",
    "districtName": "Medak",
    "acNumber": 37,
    "acName": "Narsapur",
    "partNumber": 7,
    "partName": "Amsanpally",
    "lat": 17.9436041,
    "lon": 78.2392725
  },
  {
    "partId": 65980,
    "stateCode": "S29",
    "stateName": "Telangana",
    "districtCode": "S2912",
    "districtName": "Medak",
    "acNumber": 37,
    "acName": "Narsapur",
    "partNumber": 8,
    "partName": "Nayani Jalalpur",
    "lat": 17.7384006,
    "lon": 78.279637
  },
  {
    "partId": 65981,
    "stateCode": "S29",
    "stateName": "Telangana",
    "districtCode": "S2912",
    "districtName": "Medak",
    "acNumber": 37,
    "acName": "Narsapur",
    "partNumber": 9,
    "partName": "Kongod",
    "lat": 17.7384006,
    "lon": 78.279637
  },
  {
    "partId": 65982,
    "stateCode": "S29",
    "stateName": "Telangana",
    "districtCode": "S2912",
    "districtName": "Medak",
    "acNumber": 37,
    "acName": "Narsapur",
    "partNumber": 10,
    "partName": "Shettipally Kalan",
    "lat": 17.7384006,
    "lon": 78.279637
  },
  {
    "partId": 65695,
    "stateCode": "S29",
    "stateName": "Telangana",
    "districtCode": "S2912",
    "districtName": "Medak",
    "acNumber": 37,
    "acName": "Narsapur",
    "partNumber": 11,
    "partName": "Shettipally Kalan",
    "lat": 17.7384006,
    "lon": 78.279637
  },
  {
    "partId": 65700,
    "stateCode": "S29",
    "stateName": "Telangana",
    "districtCode": "S2912",
    "districtName": "Medak",
    "acNumber": 37,
    "acName": "Narsapur",
    "partNumber": 12,
    "partName": "Edulapally",
    "lat": 17.7384006,
    "lon": 78.279637
  },
  {
    "partId": 65701,
    "stateCode": "S29",
    "stateName": "Telangana",
    "districtCode": "S2912",
    "districtName": "Medak",
    "acNumber": 37,
    "acName": "Narsapur",
    "partNumber": 13,
    "partName": "Ramayipally",
    "lat": 17.7384006,
    "lon": 78.279637
  },
  {
    "partId": 65702,
    "stateCode": "S29",
    "stateName": "Telangana",
    "districtCode": "S2912",
    "districtName": "Medak",
    "acNumber": 37,
    "acName": "Narsapur",
    "partNumber": 14,
    "partName": "Ramayapalli",
    "lat": 17.7384006,
    "lon": 78.279637
  },
  {
    "partId": 65983,
    "stateCode": "S29",
    "stateName": "Telangana",
    "districtCode": "S2912",
    "districtName": "Medak",
    "acNumber": 37,
    "acName": "Narsapur",
    "partNumber": 15,
    "partName": "Uppulingapur",
    "lat": 17.784274936654136,
    "lon": 78.27636689987816
  },
  {
    "partId": 65703,
    "stateCode": "S29",
    "stateName": "Telangana",
    "districtCode": "S2912",
    "districtName": "Medak",
    "acNumber": 37,
    "acName": "Narsapur",
    "partNumber": 16,
    "partName": "Uppulingapur",
    "lat": 17.784274936654136,
    "lon": 78.27636689987816
  },
  {
    "partId": 65984,
    "stateCode": "S29",
    "stateName": "Telangana",
    "districtCode": "S2912",
    "districtName": "Medak",
    "acNumber": 37,
    "acName": "Narsapur",
    "partNumber": 17,
    "partName": "Achampet",
    "lat": 17.7676697,
    "lon": 78.3106375
  },
  {
    "partId": 65704,
    "stateCode": "S29",
    "stateName": "Telangana",
    "districtCode": "S2912",
    "districtName": "Medak",
    "acNumber": 37,
    "acName": "Narsapur",
    "partNumber": 18,
    "partName": "Hakimpet",
    "lat": 17.7384006,
    "lon": 78.279637
  },
  {
    "partId": 65985,
    "stateCode": "S29",
    "stateName": "Telangana",
    "districtCode": "S2912",
    "districtName": "Medak",
    "acNumber": 37,
    "acName": "Narsapur",
    "partNumber": 19,
    "partName": "Ramanthapur",
    "lat": 17.7384006,
    "lon": 78.279637
  },
  {
    "partId": 66128,
    "stateCode": "S29",
    "stateName": "Telangana",
    "districtCode": "S2912",
    "districtName": "Medak",
    "acNumber": 37,
    "acName": "Narsapur",
    "partNumber": 20,
    "partName": "Ramanthapur Thanda",
    "lat": 17.7384006,
    "lon": 78.279637
  },
  {
    "partId": 65986,
    "stateCode": "S29",
    "stateName": "Telangana",
    "districtCode": "S2912",
    "districtName": "Medak",
    "acNumber": 37,
    "acName": "Narsapur",
    "partNumber": 21,
    "partName": "Lingareddy Pally",
    "lat": 17.784274936654136,
    "lon": 78.27636689987816
  },
  {
    "partId": 65987,
    "stateCode": "S29",
    "stateName": "Telangana",
    "districtCode": "S2912",
    "districtName": "Medak",
    "acNumber": 37,
    "acName": "Narsapur",
    "partNumber": 22,
    "partName": "Masaipet(B.No..1,41 To 543/B),",
    "lat": 17.7384006,
    "lon": 78.279637
  },
  {
    "partId": 65705,
    "stateCode": "S29",
    "stateName": "Telangana",
    "districtCode": "S2912",
    "districtName": "Medak",
    "acNumber": 37,
    "acName": "Narsapur",
    "partNumber": 23,
    "partName": "Masaipet(B.No..2,3)",
    "lat": 17.7384006,
    "lon": 78.279637
  },
  {
    "partId": 65706,
    "stateCode": "S29",
    "stateName": "Telangana",
    "districtCode": "S2912",
    "districtName": "Medak",
    "acNumber": 37,
    "acName": "Narsapur",
    "partNumber": 24,
    "partName": "Masaipet",
    "lat": 17.9068482,
    "lon": 78.4633969
  },
  {
    "partId": 65707,
    "stateCode": "S29",
    "stateName": "Telangana",
    "districtCode": "S2912",
    "districtName": "Medak",
    "acNumber": 37,
    "acName": "Narsapur",
    "partNumber": 25,
    "partName": "Masaipet(B.No..536 To 67),",
    "lat": 17.7384006,
    "lon": 78.279637
  },
  {
    "partId": 65708,
    "stateCode": "S29",
    "stateName": "Telangana",
    "districtCode": "S2912",
    "districtName": "Medak",
    "acNumber": 37,
    "acName": "Narsapur",
    "partNumber": 26,
    "partName": "Masaipet",
    "lat": 17.9068482,
    "lon": 78.4633969
  },
  {
    "partId": 65988,
    "stateCode": "S29",
    "stateName": "Telangana",
    "districtCode": "S2912",
    "districtName": "Medak",
    "acNumber": 37,
    "acName": "Narsapur",
    "partNumber": 27,
    "partName": "Bommaram",
    "lat": 17.8916607,
    "lon": 78.4564341
  },
  {
    "partId": 65989,
    "stateCode": "S29",
    "stateName": "Telangana",
    "districtCode": "S2912",
    "districtName": "Medak",
    "acNumber": 37,
    "acName": "Narsapur",
    "partNumber": 28,
    "partName": "Koppulapalli",
    "lat": 17.7384006,
    "lon": 78.279637
  },
  {
    "partId": 65990,
    "stateCode": "S29",
    "stateName": "Telangana",
    "districtCode": "S2912",
    "districtName": "Medak",
    "acNumber": 37,
    "acName": "Narsapur",
    "partNumber": 29,
    "partName": "Koppulapally",
    "lat": 17.8937513,
    "lon": 78.4285319
  },
  {
    "partId": 65709,
    "stateCode": "S29",
    "stateName": "Telangana",
    "districtCode": "S2912",
    "districtName": "Medak",
    "acNumber": 37,
    "acName": "Narsapur",
    "partNumber": 30,
    "partName": "Mellur",
    "lat": 17.7384006,
    "lon": 78.279637
  },
  {
    "partId": 65710,
    "stateCode": "S29",
    "stateName": "Telangana",
    "districtCode": "S2912",
    "districtName": "Medak",
    "acNumber": 37,
    "acName": "Narsapur",
    "partNumber": 31,
    "partName": "Peddapur",
    "lat": 17.8878905,
    "lon": 78.3941668
  },
  {
    "partId": 65711,
    "stateCode": "S29",
    "stateName": "Telangana",
    "districtCode": "S2912",
    "districtName": "Medak",
    "acNumber": 37,
    "acName": "Narsapur",
    "partNumber": 32,
    "partName": "Hastalpur",
    "lat": 17.784274936654136,
    "lon": 78.27636689987816
  },
  {
    "partId": 65712,
    "stateCode": "S29",
    "stateName": "Telangana",
    "districtCode": "S2912",
    "districtName": "Medak",
    "acNumber": 37,
    "acName": "Narsapur",
    "partNumber": 33,
    "partName": "Shamshireddy Pally",
    "lat": 17.7384006,
    "lon": 78.279637
  },
  {
    "partId": 65976,
    "stateCode": "S29",
    "stateName": "Telangana",
    "districtCode": "S2912",
    "districtName": "Medak",
    "acNumber": 37,
    "acName": "Narsapur",
    "partNumber": 34,
    "partName": "Yeldurthi",
    "lat": 17.7384006,
    "lon": 78.279637
  },
  {
    "partId": 65713,
    "stateCode": "S29",
    "stateName": "Telangana",
    "districtCode": "S2912",
    "districtName": "Medak",
    "acNumber": 37,
    "acName": "Narsapur",
    "partNumber": 35,
    "partName": "Yeldurthi",
    "lat": 17.7384006,
    "lon": 78.279637
  },
  {
    "partId": 65714,
    "stateCode": "S29",
    "stateName": "Telangana",
    "districtCode": "S2912",
    "districtName": "Medak",
    "acNumber": 37,
    "acName": "Narsapur",
    "partNumber": 36,
    "partName": "Yeldurthi",
    "lat": 17.7384006,
    "lon": 78.279637
  },
  {
    "partId": 65715,
    "stateCode": "S29",
    "stateName": "Telangana",
    "districtCode": "S2912",
    "districtName": "Medak",
    "acNumber": 37,
    "acName": "Narsapur",
    "partNumber": 37,
    "partName": "Yeldurthi",
    "lat": 17.7384006,
    "lon": 78.279637
  },
  {
    "partId": 65716,
    "stateCode": "S29",
    "stateName": "Telangana",
    "districtCode": "S2912",
    "districtName": "Medak",
    "acNumber": 37,
    "acName": "Narsapur",
    "partNumber": 38,
    "partName": "Cherlapally",
    "lat": 17.7384006,
    "lon": 78.279637
  },
  {
    "partId": 65717,
    "stateCode": "S29",
    "stateName": "Telangana",
    "districtCode": "S2912",
    "districtName": "Medak",
    "acNumber": 37,
    "acName": "Narsapur",
    "partNumber": 39,
    "partName": "Yeldurthi",
    "lat": 17.7384006,
    "lon": 78.279637
  },
  {
    "partId": 65991,
    "stateCode": "S29",
    "stateName": "Telangana",
    "districtCode": "S2912",
    "districtName": "Medak",
    "acNumber": 37,
    "acName": "Narsapur",
    "partNumber": 40,
    "partName": "Aregudem",
    "lat": 17.7384006,
    "lon": 78.279637
  },
  {
    "partId": 65992,
    "stateCode": "S29",
    "stateName": "Telangana",
    "districtCode": "S2912",
    "districtName": "Medak",
    "acNumber": 37,
    "acName": "Narsapur",
    "partNumber": 41,
    "partName": "Mannevar Jalapur",
    "lat": 17.784274936654136,
    "lon": 78.27636689987816
  },
  {
    "partId": 65993,
    "stateCode": "S29",
    "stateName": "Telangana",
    "districtCode": "S2912",
    "districtName": "Medak",
    "acNumber": 37,
    "acName": "Narsapur",
    "partNumber": 42,
    "partName": "Mannevar Jalapur",
    "lat": 17.7384006,
    "lon": 78.279637
  },
  {
    "partId": 65718,
    "stateCode": "S29",
    "stateName": "Telangana",
    "districtCode": "S2912",
    "districtName": "Medak",
    "acNumber": 37,
    "acName": "Narsapur",
    "partNumber": 43,
    "partName": "Kukunoor",
    "lat": 17.9103033,
    "lon": 78.3418858
  },
  {
    "partId": 65719,
    "stateCode": "S29",
    "stateName": "Telangana",
    "districtCode": "S2912",
    "districtName": "Medak",
    "acNumber": 37,
    "acName": "Narsapur",
    "partNumber": 44,
    "partName": "Kukuoor",
    "lat": 17.784274936654136,
    "lon": 78.27636689987816
  },
  {
    "partId": 65720,
    "stateCode": "S29",
    "stateName": "Telangana",
    "districtCode": "S2912",
    "districtName": "Medak",
    "acNumber": 37,
    "acName": "Narsapur",
    "partNumber": 45,
    "partName": "Kukunoor",
    "lat": 17.9103033,
    "lon": 78.3418858
  },
  {
    "partId": 65994,
    "stateCode": "S29",
    "stateName": "Telangana",
    "districtCode": "S2912",
    "districtName": "Medak",
    "acNumber": 37,
    "acName": "Narsapur",
    "partNumber": 46,
    "partName": "Baswapur",
    "lat": 17.9116657,
    "lon": 78.343608
  },
  {
    "partId": 65995,
    "stateCode": "S29",
    "stateName": "Telangana",
    "districtCode": "S2912",
    "districtName": "Medak",
    "acNumber": 37,
    "acName": "Narsapur",
    "partNumber": 47,
    "partName": "Dharmaram",
    "lat": 17.9062222,
    "lon": 78.2963633
  },
  {
    "partId": 65996,
    "stateCode": "S29",
    "stateName": "Telangana",
    "districtCode": "S2912",
    "districtName": "Medak",
    "acNumber": 37,
    "acName": "Narsapur",
    "partNumber": 48,
    "partName": "Andugulapalli",
    "lat": 17.7384006,
    "lon": 78.279637
  },
  {
    "partId": 65721,
    "stateCode": "S29",
    "stateName": "Telangana",
    "districtCode": "S2912",
    "districtName": "Medak",
    "acNumber": 37,
    "acName": "Narsapur",
    "partNumber": 49,
    "partName": "Dhamarncha",
    "lat": 17.7384006,
    "lon": 78.279637
  },
  {
    "partId": 65722,
    "stateCode": "S29",
    "stateName": "Telangana",
    "districtCode": "S2912",
    "districtName": "Medak",
    "acNumber": 37,
    "acName": "Narsapur",
    "partNumber": 50,
    "partName": "Damarancha",
    "lat": 17.9429664,
    "lon": 78.3059184
  },
  {
    "partId": 65723,
    "stateCode": "S29",
    "stateName": "Telangana",
    "districtCode": "S2912",
    "districtName": "Medak",
    "acNumber": 37,
    "acName": "Narsapur",
    "partNumber": 51,
    "partName": "Potiredypalli  Tummalapalli",
    "lat": 17.7384006,
    "lon": 78.279637
  },
  {
    "partId": 65997,
    "stateCode": "S29",
    "stateName": "Telangana",
    "districtCode": "S2912",
    "districtName": "Medak",
    "acNumber": 37,
    "acName": "Narsapur",
    "partNumber": 52,
    "partName": "Kulcharam",
    "lat": 17.9552947,
    "lon": 78.1984351
  },
  {
    "partId": 65998,
    "stateCode": "S29",
    "stateName": "Telangana",
    "districtCode": "S2912",
    "districtName": "Medak",
    "acNumber": 37,
    "acName": "Narsapur",
    "partNumber": 53,
    "partName": "Kulchram",
    "lat": 17.7384006,
    "lon": 78.279637
  },
  {
    "partId": 65999,
    "stateCode": "S29",
    "stateName": "Telangana",
    "districtCode": "S2912",
    "districtName": "Medak",
    "acNumber": 37,
    "acName": "Narsapur",
    "partNumber": 54,
    "partName": "Kulcharam",
    "lat": 17.9552947,
    "lon": 78.1984351
  },
  {
    "partId": 65724,
    "stateCode": "S29",
    "stateName": "Telangana",
    "districtCode": "S2912",
    "districtName": "Medak",
    "acNumber": 37,
    "acName": "Narsapur",
    "partNumber": 55,
    "partName": "Venkatapur",
    "lat": 18.0134252,
    "lon": 78.0480923
  },
  {
    "partId": 65725,
    "stateCode": "S29",
    "stateName": "Telangana",
    "districtCode": "S2912",
    "districtName": "Medak",
    "acNumber": 37,
    "acName": "Narsapur",
    "partNumber": 56,
    "partName": "Appajipally",
    "lat": 17.9803489,
    "lon": 77.967653
  },
  {
    "partId": 65726,
    "stateCode": "S29",
    "stateName": "Telangana",
    "districtCode": "S2912",
    "districtName": "Medak",
    "acNumber": 37,
    "acName": "Narsapur",
    "partNumber": 57,
    "partName": "Chinnaghanapur",
    "lat": 17.7384006,
    "lon": 78.279637
  },
  {
    "partId": 65727,
    "stateCode": "S29",
    "stateName": "Telangana",
    "districtCode": "S2912",
    "districtName": "Medak",
    "acNumber": 37,
    "acName": "Narsapur",
    "partNumber": 58,
    "partName": "Chinnaghanapur",
    "lat": 17.7384006,
    "lon": 78.279637
  },
  {
    "partId": 66000,
    "stateCode": "S29",
    "stateName": "Telangana",
    "districtCode": "S2912",
    "districtName": "Medak",
    "acNumber": 37,
    "acName": "Narsapur",
    "partNumber": 59,
    "partName": "Variguntham",
    "lat": 17.9436774,
    "lon": 78.1704203
  },
  {
    "partId": 66001,
    "stateCode": "S29",
    "stateName": "Telangana",
    "districtCode": "S2912",
    "districtName": "Medak",
    "acNumber": 37,
    "acName": "Narsapur",
    "partNumber": 60,
    "partName": "Variguntham",
    "lat": 17.784274936654136,
    "lon": 78.27636689987816
  },
  {
    "partId": 66002,
    "stateCode": "S29",
    "stateName": "Telangana",
    "districtCode": "S2912",
    "districtName": "Medak",
    "acNumber": 37,
    "acName": "Narsapur",
    "partNumber": 61,
    "partName": "Sitharam Thanda",
    "lat": 17.7384006,
    "lon": 78.279637
  },
  {
    "partId": 66003,
    "stateCode": "S29",
    "stateName": "Telangana",
    "districtCode": "S2912",
    "districtName": "Medak",
    "acNumber": 37,
    "acName": "Narsapur",
    "partNumber": 62,
    "partName": "Sangaipet",
    "lat": 17.9554538,
    "lon": 78.1318455
  },
  {
    "partId": 65728,
    "stateCode": "S29",
    "stateName": "Telangana",
    "districtCode": "S2912",
    "districtName": "Medak",
    "acNumber": 37,
    "acName": "Narsapur",
    "partNumber": 63,
    "partName": "Sangaipet",
    "lat": 17.9554538,
    "lon": 78.1318455
  },
  {
    "partId": 66130,
    "stateCode": "S29",
    "stateName": "Telangana",
    "districtCode": "S2912",
    "districtName": "Medak",
    "acNumber": 37,
    "acName": "Narsapur",
    "partNumber": 64,
    "partName": "Sangaipet Thanda",
    "lat": 17.953719,
    "lon": 78.1309086
  },
  {
    "partId": 65729,
    "stateCode": "S29",
    "stateName": "Telangana",
    "districtCode": "S2912",
    "districtName": "Medak",
    "acNumber": 37,
    "acName": "Narsapur",
    "partNumber": 65,
    "partName": "Rangampet",
    "lat": 17.947299,
    "lon": 78.1162363
  },
  {
    "partId": 65730,
    "stateCode": "S29",
    "stateName": "Telangana",
    "districtCode": "S2912",
    "districtName": "Medak",
    "acNumber": 37,
    "acName": "Narsapur",
    "partNumber": 66,
    "partName": "Rangampet",
    "lat": 17.784274936654136,
    "lon": 78.27636689987816
  },
  {
    "partId": 66004,
    "stateCode": "S29",
    "stateName": "Telangana",
    "districtCode": "S2912",
    "districtName": "Medak",
    "acNumber": 37,
    "acName": "Narsapur",
    "partNumber": 67,
    "partName": "Rangampet",
    "lat": 17.947299,
    "lon": 78.1162363
  },
  {
    "partId": 66005,
    "stateCode": "S29",
    "stateName": "Telangana",
    "districtCode": "S2912",
    "districtName": "Medak",
    "acNumber": 37,
    "acName": "Narsapur",
    "partNumber": 68,
    "partName": "Pithara",
    "lat": 17.7384006,
    "lon": 78.279637
  },
  {
    "partId": 66006,
    "stateCode": "S29",
    "stateName": "Telangana",
    "districtCode": "S2912",
    "districtName": "Medak",
    "acNumber": 37,
    "acName": "Narsapur",
    "partNumber": 69,
    "partName": "Tukkapur",
    "lat": 17.7384006,
    "lon": 78.279637
  },
  {
    "partId": 65731,
    "stateCode": "S29",
    "stateName": "Telangana",
    "districtCode": "S2912",
    "districtName": "Medak",
    "acNumber": 37,
    "acName": "Narsapur",
    "partNumber": 70,
    "partName": "Konapur",
    "lat": 18.119502,
    "lon": 78.478527
  },
  {
    "partId": 65732,
    "stateCode": "S29",
    "stateName": "Telangana",
    "districtCode": "S2912",
    "districtName": "Medak",
    "acNumber": 37,
    "acName": "Narsapur",
    "partNumber": 71,
    "partName": "Etigadda Mandapoor",
    "lat": 17.7384006,
    "lon": 78.279637
  },
  {
    "partId": 66007,
    "stateCode": "S29",
    "stateName": "Telangana",
    "districtCode": "S2912",
    "districtName": "Medak",
    "acNumber": 37,
    "acName": "Narsapur",
    "partNumber": 72,
    "partName": "Yenigandla",
    "lat": 17.9196812,
    "lon": 78.0896983
  },
  {
    "partId": 66008,
    "stateCode": "S29",
    "stateName": "Telangana",
    "districtCode": "S2912",
    "districtName": "Medak",
    "acNumber": 37,
    "acName": "Narsapur",
    "partNumber": 73,
    "partName": "Yanagandla",
    "lat": 17.7384006,
    "lon": 78.279637
  },
  {
    "partId": 66009,
    "stateCode": "S29",
    "stateName": "Telangana",
    "districtCode": "S2912",
    "districtName": "Medak",
    "acNumber": 37,
    "acName": "Narsapur",
    "partNumber": 74,
    "partName": "Yanigandla",
    "lat": 17.7384006,
    "lon": 78.279637
  },