[
  {
    "partId": 31737,
    "stateCode": "S29",
    "stateName": "Telangana",
    "districtCode": "S2932",
    "districtName": "Mulugu",
    "acNumber": 109,
    "acName": "Mulug",
    "partNumber": 1,
    "partName": "Peddapur,",
    "lat": 18.1585442,
    "lon": 79.94821824374174
  },
  {
    "partId": 31888,
    "stateCode": "S29",
    "stateName": "Telangana",
    "districtCode": "S2932",
    "districtName": "Mulugu",
    "acNumber": 109,
    "acName": "Mulug",
    "partNumber": 2,
    "partName": "Peddapur",
    "lat": 18.1585442,
    "lon": 79.94821824374174
  },
  {
    "partId": 31738,
    "stateCode": "S29",
    "stateName": "Telangana",
    "districtCode": "S2932",
    "districtName": "Mulugu",
    "acNumber": 109,
    "acName": "Mulug",
    "partNumber": 3,
    "partName": "Peddapur,",
    "lat": 18.1585442,
    "lon": 79.94821824374174
  },
  {
    "partId": 31889,
    "stateCode": "S29",
    "stateName": "Telangana",
    "districtCode": "S2932",
    "districtName": "Mulugu",
    "acNumber": 109,
    "acName": "Mulug",
    "partNumber": 4,
    "partName": "Gurrampet H/O Peddapur,",
    "lat": 18.1585442,
    "lon": 79.94821824374174
  },
  {
    "partId": 31739,
    "stateCode": "S29",
    "stateName": "Telangana",
    "districtCode": "S2932",
    "districtName": "Mulugu",
    "acNumber": 109,
    "acName": "Mulug",
    "partNumber": 5,
    "partName": "Gurrampet H/O Peddapur,",
    "lat": 18.1585442,
    "lon": 79.94821824374174
  },
  {
    "partId": 31890,
    "stateCode": "S29",
    "stateName": "Telangana",
    "districtCode": "S2932",
    "districtName": "Mulugu",
    "acNumber": 109,
    "acName": "Mulug",
    "partNumber": 6,
    "partName": "Adavirangapur ,",
    "lat": 18.1585442,
    "lon": 79.94821824374174
  },
  {
    "partId": 31891,
    "stateCode": "S29",
    "stateName": "Telangana",
    "districtCode": "S2932",
    "districtName": "Mulugu",
    "acNumber": 109,
    "acName": "Mulug",
    "partNumber": 7,
    "partName": "Venkateshwarlapally",
    "lat": 18.1585442,
    "lon": 79.94821824374174
  },
  {
    "partId": 31892,
    "stateCode": "S29",
    "stateName": "Telangana",
    "districtCode": "S2932",
    "districtName": "Mulugu",
    "acNumber": 109,
    "acName": "Mulug",
    "partNumber": 8,
    "partName": "Thimmapur",
    "lat": 18.3297688,
    "lon": 79.9762738
  },
  {
    "partId": 31740,
    "stateCode": "S29",
    "stateName": "Telangana",
    "districtCode": "S2932",
    "districtName": "Mulugu",
    "acNumber": 109,
    "acName": "Mulug",
    "partNumber": 9,
    "partName": "Laxmidevipet,",
    "lat": 18.2988154,
    "lon": 79.9641824
  },
  {
    "partId": 31741,
    "stateCode": "S29",
    "stateName": "Telangana",
    "districtCode": "S2932",
    "districtName": "Mulugu",
    "acNumber": 109,
    "acName": "Mulug",
    "partNumber": 10,
    "partName": "Laxmidevipet",
    "lat": 18.2988154,
    "lon": 79.9641824
  },
  {
    "partId": 31893,
    "stateCode": "S29",
    "stateName": "Telangana",
    "districtCode": "S2932",
    "districtName": "Mulugu",
    "acNumber": 109,
    "acName": "Mulug",
    "partNumber": 11,
    "partName": "Ramanath Palli",
    "lat": 18.1585442,
    "lon": 79.94821824374174
  },
  {
    "partId": 31894,
    "stateCode": "S29",
    "stateName": "Telangana",
    "districtCode": "S2932",
    "districtName": "Mulugu",
    "acNumber": 109,
    "acName": "Mulug",
    "partNumber": 12,
    "partName": "Laxmidevipet,",
    "lat": 18.2988154,
    "lon": 79.9641824
  },
  {
    "partId": 31895,
    "stateCode": "S29",
    "stateName": "Telangana",
    "districtCode": "S2932",
    "districtName": "Mulugu",
    "acNumber": 109,
    "acName": "Mulug",
    "partNumber": 13,
    "partName": "Patwaripally",
    "lat": 18.1585442,
    "lon": 79.94821824374174
  },
  {
    "partId": 31742,
    "stateCode": "S29",
    "stateName": "Telangana",
    "districtCode": "S2932",
    "districtName": "Mulugu",
    "acNumber": 109,
    "acName": "Mulug",
    "partNumber": 14,
    "partName": "Boorgupet H/O Laxmidevipeta ,",
    "lat": 18.1585442,
    "lon": 79.94821824374174
  },
  {
    "partId": 31743,
    "stateCode": "S29",
    "stateName": "Telangana",
    "districtCode": "S2932",
    "districtName": "Mulugu",
    "acNumber": 109,
    "acName": "Mulug",
    "partNumber": 15,
    "partName": "Burugu Pet",
    "lat": 18.1585442,
    "lon": 79.94821824374174
  },
  {
    "partId": 31744,
    "stateCode": "S29",
    "stateName": "Telangana",
    "districtCode": "S2932",
    "districtName": "Mulugu",
    "acNumber": 109,
    "acName": "Mulug",
    "partNumber": 16,
    "partName": "Bayyakkapet",
    "lat": 18.3461549,
    "lon": 80.1372385
  },
  {
    "partId": 31896,
    "stateCode": "S29",
    "stateName": "Telangana",
    "districtCode": "S2932",
    "districtName": "Mulugu",
    "acNumber": 109,
    "acName": "Mulug",
    "partNumber": 17,
    "partName": "Naarlaapur,",
    "lat": 18.1585442,
    "lon": 79.94821824374174
  },
  {
    "partId": 31897,
    "stateCode": "S29",
    "stateName": "Telangana",
    "districtCode": "S2932",
    "districtName": "Mulugu",
    "acNumber": 109,
    "acName": "Mulug",
    "partNumber": 18,
    "partName": "Narlapur",
    "lat": 18.3089403,
    "lon": 80.2057636
  },
  {
    "partId": 31745,
    "stateCode": "S29",
    "stateName": "Telangana",
    "districtCode": "S2932",
    "districtName": "Mulugu",
    "acNumber": 109,
    "acName": "Mulug",
    "partNumber": 19,
    "partName": "Kaalvapalli,",
    "lat": 18.1585442,
    "lon": 79.94821824374174
  },
  {
    "partId": 31898,
    "stateCode": "S29",
    "stateName": "Telangana",
    "districtCode": "S2932",
    "districtName": "Mulugu",
    "acNumber": 109,
    "acName": "Mulug",
    "partNumber": 20,
    "partName": "Medaaram,",
    "lat": 18.1585442,
    "lon": 79.94821824374174
  },
  {
    "partId": 31746,
    "stateCode": "S29",
    "stateName": "Telangana",
    "districtCode": "S2932",
    "districtName": "Mulugu",
    "acNumber": 109,
    "acName": "Mulug",
    "partNumber": 21,
    "partName": "Medaram",
    "lat": 18.3210227,
    "lon": 80.2428143
  },
  {
    "partId": 31899,
    "stateCode": "S29",
    "stateName": "Telangana",
    "districtCode": "S2932",
    "districtName": "Mulugu",
    "acNumber": 109,
    "acName": "Mulug",
    "partNumber": 22,
    "partName": "Thupaakulagoodem,",
    "lat": 18.1585442,
    "lon": 79.94821824374174
  },
  {
    "partId": 31747,
    "stateCode": "S29",
    "stateName": "Telangana",
    "districtCode": "S2932",
    "districtName": "Mulugu",
    "acNumber": 109,
    "acName": "Mulug",
    "partNumber": 23,
    "partName": "Lakshmi Pur Devadumula",
    "lat": 18.1585442,
    "lon": 79.94821824374174
  },
  {
    "partId": 31748,
    "stateCode": "S29",
    "stateName": "Telangana",
    "districtCode": "S2932",
    "districtName": "Mulugu",
    "acNumber": 109,
    "acName": "Mulug",
    "partNumber": 24,
    "partName": "Kannayigudem,",
    "lat": 18.1585442,
    "lon": 79.94821824374174
  },
  {
    "partId": 31749,
    "stateCode": "S29",
    "stateName": "Telangana",
    "districtCode": "S2932",
    "districtName": "Mulugu",
    "acNumber": 109,
    "acName": "Mulug",
    "partNumber": 25,
    "partName": "Kannaigudem",
    "lat": 18.1558134,
    "lon": 80.0366409
  },
  {
    "partId": 31900,
    "stateCode": "S29",
    "stateName": "Telangana",
    "districtCode": "S2932",
    "districtName": "Mulugu",
    "acNumber": 109,
    "acName": "Mulug",
    "partNumber": 26,
    "partName": "Chityala,",
    "lat": 18.1585442,
    "lon": 79.94821824374174
  },
  {
    "partId": 31901,
    "stateCode": "S29",
    "stateName": "Telangana",
    "districtCode": "S2932",
    "districtName": "Mulugu",
    "acNumber": 109,
    "acName": "Mulug",
    "partNumber": 27,
    "partName": "Bhupatipur",
    "lat": 18.1585442,
    "lon": 79.94821824374174
  },
  {
    "partId": 31750,
    "stateCode": "S29",
    "stateName": "Telangana",
    "districtCode": "S2932",
    "districtName": "Mulugu",
    "acNumber": 109,
    "acName": "Mulug",
    "partNumber": 28,
    "partName": "Muppana Palli,",
    "lat": 18.1585442,
    "lon": 79.94821824374174
  },
  {
    "partId": 31751,
    "stateCode": "S29",
    "stateName": "Telangana",
    "districtCode": "S2932",
    "districtName": "Mulugu",
    "acNumber": 109,
    "acName": "Mulug",
    "partNumber": 29,
    "partName": "Buttayigudem,",
    "lat": 18.1585442,
    "lon": 79.94821824374174
  },
  {
    "partId": 31752,
    "stateCode": "S29",
    "stateName": "Telangana",
    "districtCode": "S2932",
    "districtName": "Mulugu",
    "acNumber": 109,
    "acName": "Mulug",
    "partNumber": 30,
    "partName": "Buttaigudem",
    "lat": 18.5022834,
    "lon": 80.3430672
  },
  {
    "partId": 31902,
    "stateCode": "S29",
    "stateName": "Telangana",
    "districtCode": "S2932",
    "districtName": "Mulugu",
    "acNumber": 109,
    "acName": "Mulug",
    "partNumber": 31,
    "partName": "Kothur H/O Buttayagudem,",
    "lat": 18.1585442,
    "lon": 79.94821824374174
  },
  {
    "partId": 31753,
    "stateCode": "S29",
    "stateName": "Telangana",
    "districtCode": "S2932",
    "districtName": "Mulugu",
    "acNumber": 109,
    "acName": "Mulug",
    "partNumber": 32,
    "partName": "Chintagudem",
    "lat": 18.1585442,
    "lon": 79.94821824374174
  },
  {
    "partId": 31903,
    "stateCode": "S29",
    "stateName": "Telangana",
    "districtCode": "S2932",
    "districtName": "Mulugu",
    "acNumber": 109,
    "acName": "Mulug",
    "partNumber": 33,
    "partName": "Ailaa Pur",
    "lat": 18.1585442,
    "lon": 79.94821824374174
  },
  {
    "partId": 31754,
    "stateCode": "S29",
    "stateName": "Telangana",
    "districtCode": "S2932",
    "districtName": "Mulugu",
    "acNumber": 109,
    "acName": "Mulug",
    "partNumber": 34,
    "partName": "Eturu,",
    "lat": 18.1585442,
    "lon": 79.94821824374174
  },
  {
    "partId": 31904,
    "stateCode": "S29",
    "stateName": "Telangana",
    "districtCode": "S2932",
    "districtName": "Mulugu",
    "acNumber": 109,
    "acName": "Mulug",
    "partNumber": 35,
    "partName": "Kanthanpalli",
    "lat": 18.1585442,
    "lon": 79.94821824374174
  },
  {
    "partId": 31905,
    "stateCode": "S29",
    "stateName": "Telangana",
    "districtCode": "S2932",
    "districtName": "Mulugu",
    "acNumber": 109,
    "acName": "Mulug",
    "partNumber": 36,
    "partName": "Chelpaaka,",
    "lat": 18.1585442,
    "lon": 79.94821824374174
  },
  {
    "partId": 31906,
    "stateCode": "S29",
    "stateName": "Telangana",
    "districtCode": "S2932",
    "districtName": "Mulugu",
    "acNumber": 109,
    "acName": "Mulug",
    "partNumber": 37,
    "partName": "Alliwari Ghanpur",
    "lat": 18.1585442,
    "lon": 79.94821824374174
  },
  {
    "partId": 31755,
    "stateCode": "S29",
    "stateName": "Telangana",
    "districtCode": "S2932",
    "districtName": "Mulugu",
    "acNumber": 109,
    "acName": "Mulug",
    "partNumber": 38,
    "partName": "Malyaala,",
    "lat": 18.1585442,
    "lon": 79.94821824374174
  },
  {
    "partId": 31756,
    "stateCode": "S29",
    "stateName": "Telangana",
    "districtCode": "S2932",
    "districtName": "Mulugu",
    "acNumber": 109,
    "acName": "Mulug",
    "partNumber": 39,
    "partName": "Dodla Kothur",
    "lat": 18.1585442,
    "lon": 79.94821824374174
  },
  {
    "partId": 31757,
    "stateCode": "S29",
    "stateName": "Telangana",
    "districtCode": "S2932",
    "districtName": "Mulugu",
    "acNumber": 109,
    "acName": "Mulug",
    "partNumber": 40,
    "partName": "Shenkaraju Palli,",
    "lat": 18.1585442,
    "lon": 79.94821824374174
  },
  {
    "partId": 31907,
    "stateCode": "S29",
    "stateName": "Telangana",
    "districtCode": "S2932",
    "districtName": "Mulugu",
    "acNumber": 109,
    "acName": "Mulug",
    "partNumber": 41,
    "partName": "Shankar Rajupalli",
    "lat": 18.1585442,
    "lon": 79.94821824374174
  },
  {
    "partId": 31908,
    "stateCode": "S29",
    "stateName": "Telangana",
    "districtCode": "S2932",
    "districtName": "Mulugu",
    "acNumber": 109,
    "acName": "Mulug",
    "partNumber": 42,
    "partName": "Mullakatta H/0 Shankarajopalli",
    "lat": 18.1585442,
    "lon": 79.94821824374174
  },
  {
    "partId": 31909,
    "stateCode": "S29",
    "stateName": "Telangana",
    "districtCode": "S2932",
    "districtName": "Mulugu",
    "acNumber": 109,
    "acName": "Mulug",
    "partNumber": 43,
    "partName": "Rohir,",
    "lat": 18.1585442,
    "lon": 79.94821824374174
  },
  {
    "partId": 31910,
    "stateCode": "S29",
    "stateName": "Telangana",
    "districtCode": "S2932",
    "districtName": "Mulugu",
    "acNumber": 109,
    "acName": "Mulug",
    "partNumber": 44,
    "partName": "Roheer",
    "lat": 18.3850741,
    "lon": 80.427153
  },
  {
    "partId": 31758,
    "stateCode": "S29",
    "stateName": "Telangana",
    "districtCode": "S2932",
    "districtName": "Mulugu",
    "acNumber": 109,
    "acName": "Mulug",
    "partNumber": 45,
    "partName": "Eturunagaram ,",
    "lat": 18.3404826,
    "lon": 80.4294839
  },
  {
    "partId": 31759,
    "stateCode": "S29",
    "stateName": "Telangana",
    "districtCode": "S2932",
    "districtName": "Mulugu",
    "acNumber": 109,
    "acName": "Mulug",
    "partNumber": 46,
    "partName": "Etur Nagaram",
    "lat": 18.1585442,
    "lon": 79.94821824374174
  },
  {
    "partId": 31760,
    "stateCode": "S29",
    "stateName": "Telangana",
    "districtCode": "S2932",
    "districtName": "Mulugu",
    "acNumber": 109,
    "acName": "Mulug",
    "partNumber": 47,
    "partName": "Eturunagaram,",
    "lat": 18.3404826,
    "lon": 80.4294839
  },
  {
    "partId": 31911,
    "stateCode": "S29",
    "stateName": "Telangana",
    "districtCode": "S2932",
    "districtName": "Mulugu",
    "acNumber": 109,
    "acName": "Mulug",
    "partNumber": 48,
    "partName": "Eturunagaram",
    "lat": 18.3404826,
    "lon": 80.4294839
  },
  {
    "partId": 31912,
    "stateCode": "S29",
    "stateName": "Telangana",
    "districtCode": "S2932",
    "districtName": "Mulugu",
    "acNumber": 109,
    "acName": "Mulug",
    "partNumber": 49,
    "partName": "Eturunagaram",
    "lat": 18.3404826,
    "lon": 80.4294839
  },
  {
    "partId": 31913,
    "stateCode": "S29",
    "stateName": "Telangana",
    "districtCode": "S2932",
    "districtName": "Mulugu",
    "acNumber": 109,
    "acName": "Mulug",
    "partNumber": 50,
    "partName": "Eturunagaram,",
    "lat": 18.3404826,
    "lon": 80.4294839
  },
  {
    "partId": 31761,
    "stateCode": "S29",
    "stateName": "Telangana",
    "districtCode": "S2932",
    "districtName": "Mulugu",
    "acNumber": 109,
    "acName": "Mulug",
    "partNumber": 51,
    "partName": "Eturunagaram,",
    "lat": 18.3404826,
    "lon": 80.4294839
  },
  {
    "partId": 31914,
    "stateCode": "S29",
    "stateName": "Telangana",
    "districtCode": "S2932",
    "districtName": "Mulugu",
    "acNumber": 109,
    "acName": "Mulug",
    "partNumber": 52,
    "partName": "Akulavari Ghanapuram,",
    "lat": 18.1585442,
    "lon": 79.94821824374174
  },
  {
    "partId": 31762,
    "stateCode": "S29",
    "stateName": "Telangana",
    "districtCode": "S2932",
    "districtName": "Mulugu",
    "acNumber": 109,
    "acName": "Mulug",
    "partNumber": 53,
    "partName": "Akulavari Ghanapur,",
    "lat": 18.1585442,
    "lon": 79.94821824374174
  },
  {
    "partId": 31915,
    "stateCode": "S29",
    "stateName": "Telangana",
    "districtCode": "S2932",
    "districtName": "Mulugu",
    "acNumber": 109,
    "acName": "Mulug",
    "partNumber": 54,
    "partName": "Akulavari Ghanapur,",
    "lat": 18.1585442,
    "lon": 79.94821824374174
  },
  {
    "partId": 31763,
    "stateCode": "S29",
    "stateName": "Telangana",
    "districtCode": "S2932",
    "districtName": "Mulugu",
    "acNumber": 109,
    "acName": "Mulug",
    "partNumber": 55,
    "partName": "Ekkela,",
    "lat": 18.1585442,
    "lon": 79.94821824374174
  },
  {
    "partId": 31764,
    "stateCode": "S29",
    "stateName": "Telangana",
    "districtCode": "S2932",
    "districtName": "Mulugu",
    "acNumber": 109,
    "acName": "Mulug",
    "partNumber": 56,
    "partName": "Sha Palli,",
    "lat": 18.1585442,
    "lon": 79.94821824374174
  },
  {
    "partId": 31765,
    "stateCode": "S29",
    "stateName": "Telangana",
    "districtCode": "S2932",
    "districtName": "Mulugu",
    "acNumber": 109,
    "acName": "Mulug",
    "partNumber": 57,
    "partName": "Chinnaboyinapalli,",
    "lat": 18.1585442,
    "lon": 79.94821824374174
  },
  {
    "partId": 31916,
    "stateCode": "S29",
    "stateName": "Telangana",
    "districtCode": "S2932",
    "districtName": "Mulugu",
    "acNumber": 109,
    "acName": "Mulug",
    "partNumber": 58,
    "partName": "Ashrama High School, Chinnapoina Pally ( 9Th Class",
    "lat": 18.1585442,
    "lon": 79.94821824374174
  },
  {
    "partId": 31917,
    "stateCode": "S29",
    "stateName": "Telangana",
    "districtCode": "S2932",
    "districtName": "Mulugu",
    "acNumber": 109,
    "acName": "Mulug",
    "partNumber": 59,
    "partName": "Padigaapur,",
    "lat": 18.1585442,
    "lon": 79.94821824374174
  },
  {
    "partId": 31766,
    "stateCode": "S29",
    "stateName": "Telangana",
    "districtCode": "S2932",
    "districtName": "Mulugu",
    "acNumber": 109,
    "acName": "Mulug",
    "partNumber": 60,
    "partName": "Vengalaapur",
    "lat": 18.1585442,
    "lon": 79.94821824374174
  },
  {
    "partId": 31767,
    "stateCode": "S29",
    "stateName": "Telangana",
    "districtCode": "S2932",
    "districtName": "Mulugu",
    "acNumber": 109,
    "acName": "Mulug",
    "partNumber": 61,
    "partName": "Project Nagar",
    "lat": 18.2476829,
    "lon": 80.1921648
  },
  {
    "partId": 31768,
    "stateCode": "S29",
    "stateName": "Telangana",
    "districtCode": "S2932",
    "districtName": "Mulugu",
    "acNumber": 109,
    "acName": "Mulug",
    "partNumber": 62,
    "partName": "Mutthapur",
    "lat": 18.1585442,
    "lon": 79.94821824374174
  },
  {
    "partId": 31918,
    "stateCode": "S29",
    "stateName": "Telangana",
    "districtCode": "S2932",
    "districtName": "Mulugu",
    "acNumber": 109,
    "acName": "Mulug",
    "partNumber": 63,
    "partName": "Raghavapatnam",
    "lat": 18.2105593,
    "lon": 80.1578915
  },
  {
    "partId": 31769,
    "stateCode": "S29",
    "stateName": "Telangana",
    "districtCode": "S2932",
    "districtName": "Mulugu",
    "acNumber": 109,
    "acName": "Mulug",
    "partNumber": 64,
    "partName": "Thadwai,",
    "lat": 18.1585442,
    "lon": 79.94821824374174
  },
  {
    "partId": 31919,
    "stateCode": "S29",
    "stateName": "Telangana",
    "districtCode": "S2932",
    "districtName": "Mulugu",
    "acNumber": 109,
    "acName": "Mulug",
    "partNumber": 65,
    "partName": "Thadvai,",
    "lat": 18.2321712,
    "lon": 80.3127795
  },
  {
    "partId": 31770,
    "stateCode": "S29",
    "stateName": "Telangana",
    "districtCode": "S2932",
    "districtName": "Mulugu",
    "acNumber": 109,
    "acName": "Mulug",
    "partNumber": 66,
    "partName": "Kamaram Pt",
    "lat": 18.1585442,
    "lon": 79.94821824374174
  },
  {
    "partId": 31920,
    "stateCode": "S29",
    "stateName": "Telangana",
    "districtCode": "S2932",
    "districtName": "Mulugu",
    "acNumber": 109,
    "acName": "Mulug",
    "partNumber": 67,
    "partName": "Kondaparthi,",
    "lat": 18.2311143,
    "lon": 80.2667463
  },
  {
    "partId": 35060,
    "stateCode": "S29",
    "stateName": "Telangana",
    "districtCode": "S2932",
    "districtName": "Mulugu",
    "acNumber": 109,
    "acName": "Mulug",
    "partNumber": 68,
    "partName": "Lavvala",
    "lat": 18.1585442,
    "lon": 79.94821824374174
  },
  {
    "partId": 31921,
    "stateCode": "S29",
    "stateName": "Telangana",
    "districtCode": "S2932",
    "districtName": "Mulugu",
    "acNumber": 109,
    "acName": "Mulug",
    "partNumber": 69,
    "partName": "Pasra Nagaaram",
    "lat": 18.1585442,
    "lon": 79.94821824374174
  },
  {
    "partId": 31771,
    "stateCode": "S29",
    "stateName": "Telangana",
    "districtCode": "S2932",
    "districtName": "Mulugu",
    "acNumber": 109,
    "acName": "Mulug",
    "partNumber": 70,
    "partName": "Pasara Nagaram",
    "lat": 18.1585442,
    "lon": 79.94821824374174
  },
  {
    "partId": 31772,
    "stateCode": "S29",
    "stateName": "Telangana",
    "districtCode": "S2932",
    "districtName": "Mulugu",
    "acNumber": 109,
    "acName": "Mulug",
    "partNumber": 71,
    "partName": "Pasranagaaram",
    "lat": 18.1585442,
    "lon": 79.94821824374174
  },
  {
    "partId": 31773,
    "stateCode": "S29",
    "stateName": "Telangana",
    "districtCode": "S2932",
    "districtName": "Mulugu",
    "acNumber": 109,
    "acName": "Mulug",
    "partNumber": 72,
    "partName": "Pasranagaaram",
    "lat": 18.1585442,
    "lon": 79.94821824374174
  },
  {
    "partId": 31922,
    "stateCode": "S29",
    "stateName": "Telangana",
    "districtCode": "S2932",
    "districtName": "Mulugu",
    "acNumber": 109,
    "acName": "Mulug",
    "partNumber": 73,
    "partName": "Pasaranagaram",
    "lat": 18.1585442,
    "lon": 79.94821824374174
  },
  {
    "partId": 31923,
    "stateCode": "S29",
    "stateName": "Telangana",
    "districtCode": "S2932",
    "districtName": "Mulugu",
    "acNumber": 109,
    "acName": "Mulug",
    "partNumber": 74,
    "partName": "Pasranagaaram",
    "lat": 18.1585442,
    "lon": 79.94821824374174
  },
  {
    "partId": 31924,
    "stateCode": "S29",
    "stateName": "Telangana",
    "districtCode": "S2932",
    "districtName": "Mulugu",
    "acNumber": 109,
    "acName": "Mulug",
    "partNumber": 75,
    "partName": "Pasranagaram,",
    "lat": 18.1585442,
    "lon": 79.94821824374174
  },
  {
    "partId": 31774,
    "stateCode": "S29",
    "stateName": "Telangana",
    "districtCode": "S2932",
    "districtName": "Mulugu",
    "acNumber": 109,
    "acName": "Mulug",
    "partNumber": 76,
    "partName": "Rangapur,",
    "lat": 18.2220651,
    "lon": 80.141227
  },
  {
    "partId": 31775,
    "stateCode": "S29",
    "stateName": "Telangana",
    "districtCode": "S2932",
    "districtName": "Mulugu",
    "acNumber": 109,
    "acName": "Mulug",
    "partNumber": 77,
    "partName": "Govindarao Peta",
    "lat": 18.1585442,
    "lon": 79.94821824374174
  },
  {
    "partId": 31925,
    "stateCode": "S29",
    "stateName": "Telangana",
    "districtCode": "S2932",
    "districtName": "Mulugu",
    "acNumber": 109,
    "acName": "Mulug",
    "partNumber": 78,
    "partName": "Govindharao Pet",
    "lat": 18.1585442,
    "lon": 79.94821824374174
  },
  {
    "partId": 31926,
    "stateCode": "S29",
    "stateName": "Telangana",
    "districtCode": "S2932",
    "districtName": "Mulugu",
    "acNumber": 109,
    "acName": "Mulug",
    "partNumber": 79,
    "partName": "Govindarao Peta",
    "lat": 18.1585442,
    "lon": 79.94821824374174
  },
  {
    "partId": 31927,
    "stateCode": "S29",
    "stateName": "Telangana",
    "districtCode": "S2932",
    "districtName": "Mulugu",
    "acNumber": 109,
    "acName": "Mulug",
    "partNumber": 80,
    "partName": "Govinda Rao Pet",
    "lat": 18.1585442,
    "lon": 79.94821824374174
  },
  {
    "partId": 31776,
    "stateCode": "S29",
    "stateName": "Telangana",
    "districtCode": "S2932",
    "districtName": "Mulugu",
    "acNumber": 109,
    "acName": "Mulug",
    "partNumber": 81,
    "partName": "Govindarao Peta",
    "lat": 18.1585442,
    "lon": 79.94821824374174
  },
  {
    "partId": 31928,
    "stateCode": "S29",
    "stateName": "Telangana",
    "districtCode": "S2932",
    "districtName": "Mulugu",
    "acNumber": 109,
    "acName": "Mulug",
    "partNumber": 82,
    "partName": "Gandhinagar",
    "lat": 18.1735042,
    "lon": 80.1573698
  },
  {
    "partId": 31777,
    "stateCode": "S29",
    "stateName": "Telangana",
    "districtCode": "S2932",
    "districtName": "Mulugu",
    "acNumber": 109,
    "acName": "Mulug",
    "partNumber": 83,
    "partName": "Moddula Gudem,",
    "lat": 18.1585442,
    "lon": 79.94821824374174
  },
  {
    "partId": 31929,
    "stateCode": "S29",
    "stateName": "Telangana",
    "districtCode": "S2932",
    "districtName": "Mulugu",
    "acNumber": 109,
    "acName": "Mulug",
    "partNumber": 84,
    "partName": "Papaiahpally",
    "lat": 18.1585442,
    "lon": 79.94821824374174
  },
  {
    "partId": 31778,
    "stateCode": "S29",
    "stateName": "Telangana",
    "districtCode": "S2932",
    "districtName": "Mulugu",
    "acNumber": 109,
    "acName": "Mulug",
    "partNumber": 85,
    "partName": "Karlapalli,",
    "lat": 18.1585442,
    "lon": 79.94821824374174
  },
  {
    "partId": 31779,
    "stateCode": "S29",
    "stateName": "Telangana",
    "districtCode": "S2932",
    "districtName": "Mulugu",
    "acNumber": 109,
    "acName": "Mulug",
    "partNumber": 86,
    "partName": "Laxmipur,",
    "lat": 18.2941144,
    "lon": 79.963383
  },
  {
    "partId": 31780,
    "stateCode": "S29",
    "stateName": "Telangana",
    "districtCode": "S2932",
    "districtName": "Mulugu",
    "acNumber": 109,
    "acName": "Mulug",
    "partNumber": 87,
    "partName": "Sandragudem",
    "lat": 18.1585442,
    "lon": 79.94821824374174
  },
  {
    "partId": 31930,
    "stateCode": "S29",
    "stateName": "Telangana",
    "districtCode": "S2932",
    "districtName": "Mulugu",
    "acNumber": 109,
    "acName": "Mulug",
    "partNumber": 88,
    "partName": "Balajinagar",
    "lat": 18.1585442,
    "lon": 79.94821824374174
  },
  {
    "partId": 31931,
    "stateCode": "S29",
    "stateName": "Telangana",
    "districtCode": "S2932",
    "districtName": "Mulugu",
    "acNumber": 109,
    "acName": "Mulug",
    "partNumber": 89,
    "partName": "Dhoom Palli Gudem,",
    "lat": 18.1585442,
    "lon": 79.94821824374174
  },
  {
    "partId": 31932,
    "stateCode": "S29",
    "stateName": "Telangana",
    "districtCode": "S2932",
    "districtName": "Mulugu",
    "acNumber": 109,
    "acName": "Mulug",
    "partNumber": 90,
    "partName": "Dumpelligudem ,",
    "lat": 18.1585442,
    "lon": 79.94821824374174
  },
  {
    "partId": 31781,
    "stateCode": "S29",
    "stateName": "Telangana",
    "districtCode": "S2932",
    "districtName": "Mulugu",
    "acNumber": 109,
    "acName": "Mulug",
    "partNumber": 91,
    "partName": "Ramnagar",
    "lat": 18.3031853,
    "lon": 80.4590821
  },
  {
    "partId": 31782,
    "stateCode": "S29",
    "stateName": "Telangana",
    "districtCode": "S2932",
    "districtName": "Mulugu",
    "acNumber": 109,
    "acName": "Mulug",
    "partNumber": 92,
    "partName": "Laknavaram Kotagadda,",
    "lat": 18.1585442,
    "lon": 79.94821824374174
  },
  {
    "partId": 31783,
    "stateCode": "S29",
    "stateName": "Telangana",
    "districtCode": "S2932",
    "districtName": "Mulugu",
    "acNumber": 109,
    "acName": "Mulug",
    "partNumber": 93,
    "partName": "Bussaapur",
    "lat": 18.1585442,
    "lon": 79.94821824374174
  },
  {
    "partId": 31933,
    "stateCode": "S29",
    "stateName": "Telangana",
    "districtCode": "S2932",
    "districtName": "Mulugu",
    "acNumber": 109,
    "acName": "Mulug",
    "partNumber": 94,
    "partName": "Chalvayi,",
    "lat": 18.1585442,
    "lon": 79.94821824374174
  },
  {
    "partId": 31934,
    "stateCode": "S29",
    "stateName": "Telangana",
    "districtCode": "S2932",
    "districtName": "Mulugu",
    "acNumber": 109,
    "acName": "Mulug",
    "partNumber": 95,
    "partName": "Chalvaayi",
    "lat": 18.1585442,
    "lon": 79.94821824374174
  },
  {
    "partId": 31935,
    "stateCode": "S29",
    "stateName": "Telangana",
    "districtCode": "S2932",
    "districtName": "Mulugu",
    "acNumber": 109,
    "acName": "Mulug",
    "partNumber": 96,
    "partName": "Chalvai",
    "lat": 18.2058329,
    "lon": 80.1025991
  },
  {
    "partId": 31784,
    "stateCode": "S29",
    "stateName": "Telangana",
    "districtCode": "S2932",
    "districtName": "Mulugu",
    "acNumber": 109,
    "acName": "Mulug",
    "partNumber": 97,
    "partName": "Chalvai",
    "lat": 18.18414514812287,
    "lon": 80.03110404398261
  },
  {
    "partId": 31785,
    "stateCode": "S29",
    "stateName": "Telangana",
    "districtCode": "S2932",
    "districtName": "Mulugu",
    "acNumber": 109,
    "acName": "Mulug",
    "partNumber": 98,
    "partName": "Chalvai,",
    "lat": 18.18414514812287,
    "lon": 80.03110404398261
  },
  {
    "partId": 31786,
    "stateCode": "S29",
    "stateName": "Telangana",
    "districtCode": "S2932",
    "districtName": "Mulugu",
    "acNumber": 109,
    "acName": "Mulug",
    "partNumber": 99,
    "partName": "Somalgadda",
    "lat": 18.18414514812287,
    "lon": 80.03110404398261
  },
  {
    "partId": 31936,
    "stateCode": "S29",
    "stateName": "Telangana",
    "districtCode": "S2932",
    "districtName": "Mulugu",
    "acNumber": 109,
    "acName": "Mulug",
    "partNumber": 100,
    "partName": "Machchapur",
    "lat": 18.31453475,
    "lon": 80.3458815996114
  },
  {
    "partId": 31937,
    "stateCode": "S29",
    "stateName": "Telangana",
    "districtCode": "S2932",
    "districtName": "Mulugu",
    "acNumber": 109,
    "acName": "Mulug",
    "partNumber": 101,
    "partName": "Venkatapur,",
    "lat": 18.194801,
    "lon": 79.98204536595267
  },
  {
    "partId": 31787,
    "stateCode": "S29",
    "stateName": "Telangana",
    "districtCode": "S2932",
    "districtName": "Mulugu",
    "acNumber": 109,
    "acName": "Mulug",
    "partNumber": 102,
    "partName": "Venkatapur,",
    "lat": 18.194801,
    "lon": 79.98204536595267
  },
  {
    "partId": 31788,
    "stateCode": "S29",
    "stateName": "Telangana",
    "districtCode": "S2932",
    "districtName": "Mulugu",
    "acNumber": 109,
    "acName": "Mulug",
    "partNumber": 103,
    "partName": "Venkatapur,",
    "lat": 18.194801,
    "lon": 79.98204536595267
  },
  {
    "partId": 31789,
    "stateCode": "S29",
    "stateName": "Telangana",
    "districtCode": "S2932",
    "districtName": "Mulugu",
    "acNumber": 109,
    "acName": "Mulug",
    "partNumber": 104,
    "partName": "Venkatapur",
    "lat": 18.2465111,
    "lon": 79.9980426
  },
  {
    "partId": 31938,
    "stateCode": "S29",
    "stateName": "Telangana",
    "districtCode": "S2932",
    "districtName": "Mulugu",
    "acNumber": 109,
    "acName": "Mulug",
    "partNumber": 105,
    "partName": "Lingapur",
    "lat": 18.1585442,
    "lon": 79.94821824374174
  },
  {
    "partId": 31939,
    "stateCode": "S29",
    "stateName": "Telangana",
    "districtCode": "S2932",
    "districtName": "Mulugu",
    "acNumber": 109,
    "acName": "Mulug",
    "partNumber": 106,
    "partName": "Jewaharnagar  H/O. Venkatapur,",
    "lat": 18.1585442,
    "lon": 79.94821824374174
  },
  {
    "partId": 31940,
    "stateCode": "S29",
    "stateName": "Telangana",
    "districtCode": "S2932",
    "districtName": "Mulugu",
    "acNumber": 109,
    "acName": "Mulug",
    "partNumber": 107,
    "partName": "Venkatapur,",
    "lat": 18.194801,
    "lon": 79.98204536595267
  },
  {
    "partId": 31790,
    "stateCode": "S29",
    "stateName": "Telangana",
    "districtCode": "S2932",
    "districtName": "Mulugu",
    "acNumber": 109,
    "acName": "Mulug",
    "partNumber": 108,
    "partName": "Ellareddy Palli H/O Venkatapur",
    "lat": 18.1585442,
    "lon": 79.94821824374174
  },
  {
    "partId": 31791,
    "stateCode": "S29",
    "stateName": "Telangana",
    "districtCode": "S2932",
    "districtName": "Mulugu",
    "acNumber": 109,
    "acName": "Mulug",
    "partNumber": 109,
    "partName": "Nallakunta ,",
    "lat": 18.1585442,
    "lon": 79.94821824374174
  },
  {
    "partId": 31941,
    "stateCode": "S29",
    "stateName": "Telangana",
    "districtCode": "S2932",
    "districtName": "Mulugu",
    "acNumber": 109,
    "acName": "Mulug",
    "partNumber": 110,
    "partName": "Nallakunta,",
    "lat": 18.1585442,
    "lon": 79.94821824374174
  },
  {
    "partId": 31942,
    "stateCode": "S29",
    "stateName": "Telangana",
    "districtCode": "S2932",
    "districtName": "Mulugu",
    "acNumber": 109,
    "acName": "Mulug",
    "partNumber": 111,
    "partName": "Palampeta ,",
    "lat": 18.1585442,
    "lon": 79.94821824374174
  },
  {
    "partId": 31943,
    "stateCode": "S29",
    "stateName": "Telangana",
    "districtCode": "S2932",
    "districtName": "Mulugu",
    "acNumber": 109,
    "acName": "Mulug",
    "partNumber": 112,
    "partName": "Palampeta,",
    "lat": 18.1585442,
    "lon": 79.94821824374174
  },
  {
    "partId": 31792,
    "stateCode": "S29",
    "stateName": "Telangana",
    "districtCode": "S2932",
    "districtName": "Mulugu",
    "acNumber": 109,
    "acName": "Mulug",
    "partNumber": 113,
    "partName": "Ramanjapur,",
    "lat": 18.31453475,
    "lon": 80.3458815996114
  },
  {
    "partId": 31944,
    "stateCode": "S29",
    "stateName": "Telangana",
    "districtCode": "S2932",
    "districtName": "Mulugu",
    "acNumber": 109,
    "acName": "Mulug",
    "partNumber": 114,
    "partName": "Mandala Praja Parishad Upper Primary School , Gunt",
    "lat": 18.1585442,
    "lon": 79.94821824374174
  },
  {
    "partId": 31793,
    "stateCode": "S29",
    "stateName": "Telangana",
    "districtCode": "S2932",
    "districtName": "Mulugu",
    "acNumber": 109,
    "acName": "Mulug",
    "partNumber": 115,
    "partName": "Ramanja Pur  H/O.Ramanja Pur",
    "lat": 18.1585442,
    "lon": 79.94821824374174
  },
  {
    "partId": 31945,
    "stateCode": "S29",
    "stateName": "Telangana",
    "districtCode": "S2932",
    "districtName": "Mulugu",
    "acNumber": 109,
    "acName": "Mulug",
    "partNumber": 116,
    "partName": "Narayanagiripally,",
    "lat": 18.1585442,
    "lon": 79.94821824374174
  },
  {
    "partId": 31794,
    "stateCode": "S29",
    "stateName": "Telangana",
    "districtCode": "S2932",
    "districtName": "Mulugu",
    "acNumber": 109,
    "acName": "Mulug",
    "partNumber": 117,
    "partName": "Narsapur,",
    "lat": 18.246073,
    "lon": 80.5246567
  },
  {
    "partId": 31795,
    "stateCode": "S29",
    "stateName": "Telangana",
    "districtCode": "S2932",
    "districtName": "Mulugu",
    "acNumber": 109,
    "acName": "Mulug",
    "partNumber": 118,
    "partName": "Papaiahpally Ho% Narsapur",
    "lat": 18.31453475,
    "lon": 80.3458815996114
  },
  {
    "partId": 31946,
    "stateCode": "S29",
    "stateName": "Telangana",
    "districtCode": "S2932",
    "districtName": "Mulugu",
    "acNumber": 109,
    "acName": "Mulug",
    "partNumber": 119,
    "partName": "Narsapur,",
    "lat": 18.246073,
    "lon": 80.5246567
  },
  {
    "partId": 31947,
    "stateCode": "S29",
    "stateName": "Telangana",
    "districtCode": "S2932",
    "districtName": "Mulugu",
    "acNumber": 109,
    "acName": "Mulug",
    "partNumber": 120,
    "partName": "Singarakuntapalli(Narsapur)",
    "lat": 18.18414514812287,
    "lon": 80.03110404398261
  },
  {
    "partId": 31948,
    "stateCode": "S29",
    "stateName": "Telangana",
    "districtCode": "S2932",
    "districtName": "Mulugu",
    "acNumber": 109,
    "acName": "Mulug",
    "partNumber": 121,
    "partName": "Keshavapur  H/O Narsapur,",
    "lat": 18.1585442,
    "lon": 79.94821824374174
  },
  {
    "partId": 31796,
    "stateCode": "S29",
    "stateName": "Telangana",
    "districtCode": "S2932",
    "districtName": "Mulugu",
    "acNumber": 109,
    "acName": "Mulug",
    "partNumber": 122,
    "partName": "Keshavapur H/O Narsapur,",
    "lat": 18.1585442,
    "lon": 79.94821824374174
  },
  {
    "partId": 31949,
    "stateCode": "S29",
    "stateName": "Telangana",
    "districtCode": "S2932",
    "districtName": "Mulugu",
    "acNumber": 109,
    "acName": "Mulug",
    "partNumber": 123,
    "partName": "Shatharajupally H/O Narsapur",
    "lat": 18.1585442,
    "lon": 79.94821824374174
  },
  {
    "partId": 31797,
    "stateCode": "S29",
    "stateName": "Telangana",
    "districtCode": "S2932",
    "districtName": "Mulugu",
    "acNumber": 109,
    "acName": "Mulug",
    "partNumber": 124,
    "partName": "Rajeshwararaopally",
    "lat": 18.1585442,
    "lon": 79.94821824374174
  },
  {
    "partId": 31950,
    "stateCode": "S29",
    "stateName": "Telangana",
    "districtCode": "S2932",
    "districtName": "Mulugu",
    "acNumber": 109,
    "acName": "Mulug",
    "partNumber": 125,
    "partName": "Inchen Chevupally, H/O Narsapur,",
    "lat": 18.1585442,
    "lon": 79.94821824374174
  },
  {
    "partId": 31798,
    "stateCode": "S29",
    "stateName": "Telangana",
    "districtCode": "S2932",
    "districtName": "Mulugu",
    "acNumber": 109,
    "acName": "Mulug",
    "partNumber": 126,
    "partName": "Incherla,",
    "lat": 18.18414514812287,
    "lon": 80.03110404398261
  },
  {
    "partId": 31799,
    "stateCode": "S29",
    "stateName": "Telangana",
    "districtCode": "S2932",
    "districtName": "Mulugu",
    "acNumber": 109,
    "acName": "Mulug",
    "partNumber": 127,
    "partName": "Incherla,",
    "lat": 18.2187327,
    "lon": 79.9817562
  },
  {
    "partId": 31800,
    "stateCode": "S29",
    "stateName": "Telangana",
    "districtCode": "S2932",
    "districtName": "Mulugu",
    "acNumber": 109,
    "acName": "Mulug",
    "partNumber": 128,
    "partName": "Barigalonipally",
    "lat": 18.18414514812287,
    "lon": 80.03110404398261
  },
  {
    "partId": 31951,
    "stateCode": "S29",
    "stateName": "Telangana",
    "districtCode": "S2932",
    "districtName": "Mulugu",
    "acNumber": 109,
    "acName": "Mulug",
    "partNumber": 129,
    "partName": "Jangaala Palli,",
    "lat": 18.1585442,
    "lon": 79.94821824374174
  },
  {
    "partId": 31952,
    "stateCode": "S29",
    "stateName": "Telangana",
    "districtCode": "S2932",
    "districtName": "Mulugu",
    "acNumber": 109,
    "acName": "Mulug",
    "partNumber": 130,
    "partName": "Banjarupally",
    "lat": 18.1585442,
    "lon": 79.94821824374174
  },
  {
    "partId": 31801,
    "stateCode": "S29",
    "stateName": "Telangana",
    "districtCode": "S2932",
    "districtName": "Mulugu",
    "acNumber": 109,
    "acName": "Mulug",
    "partNumber": 131,
    "partName": "Jangaala Palli,",
    "lat": 18.1585442,
    "lon": 79.94821824374174
  },
  {
    "partId": 31802,
    "stateCode": "S29",
    "stateName": "Telangana",
    "districtCode": "S2932",
    "districtName": "Mulugu",
    "acNumber": 109,
    "acName": "Mulug",
    "partNumber": 132,
    "partName": "Jangaala Palli,",
    "lat": 18.1585442,
    "lon": 79.94821824374174
  },
  {
    "partId": 31803,
    "stateCode": "S29",
    "stateName": "Telangana",
    "districtCode": "S2932",
    "districtName": "Mulugu",
    "acNumber": 109,
    "acName": "Mulug",
    "partNumber": 133,
    "partName": "Mulug",
    "lat": 18.1585442,
    "lon": 79.94821824374174
  },
  {
    "partId": 31953,
    "stateCode": "S29",
    "stateName": "Telangana",
    "districtCode": "S2932",
    "districtName": "Mulugu",
    "acNumber": 109,
    "acName": "Mulug",
    "partNumber": 134,
    "partName": "Mulug,",
    "lat": 18.194801,
    "lon": 79.98204536595267
  },
  {
    "partId": 31954,
    "stateCode": "S29",
    "stateName": "Telangana",
    "districtCode": "S2932",
    "districtName": "Mulugu",
    "acNumber": 109,
    "acName": "Mulug",
    "partNumber": 135,
    "partName": "Mulug,",
    "lat": 18.194801,
    "lon": 79.98204536595267
  },
  {
    "partId": 31955,
    "stateCode": "S29",
    "stateName": "Telangana",
    "districtCode": "S2932",
    "districtName": "Mulugu",
    "acNumber": 109,
    "acName": "Mulug",
    "partNumber": 136,
    "partName": "Mulugu",
    "lat": 18.18414514812287,
    "lon": 80.03110404398261
  },
  {
    "partId": 31804,
    "stateCode": "S29",
    "stateName": "Telangana",
    "districtCode": "S2932",
    "districtName": "Mulugu",
    "acNumber": 109,
    "acName": "Mulug",
    "partNumber": 137,
    "partName": "Mulug,",
    "lat": 18.18414514812287,
    "lon": 80.03110404398261
  },
  {
    "partId": 31805,
    "stateCode": "S29",
    "stateName": "Telangana",
    "districtCode": "S2932",
    "districtName": "Mulugu",
    "acNumber": 109,
    "acName": "Mulug",
    "partNumber": 138,
    "partName": "Mulug",
    "lat": 18.1585442,
    "lon": 79.94821824374174
  },
  {
    "partId": 31806,
    "stateCode": "S29",
    "stateName": "Telangana",
    "districtCode": "S2932",
    "districtName": "Mulugu",
    "acNumber": 109,
    "acName": "Mulug",
    "partNumber": 139,
    "partName": "Mulug,",
    "lat": 18.194801,
    "lon": 79.98204536595267
  },
  {
    "partId": 31956,
    "stateCode": "S29",
    "stateName": "Telangana",
    "districtCode": "S2932",
    "districtName": "Mulugu",
    "acNumber": 109,
    "acName": "Mulug",
    "partNumber": 140,
    "partName": "Mulug",
    "lat": 18.1585442,
    "lon": 79.94821824374174
  },
  {
    "partId": 31957,
    "stateCode": "S29",
    "stateName": "Telangana",
    "districtCode": "S2932",
    "districtName": "Mulugu",
    "acNumber": 109,
    "acName": "Mulug",
    "partNumber": 141,
    "partName": "Mulug,",
    "lat": 18.194801,
    "lon": 79.98204536595267
  },
  {
    "partId": 31958,
    "stateCode": "S29",
    "stateName": "Telangana",
    "districtCode": "S2932",
    "districtName": "Mulugu",
    "acNumber": 109,
    "acName": "Mulug",
    "partNumber": 142,
    "partName": "Mulugu",
    "lat": 18.1932372,
    "lon": 79.9413676
  },
  {
    "partId": 31807,
    "stateCode": "S29",
    "stateName": "Telangana",
    "districtCode": "S2932",
    "districtName": "Mulugu",
    "acNumber": 109,
    "acName": "Mulug",
    "partNumber": 143,
    "partName": "Bandaru Palli,",
    "lat": 18.1585442,
    "lon": 79.94821824374174
  },
  {
    "partId": 31808,
    "stateCode": "S29",
    "stateName": "Telangana",
    "districtCode": "S2932",
    "districtName": "Mulugu",
    "acNumber": 109,
    "acName": "Mulug",
    "partNumber": 144,
    "partName": "Bandarupally",
    "lat": 18.2134466,
    "lon": 79.9270184
  },
  {
    "partId": 31809,
    "stateCode": "S29",
    "stateName": "Telangana",
    "districtCode": "S2932",
    "districtName": "Mulugu",
    "acNumber": 109,
    "acName": "Mulug",
    "partNumber": 145,
    "partName": "Bandaru Palli,",
    "lat": 18.18414514812287,
    "lon": 80.03110404398261
  },
  {
    "partId": 31959,
    "stateCode": "S29",
    "stateName": "Telangana",
    "districtCode": "S2932",
    "districtName": "Mulugu",
    "acNumber": 109,
    "acName": "Mulug",
    "partNumber": 146,
    "partName": "jeevantharaopalli",
    "lat": 18.2071311,
    "lon": 79.9397944
  },
  {
    "partId": 31960,
    "stateCode": "S29",
    "stateName": "Telangana",
    "districtCode": "S2932",
    "districtName": "Mulugu",
    "acNumber": 109,
    "acName": "Mulug",
    "partNumber": 147,
    "partName": "Jaakaaram,",
    "lat": 18.1585442,
    "lon": 79.94821824374174
  },
  {
    "partId": 31961,
    "stateCode": "S29",
    "stateName": "Telangana",
    "districtCode": "S2932",
    "districtName": "Mulugu",
    "acNumber": 109,
    "acName": "Mulug",
    "partNumber": 148,
    "partName": "Abbapur,",
    "lat": 18.1585442,
    "lon": 79.94821824374174
  },
  {
    "partId": 31810,
    "stateCode": "S29",
    "stateName": "Telangana",
    "districtCode": "S2932",
    "districtName": "Mulugu",
    "acNumber": 109,
    "acName": "Mulug",
    "partNumber": 149,
    "partName": "Abbapur,",
    "lat": 18.1585442,
    "lon": 79.94821824374174
  },
  {
    "partId": 31811,
    "stateCode": "S29",
    "stateName": "Telangana",
    "districtCode": "S2932",
    "districtName": "Mulugu",
    "acNumber": 109,
    "acName": "Mulug",
    "partNumber": 150,
    "partName": "Abbapur",
    "lat": 18.18414514812287,
    "lon": 80.03110404398261
  },
  {
    "partId": 31962,
    "stateCode": "S29",
    "stateName": "Telangana",
    "districtCode": "S2932",
    "districtName": "Mulugu",
    "acNumber": 109,
    "acName": "Mulug",
    "partNumber": 151,
    "partName": "Mallampalli,",
    "lat": 18.1100401,
    "lon": 79.8499376
  },
  {
    "partId": 31963,
    "stateCode": "S29",
    "stateName": "Telangana",
    "districtCode": "S2932",
    "districtName": "Mulugu",
    "acNumber": 109,
    "acName": "Mulug",
    "partNumber": 152,
    "partName": "Mallampalli,",
    "lat": 18.31453475,
    "lon": 80.3458815996114
  },
  {
    "partId": 31964,
    "stateCode": "S29",
    "stateName": "Telangana",
    "districtCode": "S2932",
    "districtName": "Mulugu",
    "acNumber": 109,
    "acName": "Mulug",
    "partNumber": 153,
    "partName": "Mallampalli",
    "lat": 18.1100401,
    "lon": 79.8499376
  },
  {
    "partId": 31812,
    "stateCode": "S29",
    "stateName": "Telangana",
    "districtCode": "S2932",
    "districtName": "Mulugu",
    "acNumber": 109,
    "acName": "Mulug",
    "partNumber": 154,
    "partName": "Srinagar (Mallampalli)",
    "lat": 18.1585442,
    "lon": 79.94821824374174
  },
  {
    "partId": 31965,
    "stateCode": "S29",
    "stateName": "Telangana",
    "districtCode": "S2932",
    "districtName": "Mulugu",
    "acNumber": 109,
    "acName": "Mulug",
    "partNumber": 155,
    "partName": "Devanagar",
    "lat": 18.1008645,
    "lon": 79.8752188
  },
  {
    "partId": 31813,
    "stateCode": "S29",
    "stateName": "Telangana",
    "districtCode": "S2932",
    "districtName": "Mulugu",
    "acNumber": 109,
    "acName": "Mulug",
    "partNumber": 156,
    "partName": "Mallampalli,",
    "lat": 18.1100401,
    "lon": 79.8499376
  },
  {
    "partId": 31966,
    "stateCode": "S29",
    "stateName": "Telangana",
    "districtCode": "S2932",
    "districtName": "Mulugu",
    "acNumber": 109,
    "acName": "Mulug",
    "partNumber": 157,
    "partName": "Mahammad Gouse Palli,",
    "lat": 18.1585442,
    "lon": 79.94821824374174
  },
  {
    "partId": 31814,
    "stateCode": "S29",
    "stateName": "Telangana",
    "districtCode": "S2932",
    "districtName": "Mulugu",
    "acNumber": 109,
    "acName": "Mulug",
    "partNumber": 158,
    "partName": "Mahammad Gousepalli",
    "lat": 18.1585442,
    "lon": 79.94821824374174
  },
  {
    "partId": 31815,
    "stateCode": "S29",
    "stateName": "Telangana",
    "districtCode": "S2932",
    "districtName": "Mulugu",
    "acNumber": 109,
    "acName": "Mulug",
    "partNumber": 159,
    "partName": "Ramchandrapuram,",
    "lat": 18.1585442,
    "lon": 79.94821824374174
  },
  {
    "partId": 31816,
    "stateCode": "S29",
    "stateName": "Telangana",
    "districtCode": "S2932",
    "districtName": "Mulugu",
    "acNumber": 109,
    "acName": "Mulug",
    "partNumber": 160,
    "partName": "Ramchandrapuram",
    "lat": 18.1585442,
    "lon": 79.94821824374174
  },
  {
    "partId": 31967,
    "stateCode": "S29",
    "stateName": "Telangana",
    "districtCode": "S2932",
    "districtName": "Mulugu",
    "acNumber": 109,
    "acName": "Mulug",
    "partNumber": 161,
    "partName": "Ramchandrapuram,",
    "lat": 18.1585442,
    "lon": 79.94821824374174
  },
  {
    "partId": 31968,
    "stateCode": "S29",
    "stateName": "Telangana",
    "districtCode": "S2932",
    "districtName": "Mulugu",
    "acNumber": 109,
    "acName": "Mulug",
    "partNumber": 162,
    "partName": "Chandru Thanda,",
    "lat": 18.0990758,
    "lon": 79.9324273
  },
  {
    "partId": 31817,
    "stateCode": "S29",
    "stateName": "Telangana",
    "districtCode": "S2932",
    "districtName": "Mulugu",
    "acNumber": 109,
    "acName": "Mulug",
    "partNumber": 163,
    "partName": "Gurthur Thanda",
    "lat": 18.1585442,
    "lon": 79.94821824374174
  },
  {
    "partId": 31818,
    "stateCode": "S29",
    "stateName": "Telangana",
    "districtCode": "S2932",
    "districtName": "Mulugu",
    "acNumber": 109,
    "acName": "Mulug",
    "partNumber": 164,
    "partName": "Pandikunta,",
    "lat": 18.1427847,
    "lon": 79.8890808
  },
  {
    "partId": 31819,
    "stateCode": "S29",
    "stateName": "Telangana",
    "districtCode": "S2932",
    "districtName": "Mulugu",
    "acNumber": 109,
    "acName": "Mulug",
    "partNumber": 165,
    "partName": "Bhoopalnagar,",
    "lat": 18.1585442,
    "lon": 79.94821824374174
  },
  {
    "partId": 31969,
    "stateCode": "S29",
    "stateName": "Telangana",
    "districtCode": "S2932",
    "districtName": "Mulugu",
    "acNumber": 109,
    "acName": "Mulug",
    "partNumber": 166,
    "partName": "Pathipalli,",
    "lat": 18.31453475,
    "lon": 80.3458815996114
  },
  {
    "partId": 31970,
    "stateCode": "S29",
    "stateName": "Telangana",
    "districtCode": "S2932",
    "districtName": "Mulugu",
    "acNumber": 109,
    "acName": "Mulug",
    "partNumber": 167,
    "partName": "Pathipalli,",
    "lat": 18.1950823,
    "lon": 79.9820588
  },
  {
    "partId": 31820,
    "stateCode": "S29",
    "stateName": "Telangana",
    "districtCode": "S2932",
    "districtName": "Mulugu",
    "acNumber": 109,
    "acName": "Mulug",
    "partNumber": 168,
    "partName": "Devagiripatnam,",
    "lat": 18.1560715,
    "lon": 79.9803794
  },
  {
    "partId": 31821,
    "stateCode": "S29",
    "stateName": "Telangana",
    "districtCode": "S2932",
    "districtName": "Mulugu",
    "acNumber": 109,
    "acName": "Mulug",
    "partNumber": 169,
    "partName": "Devagiripatnam,",
    "lat": 18.1560715,
    "lon": 79.9803794
  },
  {
    "partId": 31822,
    "stateCode": "S29",
    "stateName": "Telangana",
    "districtCode": "S2932",
    "districtName": "Mulugu",
    "acNumber": 109,
    "acName": "Mulug",
    "partNumber": 170,
    "partName": "Madanapalli,",
    "lat": 18.31453475,
    "lon": 80.3458815996114
  },
  {
    "partId": 31971,
    "stateCode": "S29",
    "stateName": "Telangana",
    "districtCode": "S2932",
    "districtName": "Mulugu",
    "acNumber": 109,
    "acName": "Mulug",
    "partNumber": 171,
    "partName": "Madanapalli,",
    "lat": 18.1669292,
    "lon": 79.9359025
  },
  {
    "partId": 31823,
    "stateCode": "S29",
    "stateName": "Telangana",
    "districtCode": "S2932",
    "districtName": "Mulugu",
    "acNumber": 109,
    "acName": "Mulug",
    "partNumber": 172,
    "partName": "Jaggannapeta,",
    "lat": 18.1585442,
    "lon": 79.94821824374174
  },
  {
    "partId": 31972,
    "stateCode": "S29",
    "stateName": "Telangana",
    "districtCode": "S2932",
    "districtName": "Mulugu",
    "acNumber": 109,
    "acName": "Mulug",
    "partNumber": 173,
    "partName": "Jaggannapet",
    "lat": 18.31453475,
    "lon": 80.3458815996114
  },
  {
    "partId": 31824,
    "stateCode": "S29",
    "stateName": "Telangana",
    "districtCode": "S2932",
    "districtName": "Mulugu",
    "acNumber": 109,
    "acName": "Mulug",
    "partNumber": 174,
    "partName": ".Kashindevipeta,",
    "lat": 18.1585442,
    "lon": 79.94821824374174
  },
  {
    "partId": 31973,
    "stateCode": "S29",
    "stateName": "Telangana",
    "districtCode": "S2932",
    "districtName": "Mulugu",
    "acNumber": 109,
    "acName": "Mulug",
    "partNumber": 175,
    "partName": ".Kashindevipeta,",
    "lat": 18.1585442,
    "lon": 79.94821824374174
  },
  {
    "partId": 31974,
    "stateCode": "S29",
    "stateName": "Telangana",
    "districtCode": "S2932",
    "districtName": "Mulugu",
    "acNumber": 109,
    "acName": "Mulug",
    "partNumber": 176,
    "partName": ".Kannayagudem",
    "lat": 18.1585442,
    "lon": 79.94821824374174
  },
  {
    "partId": 31975,
    "stateCode": "S29",
    "stateName": "Telangana",
    "districtCode": "S2932",
    "districtName": "Mulugu",
    "acNumber": 109,
    "acName": "Mulug",
    "partNumber": 177,
    "partName": "kothur",
    "lat": 18.1826477,
    "lon": 80.437029
  },
  {
    "partId": 31825,
    "stateCode": "S29",
    "stateName": "Telangana",
    "districtCode": "S2932",
    "districtName": "Mulugu",
    "acNumber": 109,
    "acName": "Mulug",
    "partNumber": 178,
    "partName": "Panchothukulapally",
    "lat": 18.1585442,
    "lon": 79.94821824374174
  },
  {
    "partId": 31826,
    "stateCode": "S29",
    "stateName": "Telangana",
    "districtCode": "S2932",
    "districtName": "Mulugu",
    "acNumber": 109,
    "acName": "Mulug",
    "partNumber": 179,
    "partName": "Rayinigudem",
    "lat": 18.31453475,
    "lon": 80.3458815996114
  },
  {
    "partId": 31976,
    "stateCode": "S29",
    "stateName": "Telangana",
    "districtCode": "S2932",
    "districtName": "Mulugu",
    "acNumber": 109,
    "acName": "Mulug",
    "partNumber": 180,
    "partName": "Potlapur",
    "lat": 18.1099968,
    "lon": 79.9914093
  },
  {
    "partId": 31977,
    "stateCode": "S29",
    "stateName": "Telangana",
    "districtCode": "S2932",
    "districtName": "Mulugu",
    "acNumber": 109,
    "acName": "Mulug",
    "partNumber": 181,
    "partName": "Pegadapalli,",
    "lat": 18.1585442,
    "lon": 79.94821824374174
  },
  {
    "partId": 31978,
    "stateCode": "S29",
    "stateName": "Telangana",
    "districtCode": "S2932",
    "districtName": "Mulugu",
    "acNumber": 109,
    "acName": "Mulug",
    "partNumber": 182,
    "partName": "Sarvaa Pur,",
    "lat": 18.1585442,
    "lon": 79.94821824374174
  },
  {
    "partId": 31827,
    "stateCode": "S29",
    "stateName": "Telangana",
    "districtCode": "S2932",
    "districtName": "Mulugu",
    "acNumber": 109,
    "acName": "Mulug",
    "partNumber": 183,
    "partName": "Sarvapur",
    "lat": 18.1254037,
    "lon": 80.0690278
  },
  {
    "partId": 31979,
    "stateCode": "S29",
    "stateName": "Telangana",
    "districtCode": "S2932",
    "districtName": "Mulugu",
    "acNumber": 109,
    "acName": "Mulug",
    "partNumber": 184,
    "partName": "Ankannagoodem,",
    "lat": 18.1585442,
    "lon": 79.94821824374174
  },
  {
    "partId": 31828,
    "stateCode": "S29",
    "stateName": "Telangana",
    "districtCode": "S2932",
    "districtName": "Mulugu",
    "acNumber": 109,
    "acName": "Mulug",
    "partNumber": 185,
    "partName": "Bittupalli,",
    "lat": 18.1585442,
    "lon": 79.94821824374174
  },
  {
    "partId": 31980,
    "stateCode": "S29",
    "stateName": "Telangana",
    "districtCode": "S2932",
    "districtName": "Mulugu",
    "acNumber": 109,
    "acName": "Mulug",
    "partNumber": 186,
    "partName": "Bandaala,",
    "lat": 18.1585442,
    "lon": 79.94821824374174
  },
  {
    "partId": 31829,
    "stateCode": "S29",
    "stateName": "Telangana",
    "districtCode": "S2932",
    "districtName": "Mulugu",
    "acNumber": 109,
    "acName": "Mulug",
    "partNumber": 187,
    "partName": "Narsaa Pur",
    "lat": 18.1585442,
    "lon": 79.94821824374174
  },
  {
    "partId": 31981,
    "stateCode": "S29",
    "stateName": "Telangana",
    "districtCode": "S2932",
    "districtName": "Mulugu",
    "acNumber": 109,
    "acName": "Mulug",
    "partNumber": 188,
    "partName": "Narsapur H/O Ankampalli",
    "lat": 18.1585442,
    "lon": 79.94821824374174
  },
  {
    "partId": 31830,
    "stateCode": "S29",
    "stateName": "Telangana",
    "districtCode": "S2932",
    "districtName": "Mulugu",
    "acNumber": 109,
    "acName": "Mulug",
    "partNumber": 189,
    "partName": ".Katapur,",
    "lat": 18.31453475,
    "lon": 80.3458815996114
  },
  {
    "partId": 31982,
    "stateCode": "S29",
    "stateName": "Telangana",
    "districtCode": "S2932",
    "districtName": "Mulugu",
    "acNumber": 109,
    "acName": "Mulug",
    "partNumber": 190,
    "partName": ".Katapur,",
    "lat": 18.1585442,
    "lon": 79.94821824374174
  },
  {
    "partId": 31831,
    "stateCode": "S29",
    "stateName": "Telangana",
    "districtCode": "S2932",
    "districtName": "Mulugu",
    "acNumber": 109,
    "acName": "Mulug",
    "partNumber": 191,
    "partName": "Gangaram,",
    "lat": 18.1754971,
    "lon": 80.3772533
  },
  {
    "partId": 31983,
    "stateCode": "S29",
    "stateName": "Telangana",
    "districtCode": "S2932",
    "districtName": "Mulugu",
    "acNumber": 109,
    "acName": "Mulug",
    "partNumber": 192,
    "partName": "Shivvapur,",
    "lat": 18.1585442,
    "lon": 79.94821824374174
  },
  {
    "partId": 31832,
    "stateCode": "S29",
    "stateName": "Telangana",
    "districtCode": "S2932",
    "districtName": "Mulugu",
    "acNumber": 109,
    "acName": "Mulug",
    "partNumber": 193,
    "partName": "Gogupalli",
    "lat": 18.1585442,
    "lon": 79.94821824374174
  },
  {
    "partId": 31984,
    "stateCode": "S29",
    "stateName": "Telangana",
    "districtCode": "S2932",
    "districtName": "Mulugu",
    "acNumber": 109,
    "acName": "Mulug",
    "partNumber": 194,
    "partName": "Ramannagudem,",
    "lat": 18.1585442,
    "lon": 79.94821824374174
  },
  {
    "partId": 31833,
    "stateCode": "S29",
    "stateName": "Telangana",
    "districtCode": "S2932",
    "districtName": "Mulugu",
    "acNumber": 109,
    "acName": "Mulug",
    "partNumber": 195,
    "partName": "Ramannagudem",
    "lat": 18.1585442,
    "lon": 79.94821824374174
  },
  {
    "partId": 31834,
    "stateCode": "S29",
    "stateName": "Telangana",
    "districtCode": "S2932",
    "districtName": "Mulugu",
    "acNumber": 109,
    "acName": "Mulug",
    "partNumber": 196,
    "partName": ".Koyaguda Yellapur,",
    "lat": 18.1585442,
    "lon": 79.94821824374174
  },
  {
    "partId": 31835,
    "stateCode": "S29",
    "stateName": "Telangana",
    "districtCode": "S2932",
    "districtName": "Mulugu",
    "acNumber": 109,
    "acName": "Mulug",
    "partNumber": 197,
    "partName": "Mandal Parishad Primary School",
    "lat": 18.1585442,
    "lon": 79.94821824374174
  },
  {
    "partId": 31985,
    "stateCode": "S29",
    "stateName": "Telangana",
    "districtCode": "S2932",
    "districtName": "Mulugu",
    "acNumber": 109,
    "acName": "Mulug",
    "partNumber": 198,
    "partName": ".Kamalaa Pur,",
    "lat": 18.1585442,
    "lon": 79.94821824374174
  },
  {
    "partId": 31986,
    "stateCode": "S29",
    "stateName": "Telangana",
    "districtCode": "S2932",
    "districtName": "Mulugu",
    "acNumber": 109,
    "acName": "Mulug",
    "partNumber": 199,
    "partName": "Mandal Parishad Primary School Old Building, Kamal",
    "lat": 18.1585442,
    "lon": 79.94821824374174
  },
  {
    "partId": 31836,
    "stateCode": "S29",
    "stateName": "Telangana",
    "districtCode": "S2932",
    "districtName": "Mulugu",
    "acNumber": 109,
    "acName": "Mulug",
    "partNumber": 200,
    "partName": ".Kamalaa Pur,",
    "lat": 18.1585442,
    "lon": 79.94821824374174
  },
  {
    "partId": 31837,
    "stateCode": "S29",
    "stateName": "Telangana",
    "districtCode": "S2932",
    "districtName": "Mulugu",
    "acNumber": 109,
    "acName": "Mulug",
    "partNumber": 201,
    "partName": "Kamalapur",
    "lat": 18.2650334,
    "lon": 80.4859012
  },
  {
    "partId": 31838,
    "stateCode": "S29",
    "stateName": "Telangana",
    "districtCode": "S2932",
    "districtName": "Mulugu",
    "acNumber": 109,
    "acName": "Mulug",
    "partNumber": 202,
    "partName": ".Kamalaa Pur,",
    "lat": 18.1585442,
    "lon": 79.94821824374174
  },
  {
    "partId": 31987,
    "stateCode": "S29",
    "stateName": "Telangana",
    "districtCode": "S2932",
    "districtName": "Mulugu",
    "acNumber": 109,
    "acName": "Mulug",
    "partNumber": 203,
    "partName": ".Kamalaa Pur,",
    "lat": 18.1585442,
    "lon": 79.94821824374174
  },
  {
    "partId": 31839,
    "stateCode": "S29",
    "stateName": "Telangana",
    "districtCode": "S2932",
    "districtName": "Mulugu",
    "acNumber": 109,
    "acName": "Mulug",
    "partNumber": 204,
    "partName": ".Kamalaa Pur,",
    "lat": 18.1585442,
    "lon": 79.94821824374174
  },
  {
    "partId": 31988,
    "stateCode": "S29",
    "stateName": "Telangana",
    "districtCode": "S2932",
    "districtName": "Mulugu",
    "acNumber": 109,
    "acName": "Mulug",
    "partNumber": 205,
    "partName": ".Kamalaa Pur,",
    "lat": 18.1585442,
    "lon": 79.94821824374174
  },
  {
    "partId": 31840,
    "stateCode": "S29",
    "stateName": "Telangana",
    "districtCode": "S2932",
    "districtName": "Mulugu",
    "acNumber": 109,
    "acName": "Mulug",
    "partNumber": 206,
    "partName": ".Kamalaa Pur,",
    "lat": 18.1585442,
    "lon": 79.94821824374174
  },
  {
    "partId": 31989,
    "stateCode": "S29",
    "stateName": "Telangana",
    "districtCode": "S2932",
    "districtName": "Mulugu",
    "acNumber": 109,
    "acName": "Mulug",
    "partNumber": 207,
    "partName": "Podmoor (Mangapeta),",
    "lat": 18.1585442,
    "lon": 79.94821824374174
  },
  {
    "partId": 31990,
    "stateCode": "S29",
    "stateName": "Telangana",
    "districtCode": "S2932",
    "districtName": "Mulugu",
    "acNumber": 109,
    "acName": "Mulug",
    "partNumber": 208,
    "partName": "Podumur",
    "lat": 18.1585442,
    "lon": 79.94821824374174
  },
  {
    "partId": 31991,
    "stateCode": "S29",
    "stateName": "Telangana",
    "districtCode": "S2932",
    "districtName": "Mulugu",
    "acNumber": 109,
    "acName": "Mulug",
    "partNumber": 209,
    "partName": "Podmoord   (Mangapeta),",
    "lat": 18.1585442,
    "lon": 79.94821824374174
  },
  {
    "partId": 31841,
    "stateCode": "S29",
    "stateName": "Telangana",
    "districtCode": "S2932",
    "districtName": "Mulugu",
    "acNumber": 109,
    "acName": "Mulug",
    "partNumber": 210,
    "partName": "Narsaa Pur (Bore)",
    "lat": 18.1585442,
    "lon": 79.94821824374174
  },
  {
    "partId": 31842,
    "stateCode": "S29",
    "stateName": "Telangana",
    "districtCode": "S2932",
    "districtName": "Mulugu",
    "acNumber": 109,
    "acName": "Mulug",
    "partNumber": 211,
    "partName": "Narsaa Pur (Bore)",
    "lat": 18.1585442,
    "lon": 79.94821824374174
  },
  {
    "partId": 31992,
    "stateCode": "S29",
    "stateName": "Telangana",
    "districtCode": "S2932",
    "districtName": "Mulugu",
    "acNumber": 109,
    "acName": "Mulug",
    "partNumber": 212,
    "partName": ".Komati Palli ,",
    "lat": 18.1585442,
    "lon": 79.94821824374174
  },
  {
    "partId": 31993,
    "stateCode": "S29",
    "stateName": "Telangana",
    "districtCode": "S2932",
    "districtName": "Mulugu",
    "acNumber": 109,
    "acName": "Mulug",
    "partNumber": 213,
    "partName": ".Komati Palli,",
    "lat": 18.31453475,
    "lon": 80.3458815996114
  },
  {
    "partId": 31994,
    "stateCode": "S29",
    "stateName": "Telangana",
    "districtCode": "S2932",
    "districtName": "Mulugu",
    "acNumber": 109,
    "acName": "Mulug",
    "partNumber": 214,
    "partName": "Kothuru Motlagudem",
    "lat": 18.1585442,
    "lon": 79.94821824374174
  },
  {
    "partId": 31843,
    "stateCode": "S29",
    "stateName": "Telangana",
    "districtCode": "S2932",
    "districtName": "Mulugu",
    "acNumber": 109,
    "acName": "Mulug",
    "partNumber": 215,
    "partName": "Cherupalli,",
    "lat": 18.1585442,
    "lon": 79.94821824374174
  },
  {
    "partId": 31995,
    "stateCode": "S29",
    "stateName": "Telangana",
    "districtCode": "S2932",
    "districtName": "Mulugu",
    "acNumber": 109,
    "acName": "Mulug",
    "partNumber": 216,
    "partName": "Mandala Praja Parishad Primary School Cherupalli",
    "lat": 18.1585442,
    "lon": 79.94821824374174
  },
  {
    "partId": 31996,
    "stateCode": "S29",
    "stateName": "Telangana",
    "districtCode": "S2932",
    "districtName": "Mulugu",
    "acNumber": 109,
    "acName": "Mulug",
    "partNumber": 217,
    "partName": "Buchchampeta",
    "lat": 18.1585442,
    "lon": 79.94821824374174
  },
  {
    "partId": 31997,
    "stateCode": "S29",
    "stateName": "Telangana",
    "districtCode": "S2932",
    "districtName": "Mulugu",
    "acNumber": 109,
    "acName": "Mulug",
    "partNumber": 218,
    "partName": "Balanna Gudem ,",
    "lat": 18.1997662,
    "lon": 80.5241096
  },
  {
    "partId": 31844,
    "stateCode": "S29",
    "stateName": "Telangana",
    "districtCode": "S2932",
    "districtName": "Mulugu",
    "acNumber": 109,
    "acName": "Mulug",
    "partNumber": 219,
    "partName": "Narsigudem",
    "lat": 18.1585442,
    "lon": 79.94821824374174
  },
  {
    "partId": 31845,
    "stateCode": "S29",
    "stateName": "Telangana",
    "districtCode": "S2932",
    "districtName": "Mulugu",
    "acNumber": 109,
    "acName": "Mulug",
    "partNumber": 220,
    "partName": "Thimmam Peta,",
    "lat": 18.31453475,
    "lon": 80.3458815996114
  },
  {
    "partId": 31998,
    "stateCode": "S29",
    "stateName": "Telangana",
    "districtCode": "S2932",
    "districtName": "Mulugu",
    "acNumber": 109,
    "acName": "Mulug",
    "partNumber": 221,
    "partName": "Thimmampeta,",
    "lat": 18.2176388,
    "lon": 80.531786
  },
  {
    "partId": 31999,
    "stateCode": "S29",
    "stateName": "Telangana",
    "districtCode": "S2932",
    "districtName": "Mulugu",
    "acNumber": 109,
    "acName": "Mulug",
    "partNumber": 222,
    "partName": "Zilla Praja Parishad Secondary School (South) Thim",
    "lat": 18.1585442,
    "lon": 79.94821824374174
  },
  {
    "partId": 32000,
    "stateCode": "S29",
    "stateName": "Telangana",
    "districtCode": "S2932",
    "districtName": "Mulugu",
    "acNumber": 109,
    "acName": "Mulug",
    "partNumber": 223,
    "partName": "Malluru,",
    "lat": 18.219451,
    "lon": 80.558785
  },
  {
    "partId": 31846,
    "stateCode": "S29",
    "stateName": "Telangana",
    "districtCode": "S2932",
    "districtName": "Mulugu",
    "acNumber": 109,
    "acName": "Mulug",
    "partNumber": 224,
    "partName": "Malluru,",
    "lat": 18.219451,
    "lon": 80.558785
  },
  {
    "partId": 31847,
    "stateCode": "S29",
    "stateName": "Telangana",
    "districtCode": "S2932",
    "districtName": "Mulugu",
    "acNumber": 109,
    "acName": "Mulug",
    "partNumber": 225,
    "partName": "Kotha Malluru",
    "lat": 18.2177951,
    "lon": 80.5647746
  },
  {
    "partId": 31848,
    "stateCode": "S29",
    "stateName": "Telangana",
    "districtCode": "S2932",
    "districtName": "Mulugu",
    "acNumber": 109,
    "acName": "Mulug",
    "partNumber": 226,
    "partName": "Mallur",
    "lat": 18.1585442,
    "lon": 79.94821824374174
  },
  {
    "partId": 32001,
    "stateCode": "S29",
    "stateName": "Telangana",
    "districtCode": "S2932",
    "districtName": "Mulugu",
    "acNumber": 109,
    "acName": "Mulug",
    "partNumber": 227,
    "partName": "Chunchu Palli,",
    "lat": 18.1585442,
    "lon": 79.94821824374174
  },
  {
    "partId": 32002,
    "stateCode": "S29",
    "stateName": "Telangana",
    "districtCode": "S2932",
    "districtName": "Mulugu",
    "acNumber": 109,
    "acName": "Mulug",
    "partNumber": 228,
    "partName": "Vadagudem,",
    "lat": 18.1585442,
    "lon": 79.94821824374174
  },
  {
    "partId": 31849,
    "stateCode": "S29",
    "stateName": "Telangana",
    "districtCode": "S2932",
    "districtName": "Mulugu",
    "acNumber": 109,
    "acName": "Mulug",
    "partNumber": 229,
    "partName": "Ramanakka Peta,",
    "lat": 18.1585442,
    "lon": 79.94821824374174
  },
  {
    "partId": 31850,
    "stateCode": "S29",
    "stateName": "Telangana",
    "districtCode": "S2932",
    "districtName": "Mulugu",
    "acNumber": 109,
    "acName": "Mulug",
    "partNumber": 230,
    "partName": "Mandala Praja Parishad Primary School, Ramanakkape",
    "lat": 18.1585442,
    "lon": 79.94821824374174
  },
  {
    "partId": 31851,
    "stateCode": "S29",
    "stateName": "Telangana",
    "districtCode": "S2932",
    "districtName": "Mulugu",
    "acNumber": 109,
    "acName": "Mulug",
    "partNumber": 231,
    "partName": "Aakina Palli  Mallllaram,",
    "lat": 18.1585442,
    "lon": 79.94821824374174
  },
  {
    "partId": 32003,
    "stateCode": "S29",
    "stateName": "Telangana",
    "districtCode": "S2932",
    "districtName": "Mulugu",
    "acNumber": 109,
    "acName": "Mulug",
    "partNumber": 232,
    "partName": "Brahmanapalli,",
    "lat": 18.1585442,
    "lon": 79.94821824374174
  },
  {
    "partId": 31852,
    "stateCode": "S29",
    "stateName": "Telangana",
    "districtCode": "S2932",
    "districtName": "Mulugu",
    "acNumber": 109,
    "acName": "Mulug",
    "partNumber": 233,
    "partName": "Brahmanapally",
    "lat": 18.1445829,
    "lon": 80.6320114
  },
  {
    "partId": 32004,
    "stateCode": "S29",
    "stateName": "Telangana",
    "districtCode": "S2932",
    "districtName": "Mulugu",
    "acNumber": 109,
    "acName": "Mulug",
    "partNumber": 234,
    "partName": "Ramachandruni  Peta,",
    "lat": 18.1585442,
    "lon": 79.94821824374174
  },
  {
    "partId": 31853,
    "stateCode": "S29",
    "stateName": "Telangana",
    "districtCode": "S2932",
    "districtName": "Mulugu",
    "acNumber": 109,
    "acName": "Mulug",
    "partNumber": 235,
    "partName": "Vagoddugudem",
    "lat": 18.1585442,
    "lon": 79.94821824374174
  },
  {
    "partId": 32005,
    "stateCode": "S29",
    "stateName": "Telangana",
    "districtCode": "S2932",
    "districtName": "Mulugu",
    "acNumber": 109,
    "acName": "Mulug",
    "partNumber": 236,
    "partName": "Raju Peta,",
    "lat": 18.1585442,
    "lon": 79.94821824374174
  },
  {
    "partId": 31854,
    "stateCode": "S29",
    "stateName": "Telangana",
    "districtCode": "S2932",
    "districtName": "Mulugu",
    "acNumber": 109,
    "acName": "Mulug",
    "partNumber": 237,
    "partName": "Raju Peta,",
    "lat": 18.1585442,
    "lon": 79.94821824374174
  },
  {
    "partId": 32006,
    "stateCode": "S29",
    "stateName": "Telangana",
    "districtCode": "S2932",
    "districtName": "Mulugu",
    "acNumber": 109,
    "acName": "Mulug",
    "partNumber": 238,
    "partName": "Narsimha Sagar",
    "lat": 18.1770669,
    "lon": 80.538615
  },
  {
    "partId": 31855,
    "stateCode": "S29",
    "stateName": "Telangana",
    "districtCode": "S2932",
    "districtName": "Mulugu",
    "acNumber": 109,
    "acName": "Mulug",
    "partNumber": 239,
    "partName": "Narsimha Sagar",
    "lat": 18.1770669,
    "lon": 80.538615
  },
  {
    "partId": 32007,
    "stateCode": "S29",
    "stateName": "Telangana",
    "districtCode": "S2932",
    "districtName": "Mulugu",
    "acNumber": 109,
    "acName": "Mulug",
    "partNumber": 240,
    "partName": "Puredupally",
    "lat": 18.1633369,
    "lon": 80.5570404
  },
  {
    "partId": 31856,
    "stateCode": "S29",
    "stateName": "Telangana",
    "districtCode": "S2932",
    "districtName": "Mulugu",
    "acNumber": 109,
    "acName": "Mulug",
    "partNumber": 241,
    "partName": "Domeda,",
    "lat": 18.1156384,
    "lon": 80.6032665
  },
  {
    "partId": 32008,
    "stateCode": "S29",
    "stateName": "Telangana",
    "districtCode": "S2932",
    "districtName": "Mulugu",
    "acNumber": 109,
    "acName": "Mulug",
    "partNumber": 242,
    "partName": "Nimmagudem H/O Domeda",
    "lat": 18.1585442,
    "lon": 79.94821824374174
  },
  {
    "partId": 31857,
    "stateCode": "S29",
    "stateName": "Telangana",
    "districtCode": "S2932",
    "districtName": "Mulugu",
    "acNumber": 109,
    "acName": "Mulug",
    "partNumber": 243,
    "partName": "Rangaa Pur",
    "lat": 18.1585442,
    "lon": 79.94821824374174
  },
  {
    "partId": 32009,
    "stateCode": "S29",
    "stateName": "Telangana",
    "districtCode": "S2932",
    "districtName": "Mulugu",
    "acNumber": 109,
    "acName": "Mulug",
    "partNumber": 244,
    "partName": "Bee Rellli,",
    "lat": 18.1585442,
    "lon": 79.94821824374174
  },
  {
    "partId": 31858,
    "stateCode": "S29",
    "stateName": "Telangana",
    "districtCode": "S2932",
    "districtName": "Mulugu",
    "acNumber": 109,
    "acName": "Mulug",
    "partNumber": 245,
    "partName": "Pamba Pur,",
    "lat": 18.1585442,
    "lon": 79.94821824374174
  },
  {
    "partId": 32010,
    "stateCode": "S29",
    "stateName": "Telangana",
    "districtCode": "S2932",
    "districtName": "Mulugu",
    "acNumber": 109,
    "acName": "Mulug",
    "partNumber": 246,
    "partName": "Damera Vaayi,",
    "lat": 18.1585442,
    "lon": 79.94821824374174
  },
  {
    "partId": 31859,
    "stateCode": "S29",
    "stateName": "Telangana",
    "districtCode": "S2932",
    "districtName": "Mulugu",
    "acNumber": 109,
    "acName": "Mulug",
    "partNumber": 247,
    "partName": "Bollle Palli,",
    "lat": 18.1585442,
    "lon": 79.94821824374174
  },
  {
    "partId": 32011,
    "stateCode": "S29",
    "stateName": "Telangana",
    "districtCode": "S2932",
    "districtName": "Mulugu",
    "acNumber": 109,
    "acName": "Mulug",
    "partNumber": 248,
    "partName": "Lingaala,",
    "lat": 18.1585442,
    "lon": 79.94821824374174
  },
  {
    "partId": 32012,
    "stateCode": "S29",
    "stateName": "Telangana",
    "districtCode": "S2932",
    "districtName": "Mulugu",
    "acNumber": 109,
    "acName": "Mulug",
    "partNumber": 249,
    "partName": "Madagudem",
    "lat": 18.1585442,
    "lon": 79.94821824374174
  },
  {
    "partId": 32013,
    "stateCode": "S29",
    "stateName": "Telangana",
    "districtCode": "S2932",
    "districtName": "Mulugu",
    "acNumber": 109,
    "acName": "Mulug",
    "partNumber": 250,
    "partName": "Dubbagudem",
    "lat": 18.1309565,
    "lon": 80.0299504
  },
  {
    "partId": 31860,
    "stateCode": "S29",
    "stateName": "Telangana",
    "districtCode": "S2932",
    "districtName": "Mulugu",
    "acNumber": 109,
    "acName": "Mulug",
    "partNumber": 251,
    "partName": ".Kamaram",
    "lat": 18.1059328,
    "lon": 80.4259193
  },
  {
    "partId": 31861,
    "stateCode": "S29",
    "stateName": "Telangana",
    "districtCode": "S2932",
    "districtName": "Mulugu",
    "acNumber": 109,
    "acName": "Mulug",
    "partNumber": 252,
    "partName": "Ponugondla",
    "lat": 18.1585442,
    "lon": 79.94821824374174
  },
  {
    "partId": 32014,
    "stateCode": "S29",
    "stateName": "Telangana",
    "districtCode": "S2932",
    "districtName": "Mulugu",
    "acNumber": 109,
    "acName": "Mulug",
    "partNumber": 253,
    "partName": "Ramavaram",
    "lat": 18.1585442,
    "lon": 79.94821824374174
  },
  {
    "partId": 32015,
    "stateCode": "S29",
    "stateName": "Telangana",
    "districtCode": "S2932",
    "districtName": "Mulugu",
    "acNumber": 109,
    "acName": "Mulug",
    "partNumber": 254,
    "partName": "Marrigudem",
    "lat": 18.31453475,
    "lon": 80.3458815996114
  },
  {
    "partId": 32016,
    "stateCode": "S29",
    "stateName": "Telangana",
    "districtCode": "S2932",
    "districtName": "Mulugu",
    "acNumber": 109,
    "acName": "Mulug",
    "partNumber": 255,
    "partName": "Mahadevuni Gudem",
    "lat": 18.1585442,
    "lon": 79.94821824374174
  },
  {
    "partId": 31862,
    "stateCode": "S29",
    "stateName": "Telangana",
    "districtCode": "S2932",
    "districtName": "Mulugu",
    "acNumber": 109,
    "acName": "Mulug",
    "partNumber": 256,
    "partName": "Doravari Vempally",
    "lat": 18.1585442,
    "lon": 79.94821824374174
  },
  {
    "partId": 31863,
    "stateCode": "S29",
    "stateName": "Telangana",
    "districtCode": "S2932",
    "districtName": "Mulugu",
    "acNumber": 109,
    "acName": "Mulug",
    "partNumber": 257,
    "partName": ".Karnegandi",
    "lat": 18.1585442,
    "lon": 79.94821824374174
  },
  {
    "partId": 31864,
    "stateCode": "S29",
    "stateName": "Telangana",
    "districtCode": "S2932",
    "districtName": "Mulugu",
    "acNumber": 109,
    "acName": "Mulug",
    "partNumber": 258,
    "partName": "Jangavani Gudem",
    "lat": 18.1585442,
    "lon": 79.94821824374174
  },
  {
    "partId": 32017,
    "stateCode": "S29",
    "stateName": "Telangana",
    "districtCode": "S2932",
    "districtName": "Mulugu",
    "acNumber": 109,
    "acName": "Mulug",
    "partNumber": 259,
    "partName": "Erravaram",
    "lat": 18.1585442,
    "lon": 79.94821824374174
  },
  {
    "partId": 32018,
    "stateCode": "S29",
    "stateName": "Telangana",
    "districtCode": "S2932",
    "districtName": "Mulugu",
    "acNumber": 109,
    "acName": "Mulug",
    "partNumber": 260,
    "partName": "Edullapalli",
    "lat": 18.1585442,
    "lon": 79.94821824374174
  },
  {
    "partId": 31865,
    "stateCode": "S29",
    "stateName": "Telangana",
    "districtCode": "S2932",
    "districtName": "Mulugu",
    "acNumber": 109,
    "acName": "Mulug",
    "partNumber": 261,
    "partName": "Sadireddy Palli",
    "lat": 18.1585442,
    "lon": 79.94821824374174
  },
  {
    "partId": 31866,
    "stateCode": "S29",
    "stateName": "Telangana",
    "districtCode": "S2932",
    "districtName": "Mulugu",
    "acNumber": 109,
    "acName": "Mulug",
    "partNumber": 262,
    "partName": ".Konapuram",
    "lat": 18.1585442,
    "lon": 79.94821824374174
  },
  {
    "partId": 31867,
    "stateCode": "S29",
    "stateName": "Telangana",
    "districtCode": "S2932",
    "districtName": "Mulugu",
    "acNumber": 109,
    "acName": "Mulug",
    "partNumber": 263,
    "partName": "Ootai",
    "lat": 18.31453475,
    "lon": 80.3458815996114
  },
  {
    "partId": 32019,
    "stateCode": "S29",
    "stateName": "Telangana",
    "districtCode": "S2932",
    "districtName": "Mulugu",
    "acNumber": 109,
    "acName": "Mulug",
    "partNumber": 264,
    "partName": "Ootai",
    "lat": 18.1585442,
    "lon": 79.94821824374174
  },
  {
    "partId": 32020,
    "stateCode": "S29",
    "stateName": "Telangana",
    "districtCode": "S2932",
    "districtName": "Mulugu",
    "acNumber": 109,
    "acName": "Mulug",
    "partNumber": 265,
    "partName": "Rainya Thanda",
    "lat": 18.1585442,
    "lon": 79.94821824374174
  },
  {
    "partId": 31868,
    "stateCode": "S29",
    "stateName": "Telangana",
    "districtCode": "S2932",
    "districtName": "Mulugu",
    "acNumber": 109,
    "acName": "Mulug",
    "partNumber": 266,
    "partName": "Enchagudem",
    "lat": 18.1585442,
    "lon": 79.94821824374174
  },
  {
    "partId": 31869,
    "stateCode": "S29",
    "stateName": "Telangana",
    "districtCode": "S2932",
    "districtName": "Mulugu",
    "acNumber": 109,
    "acName": "Mulug",
    "partNumber": 267,
    "partName": "Mokallapalli",
    "lat": 18.1585442,
    "lon": 79.94821824374174
  },
  {
    "partId": 31870,
    "stateCode": "S29",
    "stateName": "Telangana",
    "districtCode": "S2932",
    "districtName": "Mulugu",
    "acNumber": 109,
    "acName": "Mulug",
    "partNumber": 268,
    "partName": "Pogullapalli",
    "lat": 18.1585442,
    "lon": 79.94821824374174
  },
  {
    "partId": 32021,
    "stateCode": "S29",
    "stateName": "Telangana",
    "districtCode": "S2932",
    "districtName": "Mulugu",
    "acNumber": 109,
    "acName": "Mulug",
    "partNumber": 269,
    "partName": "Pogulla Palli",
    "lat": 18.1585442,
    "lon": 79.94821824374174
  },
  {
    "partId": 31871,
    "stateCode": "S29",
    "stateName": "Telangana",
    "districtCode": "S2932",
    "districtName": "Mulugu",
    "acNumber": 109,
    "acName": "Mulug",
    "partNumber": 270,
    "partName": "Pegadapalli",
    "lat": 18.1585442,
    "lon": 79.94821824374174
  },
  {
    "partId": 32022,
    "stateCode": "S29",
    "stateName": "Telangana",
    "districtCode": "S2932",
    "districtName": "Mulugu",
    "acNumber": 109,
    "acName": "Mulug",
    "partNumber": 271,
    "partName": "Govindapur",
    "lat": 18.31453475,
    "lon": 80.3458815996114
  },
  {
    "partId": 31872,
    "stateCode": "S29",
    "stateName": "Telangana",
    "districtCode": "S2932",
    "districtName": "Mulugu",
    "acNumber": 109,
    "acName": "Mulug",
    "partNumber": 272,
    "partName": "Gundam",
    "lat": 18.1585442,
    "lon": 79.94821824374174
  },
  {
    "partId": 32023,
    "stateCode": "S29",
    "stateName": "Telangana",
    "districtCode": "S2932",
    "districtName": "Mulugu",
    "acNumber": 109,
    "acName": "Mulug",
    "partNumber": 273,
    "partName": "Thimmapur",
    "lat": 18.3297688,
    "lon": 79.9762738
  },
  {
    "partId": 31873,
    "stateCode": "S29",
    "stateName": "Telangana",
    "districtCode": "S2932",
    "districtName": "Mulugu",
    "acNumber": 109,
    "acName": "Mulug",
    "partNumber": 274,
    "partName": ".Kothaguda",
    "lat": 18.1585442,
    "lon": 79.94821824374174
  },
  {
    "partId": 32024,
    "stateCode": "S29",
    "stateName": "Telangana",
    "districtCode": "S2932",
    "districtName": "Mulugu",
    "acNumber": 109,
    "acName": "Mulug",
    "partNumber": 275,
    "partName": ".Kothaguda",
    "lat": 18.1585442,
    "lon": 79.94821824374174
  },
  {
    "partId": 31874,
    "stateCode": "S29",
    "stateName": "Telangana",
    "districtCode": "S2932",
    "districtName": "Mulugu",
    "acNumber": 109,
    "acName": "Mulug",
    "partNumber": 276,
    "partName": "Mailaram",
    "lat": 18.31453475,
    "lon": 80.3458815996114
  },
  {
    "partId": 32025,
    "stateCode": "S29",
    "stateName": "Telangana",
    "districtCode": "S2932",
    "districtName": "Mulugu",
    "acNumber": 109,
    "acName": "Mulug",
    "partNumber": 277,
    "partName": "Gunjedu",
    "lat": 18.1585442,
    "lon": 79.94821824374174
  },
  {
    "partId": 32026,
    "stateCode": "S29",
    "stateName": "Telangana",
    "districtCode": "S2932",
    "districtName": "Mulugu",
    "acNumber": 109,
    "acName": "Mulug",
    "partNumber": 278,
    "partName": ".Kotha Palli",
    "lat": 18.1585442,
    "lon": 79.94821824374174
  },
  {
    "partId": 32027,
    "stateCode": "S29",
    "stateName": "Telangana",
    "districtCode": "S2932",
    "districtName": "Mulugu",
    "acNumber": 109,
    "acName": "Mulug",
    "partNumber": 279,
    "partName": "Routhugudem H/O Kothapalli",
    "lat": 18.1585442,
    "lon": 79.94821824374174
  },
  {
    "partId": 31875,
    "stateCode": "S29",
    "stateName": "Telangana",
    "districtCode": "S2932",
    "districtName": "Mulugu",
    "acNumber": 109,
    "acName": "Mulug",
    "partNumber": 280,
    "partName": "Musmi ( Ladaigadda Thanda)",
    "lat": 18.1585442,
    "lon": 79.94821824374174
  },
  {
    "partId": 31876,
    "stateCode": "S29",
    "stateName": "Telangana",
    "districtCode": "S2932",
    "districtName": "Mulugu",
    "acNumber": 109,
    "acName": "Mulug",
    "partNumber": 281,
    "partName": "Ramannagudem(Ladaigadda Thanda)",
    "lat": 18.1585442,
    "lon": 79.94821824374174
  },
  {
    "partId": 31877,
    "stateCode": "S29",
    "stateName": "Telangana",
    "districtCode": "S2932",
    "districtName": "Mulugu",
    "acNumber": 109,
    "acName": "Mulug",
    "partNumber": 282,
    "partName": "Ladaigadda Thanda (Mushmi)",
    "lat": 18.1585442,
    "lon": 79.94821824374174
  },
  {
    "partId": 32028,
    "stateCode": "S29",
    "stateName": "Telangana",
    "districtCode": "S2932",
    "districtName": "Mulugu",
    "acNumber": 109,
    "acName": "Mulug",
    "partNumber": 283,
    "partName": "Velubelli",
    "lat": 18.1585442,
    "lon": 79.94821824374174
  },
  {
    "partId": 32029,
    "stateCode": "S29",
    "stateName": "Telangana",
    "districtCode": "S2932",
    "districtName": "Mulugu",
    "acNumber": 109,
    "acName": "Mulug",
    "partNumber": 284,
    "partName": "Velubelli",
    "lat": 18.1585442,
    "lon": 79.94821824374174
  },
  {
    "partId": 32030,
    "stateCode": "S29",
    "stateName": "Telangana",
    "districtCode": "S2932",
    "districtName": "Mulugu",
    "acNumber": 109,
    "acName": "Mulug",
    "partNumber": 285,
    "partName": "Cheruvumundu Thanda",
    "lat": 18.1585442,
    "lon": 79.94821824374174
  },
  {
    "partId": 32031,
    "stateCode": "S29",
    "stateName": "Telangana",
    "districtCode": "S2932",
    "districtName": "Mulugu",
    "acNumber": 109,
    "acName": "Mulug",
    "partNumber": 286,
    "partName": "Polaram",
    "lat": 18.31453475,
    "lon": 80.3458815996114
  },
  {
    "partId": 31878,
    "stateCode": "S29",
    "stateName": "Telangana",
    "districtCode": "S2932",
    "districtName": "Mulugu",
    "acNumber": 109,
    "acName": "Mulug",
    "partNumber": 287,
    "partName": ".Kistapur",
    "lat": 18.1585442,
    "lon": 79.94821824374174
  },
  {
    "partId": 31879,
    "stateCode": "S29",
    "stateName": "Telangana",
    "districtCode": "S2932",
    "districtName": "Mulugu",
    "acNumber": 109,
    "acName": "Mulug",
    "partNumber": 288,
    "partName": "Bathulapalli",
    "lat": 18.1585442,
    "lon": 79.94821824374174
  },
  {
    "partId": 31880,
    "stateCode": "S29",
    "stateName": "Telangana",
    "districtCode": "S2932",
    "districtName": "Mulugu",
    "acNumber": 109,
    "acName": "Mulug",
    "partNumber": 289,
    "partName": "Bakkachinthalapadu",
    "lat": 18.1585442,
    "lon": 79.94821824374174
  },
  {
    "partId": 32032,
    "stateCode": "S29",
    "stateName": "Telangana",
    "districtCode": "S2932",
    "districtName": "Mulugu",
    "acNumber": 109,
    "acName": "Mulug",
    "partNumber": 290,
    "partName": "Eswaragudem",
    "lat": 18.31453475,
    "lon": 80.3458815996114
  },
  {
    "partId": 32033,
    "stateCode": "S29",
    "stateName": "Telangana",
    "districtCode": "S2932",
    "districtName": "Mulugu",
    "acNumber": 109,
    "acName": "Mulug",
    "partNumber": 291,
    "partName": "Gopala Puram",
    "lat": 18.1585442,
    "lon": 79.94821824374174
  },
  {
    "partId": 32034,
    "stateCode": "S29",
    "stateName": "Telangana",
    "districtCode": "S2932",
    "districtName": "Mulugu",
    "acNumber": 109,
    "acName": "Mulug",
    "partNumber": 292,
    "partName": "Thativari Vempally",
    "lat": 18.31453475,
    "lon": 80.3458815996114
  },
  {
    "partId": 31881,
    "stateCode": "S29",
    "stateName": "Telangana",
    "districtCode": "S2932",
    "districtName": "Mulugu",
    "acNumber": 109,
    "acName": "Mulug",
    "partNumber": 293,
    "partName": "Tirumala Gandi",
    "lat": 18.1585442,
    "lon": 79.94821824374174
  },
  {
    "partId": 31882,
    "stateCode": "S29",
    "stateName": "Telangana",
    "districtCode": "S2932",
    "districtName": "Mulugu",
    "acNumber": 109,
    "acName": "Mulug",
    "partNumber": 294,
    "partName": "Puttala Bhupati",
    "lat": 18.31453475,
    "lon": 80.3458815996114
  },
  {
    "partId": 31883,
    "stateCode": "S29",
    "stateName": "Telangana",
    "districtCode": "S2932",
    "districtName": "Mulugu",
    "acNumber": 109,
    "acName": "Mulug",
    "partNumber": 295,
    "partName": "Chintagudem",
    "lat": 18.1585442,
    "lon": 79.94821824374174
  },
  {
    "partId": 32035,
    "stateCode": "S29",
    "stateName": "Telangana",
    "districtCode": "S2932",
    "districtName": "Mulugu",
    "acNumber": 109,
    "acName": "Mulug",
    "partNumber": 296,
    "partName": "Pedda Yellapur",
    "lat": 18.1585442,
    "lon": 79.94821824374174
  },
  {
    "partId": 32036,
    "stateCode": "S29",
    "stateName": "Telangana",
    "districtCode": "S2932",
    "districtName": "Mulugu",
    "acNumber": 109,
    "acName": "Mulug",
    "partNumber": 297,
    "partName": "Jangala Palli",
    "lat": 18.1585442,
    "lon": 79.94821824374174
  },
  {
    "partId": 31884,
    "stateCode": "S29",
    "stateName": "Telangana",
    "districtCode": "S2932",
    "districtName": "Mulugu",
    "acNumber": 109,
    "acName": "Mulug",
    "partNumber": 298,
    "partName": ".Komatigudem",
    "lat": 18.1585442,
    "lon": 79.94821824374174
  },
  {
    "partId": 31885,
    "stateCode": "S29",
    "stateName": "Telangana",
    "districtCode": "S2932",
    "districtName": "Mulugu",
    "acNumber": 109,
    "acName": "Mulug",
    "partNumber": 299,
    "partName": "Bavuru Gonda",
    "lat": 18.1585442,
    "lon": 79.94821824374174
  },
  {
    "partId": 31886,
    "stateCode": "S29",
    "stateName": "Telangana",
    "districtCode": "S2932",
    "districtName": "Mulugu",
    "acNumber": 109,
    "acName": "Mulug",
    "partNumber": 300,
    "partName": "Gangaram",
    "lat": 18.31453475,
    "lon": 80.3458815996114
  },
  {
    "partId": 32037,
    "stateCode": "S29",
    "stateName": "Telangana",
    "districtCode": "S2932",
    "districtName": "Mulugu",
    "acNumber": 109,
    "acName": "Mulug",
    "partNumber": 301,
    "partName": "Pandem",
    "lat": 18.1585442,
    "lon": 79.94821824374174
  },
  {
    "partId": 31887,
    "stateCode": "S29",
    "stateName": "Telangana",
    "districtCode": "S2932",
    "districtName": "Mulugu",
    "acNumber": 109,
    "acName": "Mulug",
    "partNumber": 302,
    "partName": "Kodishalamitta H/O Pendem",
    "lat": 18.1585442,
    "lon": 79.94821824374174
  },
  {
    "partId": 32038,
    "stateCode": "S29",
    "stateName": "Telangana",
    "districtCode": "S2932",
    "districtName": "Mulugu",
    "acNumber": 109,
    "acName": "Mulug",
    "partNumber": 303,
    "partName": ".Karlai",
    "lat": 18.1585442,
    "lon": 79.94821824374174
  }
]