[
  {
    "partId": 77452,
    "stateCode": "S29",
    "stateName": "Telangana",
    "districtCode": "S2919",
    "districtName": "Nagarkurnool",
    "acNumber": 82,
    "acName": "Achampet",
    "partNumber": 1,
    "partName": "Sirsangandla",
    "lat": 16.7304639,
    "lon": 78.7463267
  },
  {
    "partId": 77319,
    "stateCode": "S29",
    "stateName": "Telangana",
    "districtCode": "S2919",
    "districtName": "Nagarkurnool",
    "acNumber": 82,
    "acName": "Achampet",
    "partNumber": 2,
    "partName": "Sirsangandla",
    "lat": 16.7304639,
    "lon": 78.7463267
  },
  {
    "partId": 77453,
    "stateCode": "S29",
    "stateName": "Telangana",
    "districtCode": "S2919",
    "districtName": "Nagarkurnool",
    "acNumber": 82,
    "acName": "Achampet",
    "partNumber": 3,
    "partName": "Shanthiguda",
    "lat": 16.7180007,
    "lon": 78.7178102
  },
  {
    "partId": 77320,
    "stateCode": "S29",
    "stateName": "Telangana",
    "districtCode": "S2919",
    "districtName": "Nagarkurnool",
    "acNumber": 82,
    "acName": "Achampet",
    "partNumber": 4,
    "partName": "Agraharam Tanda",
    "lat": 16.658204,
    "lon": 78.6046117
  },
  {
    "partId": 77321,
    "stateCode": "S29",
    "stateName": "Telangana",
    "districtCode": "S2919",
    "districtName": "Nagarkurnool",
    "acNumber": 82,
    "acName": "Achampet",
    "partNumber": 5,
    "partName": "Agraharam Tanda",
    "lat": 16.658204,
    "lon": 78.6046117
  },
  {
    "partId": 77322,
    "stateCode": "S29",
    "stateName": "Telangana",
    "districtCode": "S2919",
    "districtName": "Nagarkurnool",
    "acNumber": 82,
    "acName": "Achampet",
    "partNumber": 6,
    "partName": "Charakonda",
    "lat": 16.6916061,
    "lon": 78.7054063
  },
  {
    "partId": 77454,
    "stateCode": "S29",
    "stateName": "Telangana",
    "districtCode": "S2919",
    "districtName": "Nagarkurnool",
    "acNumber": 82,
    "acName": "Achampet",
    "partNumber": 7,
    "partName": "Charakonda",
    "lat": 16.6916061,
    "lon": 78.7054063
  },
  {
    "partId": 77455,
    "stateCode": "S29",
    "stateName": "Telangana",
    "districtCode": "S2919",
    "districtName": "Nagarkurnool",
    "acNumber": 82,
    "acName": "Achampet",
    "partNumber": 8,
    "partName": "Charakonda",
    "lat": 16.6916061,
    "lon": 78.7054063
  },
  {
    "partId": 77456,
    "stateCode": "S29",
    "stateName": "Telangana",
    "districtCode": "S2919",
    "districtName": "Nagarkurnool",
    "acNumber": 82,
    "acName": "Achampet",
    "partNumber": 9,
    "partName": "Charakonda",
    "lat": 16.6916061,
    "lon": 78.7054063
  },
  {
    "partId": 77323,
    "stateCode": "S29",
    "stateName": "Telangana",
    "districtCode": "S2919",
    "districtName": "Nagarkurnool",
    "acNumber": 82,
    "acName": "Achampet",
    "partNumber": 10,
    "partName": "Marripally",
    "lat": 16.4478038,
    "lon": 78.5599128
  },
  {
    "partId": 77324,
    "stateCode": "S29",
    "stateName": "Telangana",
    "districtCode": "S2919",
    "districtName": "Nagarkurnool",
    "acNumber": 82,
    "acName": "Achampet",
    "partNumber": 11,
    "partName": "Timmayapalli",
    "lat": 16.3999846,
    "lon": 78.6379866
  },
  {
    "partId": 77325,
    "stateCode": "S29",
    "stateName": "Telangana",
    "districtCode": "S2919",
    "districtName": "Nagarkurnool",
    "acNumber": 82,
    "acName": "Achampet",
    "partNumber": 12,
    "partName": "Sarabandatanda",
    "lat": 16.3999846,
    "lon": 78.6379866
  },
  {
    "partId": 77457,
    "stateCode": "S29",
    "stateName": "Telangana",
    "districtCode": "S2919",
    "districtName": "Nagarkurnool",
    "acNumber": 82,
    "acName": "Achampet",
    "partNumber": 13,
    "partName": "Turkalapalli",
    "lat": 16.3999846,
    "lon": 78.6379866
  },
  {
    "partId": 77458,
    "stateCode": "S29",
    "stateName": "Telangana",
    "districtCode": "S2919",
    "districtName": "Nagarkurnool",
    "acNumber": 82,
    "acName": "Achampet",
    "partNumber": 14,
    "partName": "Turkalapally",
    "lat": 16.3999846,
    "lon": 78.6379866
  },
  {
    "partId": 77459,
    "stateCode": "S29",
    "stateName": "Telangana",
    "districtCode": "S2919",
    "districtName": "Nagarkurnool",
    "acNumber": 82,
    "acName": "Achampet",
    "partNumber": 15,
    "partName": "Kondareddy Palli",
    "lat": 16.3999846,
    "lon": 78.6379866
  },
  {
    "partId": 77326,
    "stateCode": "S29",
    "stateName": "Telangana",
    "districtCode": "S2919",
    "districtName": "Nagarkurnool",
    "acNumber": 82,
    "acName": "Achampet",
    "partNumber": 16,
    "partName": "Konda Reddy Palli",
    "lat": 16.3999846,
    "lon": 78.6379866
  },
  {
    "partId": 77327,
    "stateCode": "S29",
    "stateName": "Telangana",
    "districtCode": "S2919",
    "districtName": "Nagarkurnool",
    "acNumber": 82,
    "acName": "Achampet",
    "partNumber": 17,
    "partName": "Vangoor",
    "lat": 16.6083934,
    "lon": 78.6240864
  },
  {
    "partId": 77328,
    "stateCode": "S29",
    "stateName": "Telangana",
    "districtCode": "S2919",
    "districtName": "Nagarkurnool",
    "acNumber": 82,
    "acName": "Achampet",
    "partNumber": 18,
    "partName": "Vangoor",
    "lat": 16.6083934,
    "lon": 78.6240864
  },
  {
    "partId": 77460,
    "stateCode": "S29",
    "stateName": "Telangana",
    "districtCode": "S2919",
    "districtName": "Nagarkurnool",
    "acNumber": 82,
    "acName": "Achampet",
    "partNumber": 19,
    "partName": "Vangoor",
    "lat": 16.6083934,
    "lon": 78.6240864
  },
  {
    "partId": 77588,
    "stateCode": "S29",
    "stateName": "Telangana",
    "districtCode": "S2919",
    "districtName": "Nagarkurnool",
    "acNumber": 82,
    "acName": "Achampet",
    "partNumber": 20,
    "partName": "Velamalapalli",
    "lat": 16.3999846,
    "lon": 78.6379866
  },
  {
    "partId": 77461,
    "stateCode": "S29",
    "stateName": "Telangana",
    "districtCode": "S2919",
    "districtName": "Nagarkurnool",
    "acNumber": 82,
    "acName": "Achampet",
    "partNumber": 21,
    "partName": "Machanoni  Palli",
    "lat": 16.3999846,
    "lon": 78.6379866
  },
  {
    "partId": 77462,
    "stateCode": "S29",
    "stateName": "Telangana",
    "districtCode": "S2919",
    "districtName": "Nagarkurnool",
    "acNumber": 82,
    "acName": "Achampet",
    "partNumber": 22,
    "partName": "Thimmala Palli",
    "lat": 16.3999846,
    "lon": 78.6379866
  },
  {
    "partId": 77329,
    "stateCode": "S29",
    "stateName": "Telangana",
    "districtCode": "S2919",
    "districtName": "Nagarkurnool",
    "acNumber": 82,
    "acName": "Achampet",
    "partNumber": 23,
    "partName": "Ullampally",
    "lat": 16.3999846,
    "lon": 78.6379866
  },
  {
    "partId": 77330,
    "stateCode": "S29",
    "stateName": "Telangana",
    "districtCode": "S2919",
    "districtName": "Nagarkurnool",
    "acNumber": 82,
    "acName": "Achampet",
    "partNumber": 24,
    "partName": "Polkam Palli",
    "lat": 16.3999846,
    "lon": 78.6379866
  },
  {
    "partId": 77331,
    "stateCode": "S29",
    "stateName": "Telangana",
    "districtCode": "S2919",
    "districtName": "Nagarkurnool",
    "acNumber": 82,
    "acName": "Achampet",
    "partNumber": 25,
    "partName": "Polkam Pally",
    "lat": 16.3999846,
    "lon": 78.6379866
  },
  {
    "partId": 77463,
    "stateCode": "S29",
    "stateName": "Telangana",
    "districtCode": "S2919",
    "districtName": "Nagarkurnool",
    "acNumber": 82,
    "acName": "Achampet",
    "partNumber": 26,
    "partName": "Chowder Pally",
    "lat": 16.3999846,
    "lon": 78.6379866
  },
  {
    "partId": 77464,
    "stateCode": "S29",
    "stateName": "Telangana",
    "districtCode": "S2919",
    "districtName": "Nagarkurnool",
    "acNumber": 82,
    "acName": "Achampet",
    "partNumber": 27,
    "partName": "Rangapoor",
    "lat": 16.565081,
    "lon": 78.5397254
  },
  {
    "partId": 77465,
    "stateCode": "S29",
    "stateName": "Telangana",
    "districtCode": "S2919",
    "districtName": "Nagarkurnool",
    "acNumber": 82,
    "acName": "Achampet",
    "partNumber": 28,
    "partName": "Rangapoor",
    "lat": 16.565081,
    "lon": 78.5397254
  },
  {
    "partId": 77332,
    "stateCode": "S29",
    "stateName": "Telangana",
    "districtCode": "S2919",
    "districtName": "Nagarkurnool",
    "acNumber": 82,
    "acName": "Achampet",
    "partNumber": 29,
    "partName": "Rangapur",
    "lat": 16.3898372,
    "lon": 78.691029
  },
  {
    "partId": 77621,
    "stateCode": "S29",
    "stateName": "Telangana",
    "districtCode": "S2919",
    "districtName": "Nagarkurnool",
    "acNumber": 82,
    "acName": "Achampet",
    "partNumber": 30,
    "partName": "Konapur",
    "lat": 16.5448449,
    "lon": 78.5474395
  },
  {
    "partId": 77333,
    "stateCode": "S29",
    "stateName": "Telangana",
    "districtCode": "S2919",
    "districtName": "Nagarkurnool",
    "acNumber": 82,
    "acName": "Achampet",
    "partNumber": 31,
    "partName": "Rangapur",
    "lat": 16.3898372,
    "lon": 78.691029
  },
  {
    "partId": 77620,
    "stateCode": "S29",
    "stateName": "Telangana",
    "districtCode": "S2919",
    "districtName": "Nagarkurnool",
    "acNumber": 82,
    "acName": "Achampet",
    "partNumber": 32,
    "partName": "Rangapur Thanda",
    "lat": 16.401923,
    "lon": 78.7153175
  },
  {
    "partId": 77466,
    "stateCode": "S29",
    "stateName": "Telangana",
    "districtCode": "S2919",
    "districtName": "Nagarkurnool",
    "acNumber": 82,
    "acName": "Achampet",
    "partNumber": 33,
    "partName": "Jajala",
    "lat": 16.3999846,
    "lon": 78.6379866
  },
  {
    "partId": 77467,
    "stateCode": "S29",
    "stateName": "Telangana",
    "districtCode": "S2919",
    "districtName": "Nagarkurnool",
    "acNumber": 82,
    "acName": "Achampet",
    "partNumber": 34,
    "partName": "Jajala",
    "lat": 16.3999846,
    "lon": 78.6379866
  },
  {
    "partId": 77589,
    "stateCode": "S29",
    "stateName": "Telangana",
    "districtCode": "S2919",
    "districtName": "Nagarkurnool",
    "acNumber": 82,
    "acName": "Achampet",
    "partNumber": 35,
    "partName": "Jajala Thanda",
    "lat": 16.3999846,
    "lon": 78.6379866
  },
  {
    "partId": 77468,
    "stateCode": "S29",
    "stateName": "Telangana",
    "districtCode": "S2919",
    "districtName": "Nagarkurnool",
    "acNumber": 82,
    "acName": "Achampet",
    "partNumber": 36,
    "partName": "Annaram",
    "lat": 16.5318215,
    "lon": 78.4969041
  },
  {
    "partId": 77596,
    "stateCode": "S29",
    "stateName": "Telangana",
    "districtCode": "S2919",
    "districtName": "Nagarkurnool",
    "acNumber": 82,
    "acName": "Achampet",
    "partNumber": 37,
    "partName": "Marikol Thanda",
    "lat": 16.3999846,
    "lon": 78.6379866
  },
  {
    "partId": 77334,
    "stateCode": "S29",
    "stateName": "Telangana",
    "districtCode": "S2919",
    "districtName": "Nagarkurnool",
    "acNumber": 82,
    "acName": "Achampet",
    "partNumber": 38,
    "partName": "Pothi Reddy Palli",
    "lat": 16.3999846,
    "lon": 78.6379866
  },
  {
    "partId": 77335,
    "stateCode": "S29",
    "stateName": "Telangana",
    "districtCode": "S2919",
    "districtName": "Nagarkurnool",
    "acNumber": 82,
    "acName": "Achampet",
    "partNumber": 39,
    "partName": "Ulpara",
    "lat": 16.5050675,
    "lon": 78.5533913
  },
  {
    "partId": 77336,
    "stateCode": "S29",
    "stateName": "Telangana",
    "districtCode": "S2919",
    "districtName": "Nagarkurnool",
    "acNumber": 82,
    "acName": "Achampet",
    "partNumber": 40,
    "partName": "Ulpara",
    "lat": 16.5050675,
    "lon": 78.5533913
  },
  {
    "partId": 77469,
    "stateCode": "S29",
    "stateName": "Telangana",
    "districtCode": "S2919",
    "districtName": "Nagarkurnool",
    "acNumber": 82,
    "acName": "Achampet",
    "partNumber": 41,
    "partName": "Mitta Sadagodu",
    "lat": 16.3999846,
    "lon": 78.6379866
  },
  {
    "partId": 77470,
    "stateCode": "S29",
    "stateName": "Telangana",
    "districtCode": "S2919",
    "districtName": "Nagarkurnool",
    "acNumber": 82,
    "acName": "Achampet",
    "partNumber": 42,
    "partName": "Mittasadagodu",
    "lat": 16.3999846,
    "lon": 78.6379866
  },
  {
    "partId": 77471,
    "stateCode": "S29",
    "stateName": "Telangana",
    "districtCode": "S2919",
    "districtName": "Nagarkurnool",
    "acNumber": 82,
    "acName": "Achampet",
    "partNumber": 43,
    "partName": "Dindi  Chintha  Palli",
    "lat": 16.3999846,
    "lon": 78.6379866
  },
  {
    "partId": 77337,
    "stateCode": "S29",
    "stateName": "Telangana",
    "districtCode": "S2919",
    "districtName": "Nagarkurnool",
    "acNumber": 82,
    "acName": "Achampet",
    "partNumber": 44,
    "partName": "Dindi Chintha Pally",
    "lat": 16.3999846,
    "lon": 78.6379866
  },
  {
    "partId": 77338,
    "stateCode": "S29",
    "stateName": "Telangana",
    "districtCode": "S2919",
    "districtName": "Nagarkurnool",
    "acNumber": 82,
    "acName": "Achampet",
    "partNumber": 45,
    "partName": "Uppal Pahad",
    "lat": 16.3999846,
    "lon": 78.6379866
  },
  {
    "partId": 77339,
    "stateCode": "S29",
    "stateName": "Telangana",
    "districtCode": "S2919",
    "districtName": "Nagarkurnool",
    "acNumber": 82,
    "acName": "Achampet",
    "partNumber": 46,
    "partName": "Venkatapur",
    "lat": 16.5211943,
    "lon": 78.39902
  },
  {
    "partId": 77472,
    "stateCode": "S29",
    "stateName": "Telangana",
    "districtCode": "S2919",
    "districtName": "Nagarkurnool",
    "acNumber": 82,
    "acName": "Achampet",
    "partNumber": 47,
    "partName": "Sarva  Reddy Pally",
    "lat": 16.3999846,
    "lon": 78.6379866
  },
  {
    "partId": 77622,
    "stateCode": "S29",
    "stateName": "Telangana",
    "districtCode": "S2919",
    "districtName": "Nagarkurnool",
    "acNumber": 82,
    "acName": "Achampet",
    "partNumber": 48,
    "partName": "Sarvareddypally Thanda",
    "lat": 16.3999846,
    "lon": 78.6379866
  },
  {
    "partId": 77473,
    "stateCode": "S29",
    "stateName": "Telangana",
    "districtCode": "S2919",
    "districtName": "Nagarkurnool",
    "acNumber": 82,
    "acName": "Achampet",
    "partNumber": 49,
    "partName": "Sarva  Reddy Pally",
    "lat": 16.3999846,
    "lon": 78.6379866
  },
  {
    "partId": 77607,
    "stateCode": "S29",
    "stateName": "Telangana",
    "districtCode": "S2919",
    "districtName": "Nagarkurnool",
    "acNumber": 82,
    "acName": "Achampet",
    "partNumber": 50,
    "partName": "Narsampally",
    "lat": 16.7374058,
    "lon": 78.4466395
  },
  {
    "partId": 77623,
    "stateCode": "S29",
    "stateName": "Telangana",
    "districtCode": "S2919",
    "districtName": "Nagarkurnool",
    "acNumber": 82,
    "acName": "Achampet",
    "partNumber": 51,
    "partName": "Jarpula Thanda",
    "lat": 16.3999846,
    "lon": 78.6379866
  },
  {
    "partId": 77474,
    "stateCode": "S29",
    "stateName": "Telangana",
    "districtCode": "S2919",
    "districtName": "Nagarkurnool",
    "acNumber": 82,
    "acName": "Achampet",
    "partNumber": 52,
    "partName": "Konetipur",
    "lat": 16.3999846,
    "lon": 78.6379866
  },
  {
    "partId": 77624,
    "stateCode": "S29",
    "stateName": "Telangana",
    "districtCode": "S2919",
    "districtName": "Nagarkurnool",
    "acNumber": 82,
    "acName": "Achampet",
    "partNumber": 53,
    "partName": "Somla Thanda",
    "lat": 16.3999846,
    "lon": 78.6379866
  },
  {
    "partId": 77340,
    "stateCode": "S29",
    "stateName": "Telangana",
    "districtCode": "S2919",
    "districtName": "Nagarkurnool",
    "acNumber": 82,
    "acName": "Achampet",
    "partNumber": 54,
    "partName": "Gajara",
    "lat": 16.597613,
    "lon": 78.6708996
  },
  {
    "partId": 77475,
    "stateCode": "S29",
    "stateName": "Telangana",
    "districtCode": "S2919",
    "districtName": "Nagarkurnool",
    "acNumber": 82,
    "acName": "Achampet",
    "partNumber": 55,
    "partName": "Gajara",
    "lat": 16.597613,
    "lon": 78.6708996
  },
  {
    "partId": 77341,
    "stateCode": "S29",
    "stateName": "Telangana",
    "districtCode": "S2919",
    "districtName": "Nagarkurnool",
    "acNumber": 82,
    "acName": "Achampet",
    "partNumber": 56,
    "partName": "Thippa Reddy Pally",
    "lat": 16.3999846,
    "lon": 78.6379866
  },
  {
    "partId": 77476,
    "stateCode": "S29",
    "stateName": "Telangana",
    "districtCode": "S2919",
    "districtName": "Nagarkurnool",
    "acNumber": 82,
    "acName": "Achampet",
    "partNumber": 57,
    "partName": "Thirumalagiri",
    "lat": 16.3999846,
    "lon": 78.6379866
  },
  {
    "partId": 77618,
    "stateCode": "S29",
    "stateName": "Telangana",
    "districtCode": "S2919",
    "districtName": "Nagarkurnool",
    "acNumber": 82,
    "acName": "Achampet",
    "partNumber": 58,
    "partName": "Saigutta Thanda",
    "lat": 16.5625568,
    "lon": 78.6869037
  },
  {
    "partId": 77342,
    "stateCode": "S29",
    "stateName": "Telangana",
    "districtCode": "S2919",
    "districtName": "Nagarkurnool",
    "acNumber": 82,
    "acName": "Achampet",
    "partNumber": 59,
    "partName": "Nijambad",
    "lat": 16.3999846,
    "lon": 78.6379866
  },
  {
    "partId": 77625,
    "stateCode": "S29",
    "stateName": "Telangana",
    "districtCode": "S2919",
    "districtName": "Nagarkurnool",
    "acNumber": 82,
    "acName": "Achampet",
    "partNumber": 60,
    "partName": "Chakali Gudiselu",
    "lat": 16.3999846,
    "lon": 78.6379866
  },
  {
    "partId": 77343,
    "stateCode": "S29",
    "stateName": "Telangana",
    "districtCode": "S2919",
    "districtName": "Nagarkurnool",
    "acNumber": 82,
    "acName": "Achampet",
    "partNumber": 61,
    "partName": "Ummapur",
    "lat": 16.3999846,
    "lon": 78.6379866
  },
  {
    "partId": 77344,
    "stateCode": "S29",
    "stateName": "Telangana",
    "districtCode": "S2919",
    "districtName": "Nagarkurnool",
    "acNumber": 82,
    "acName": "Achampet",
    "partNumber": 62,
    "partName": "Peni Milla",
    "lat": 16.3999846,
    "lon": 78.6379866
  },
  {
    "partId": 77477,
    "stateCode": "S29",
    "stateName": "Telangana",
    "districtCode": "S2919",
    "districtName": "Nagarkurnool",
    "acNumber": 82,
    "acName": "Achampet",
    "partNumber": 63,
    "partName": "Peni Milla",
    "lat": 16.3999846,
    "lon": 78.6379866
  },
  {
    "partId": 77591,
    "stateCode": "S29",
    "stateName": "Telangana",
    "districtCode": "S2919",
    "districtName": "Nagarkurnool",
    "acNumber": 82,
    "acName": "Achampet",
    "partNumber": 64,
    "partName": "CB Thanda",
    "lat": 16.3999846,
    "lon": 78.6379866
  },
  {
    "partId": 77593,
    "stateCode": "S29",
    "stateName": "Telangana",
    "districtCode": "S2919",
    "districtName": "Nagarkurnool",
    "acNumber": 82,
    "acName": "Achampet",
    "partNumber": 65,
    "partName": "Purya Thanda",
    "lat": 16.3999846,
    "lon": 78.6379866
  },
  {
    "partId": 77478,
    "stateCode": "S29",
    "stateName": "Telangana",
    "districtCode": "S2919",
    "districtName": "Nagarkurnool",
    "acNumber": 82,
    "acName": "Achampet",
    "partNumber": 66,
    "partName": "Guvva Loni Pally",
    "lat": 16.3999846,
    "lon": 78.6379866
  },
  {
    "partId": 77345,
    "stateCode": "S29",
    "stateName": "Telangana",
    "districtCode": "S2919",
    "districtName": "Nagarkurnool",
    "acNumber": 82,
    "acName": "Achampet",
    "partNumber": 67,
    "partName": "Lathi Pur",
    "lat": 16.3999846,
    "lon": 78.6379866
  },
  {
    "partId": 77594,
    "stateCode": "S29",
    "stateName": "Telangana",
    "districtCode": "S2919",
    "districtName": "Nagarkurnool",
    "acNumber": 82,
    "acName": "Achampet",
    "partNumber": 68,
    "partName": "Eratwanipally",
    "lat": 16.3999846,
    "lon": 78.6379866
  },
  {
    "partId": 77346,
    "stateCode": "S29",
    "stateName": "Telangana",
    "districtCode": "S2919",
    "districtName": "Nagarkurnool",
    "acNumber": 82,
    "acName": "Achampet",
    "partNumber": 69,
    "partName": "Koratikal",
    "lat": 16.3999846,
    "lon": 78.6379866
  },
  {
    "partId": 77347,
    "stateCode": "S29",
    "stateName": "Telangana",
    "districtCode": "S2919",
    "districtName": "Nagarkurnool",
    "acNumber": 82,
    "acName": "Achampet",
    "partNumber": 70,
    "partName": "Koratikal",
    "lat": 16.3999846,
    "lon": 78.6379866
  },
  {
    "partId": 77597,
    "stateCode": "S29",
    "stateName": "Telangana",
    "districtCode": "S2919",
    "districtName": "Nagarkurnool",
    "acNumber": 82,
    "acName": "Achampet",
    "partNumber": 71,
    "partName": "Thippapur",
    "lat": 16.4876896,
    "lon": 78.6480074
  },
  {
    "partId": 77479,
    "stateCode": "S29",
    "stateName": "Telangana",
    "districtCode": "S2919",
    "districtName": "Nagarkurnool",
    "acNumber": 82,
    "acName": "Achampet",
    "partNumber": 72,
    "partName": "Kamsani Pally",
    "lat": 16.3999846,
    "lon": 78.6379866
  },
  {
    "partId": 77480,
    "stateCode": "S29",
    "stateName": "Telangana",
    "districtCode": "S2919",
    "districtName": "Nagarkurnool",
    "acNumber": 82,
    "acName": "Achampet",
    "partNumber": 73,
    "partName": "Kamsani Pally",
    "lat": 16.3999846,
    "lon": 78.6379866
  },
  {
    "partId": 77599,
    "stateCode": "S29",
    "stateName": "Telangana",
    "districtCode": "S2919",
    "districtName": "Nagarkurnool",
    "acNumber": 82,
    "acName": "Achampet",
    "partNumber": 74,
    "partName": "Kamsanipally Thanda",
    "lat": 16.4996425,
    "lon": 78.6113271
  },
  {
    "partId": 77481,
    "stateCode": "S29",
    "stateName": "Telangana",
    "districtCode": "S2919",
    "districtName": "Nagarkurnool",
    "acNumber": 82,
    "acName": "Achampet",
    "partNumber": 75,
    "partName": "Japti Sadagodu",
    "lat": 16.3999846,
    "lon": 78.6379866
  },
  {
    "partId": 77348,
    "stateCode": "S29",
    "stateName": "Telangana",
    "districtCode": "S2919",
    "districtName": "Nagarkurnool",
    "acNumber": 82,
    "acName": "Achampet",
    "partNumber": 76,
    "partName": "Japti  Sadagodu",
    "lat": 16.3999846,
    "lon": 78.6379866
  },
  {
    "partId": 77349,
    "stateCode": "S29",
    "stateName": "Telangana",
    "districtCode": "S2919",
    "districtName": "Nagarkurnool",
    "acNumber": 82,
    "acName": "Achampet",
    "partNumber": 77,
    "partName": "Thirumalapur",
    "lat": 16.5154043,
    "lon": 78.5982602
  },
  {
    "partId": 77482,
    "stateCode": "S29",
    "stateName": "Telangana",
    "districtCode": "S2919",
    "districtName": "Nagarkurnool",
    "acNumber": 82,
    "acName": "Achampet",
    "partNumber": 78,
    "partName": "Molgara",
    "lat": 16.4946622,
    "lon": 78.5549283
  },
  {
    "partId": 77483,
    "stateCode": "S29",
    "stateName": "Telangana",
    "districtCode": "S2919",
    "districtName": "Nagarkurnool",
    "acNumber": 82,
    "acName": "Achampet",
    "partNumber": 79,
    "partName": "Pedda Pur",
    "lat": 16.3999846,
    "lon": 78.6379866
  },
  {
    "partId": 77484,
    "stateCode": "S29",
    "stateName": "Telangana",
    "districtCode": "S2919",
    "districtName": "Nagarkurnool",
    "acNumber": 82,
    "acName": "Achampet",
    "partNumber": 80,
    "partName": "Laxma Pur P.G.",
    "lat": 16.3999846,
    "lon": 78.6379866
  },
  {
    "partId": 77350,
    "stateCode": "S29",
    "stateName": "Telangana",
    "districtCode": "S2919",
    "districtName": "Nagarkurnool",
    "acNumber": 82,
    "acName": "Achampet",
    "partNumber": 81,
    "partName": "Mamilla Pally",
    "lat": 16.3999846,
    "lon": 78.6379866
  },
  {
    "partId": 77351,
    "stateCode": "S29",
    "stateName": "Telangana",
    "districtCode": "S2919",
    "districtName": "Nagarkurnool",
    "acNumber": 82,
    "acName": "Achampet",
    "partNumber": 82,
    "partName": "Mamillapally",
    "lat": 16.3992498,
    "lon": 78.6359319
  },
  {
    "partId": 77352,
    "stateCode": "S29",
    "stateName": "Telangana",
    "districtCode": "S2919",
    "districtName": "Nagarkurnool",
    "acNumber": 82,
    "acName": "Achampet",
    "partNumber": 83,
    "partName": "Dasarlapally",
    "lat": 16.5108291,
    "lon": 78.4988173
  },
  {
    "partId": 77485,
    "stateCode": "S29",
    "stateName": "Telangana",
    "districtCode": "S2919",
    "districtName": "Nagarkurnool",
    "acNumber": 82,
    "acName": "Achampet",
    "partNumber": 84,
    "partName": "Uppar Pally",
    "lat": 16.3999846,
    "lon": 78.6379866
  },
  {
    "partId": 77486,
    "stateCode": "S29",
    "stateName": "Telangana",
    "districtCode": "S2919",
    "districtName": "Nagarkurnool",
    "acNumber": 82,
    "acName": "Achampet",
    "partNumber": 85,
    "partName": "Marripalli",
    "lat": 16.3999846,
    "lon": 78.6379866
  },
  {
    "partId": 77487,
    "stateCode": "S29",
    "stateName": "Telangana",
    "districtCode": "S2919",
    "districtName": "Nagarkurnool",
    "acNumber": 82,
    "acName": "Achampet",
    "partNumber": 86,
    "partName": "Marripally",
    "lat": 16.4478038,
    "lon": 78.5599128
  },
  {
    "partId": 77353,
    "stateCode": "S29",
    "stateName": "Telangana",
    "districtCode": "S2919",
    "districtName": "Nagarkurnool",
    "acNumber": 82,
    "acName": "Achampet",
    "partNumber": 87,
    "partName": "Uppununthala",
    "lat": 16.4563177,
    "lon": 78.5951829
  },
  {
    "partId": 77354,
    "stateCode": "S29",
    "stateName": "Telangana",
    "districtCode": "S2919",
    "districtName": "Nagarkurnool",
    "acNumber": 82,
    "acName": "Achampet",
    "partNumber": 88,
    "partName": "Uppanunthala",
    "lat": 16.3999846,
    "lon": 78.6379866
  },
  {
    "partId": 77355,
    "stateCode": "S29",
    "stateName": "Telangana",
    "districtCode": "S2919",
    "districtName": "Nagarkurnool",
    "acNumber": 82,
    "acName": "Achampet",
    "partNumber": 89,
    "partName": "Uppununthala",
    "lat": 16.4563177,
    "lon": 78.5951829
  },
  {
    "partId": 77488,
    "stateCode": "S29",
    "stateName": "Telangana",
    "districtCode": "S2919",
    "districtName": "Nagarkurnool",
    "acNumber": 82,
    "acName": "Achampet",
    "partNumber": 90,
    "partName": "Uppununthala Jedke",
    "lat": 16.3999846,
    "lon": 78.6379866
  },
  {
    "partId": 77489,
    "stateCode": "S29",
    "stateName": "Telangana",
    "districtCode": "S2919",
    "districtName": "Nagarkurnool",
    "acNumber": 82,
    "acName": "Achampet",
    "partNumber": 91,
    "partName": "Uppununthala",
    "lat": 16.4563177,
    "lon": 78.5951829
  },
  {
    "partId": 77611,
    "stateCode": "S29",
    "stateName": "Telangana",
    "districtCode": "S2919",
    "districtName": "Nagarkurnool",
    "acNumber": 82,
    "acName": "Achampet",
    "partNumber": 92,
    "partName": "Gattukadipally",
    "lat": 16.3999846,
    "lon": 78.6379866
  },
  {
    "partId": 77612,
    "stateCode": "S29",
    "stateName": "Telangana",
    "districtCode": "S2919",
    "districtName": "Nagarkurnool",
    "acNumber": 82,
    "acName": "Achampet",
    "partNumber": 93,
    "partName": "RANGAMPETA",
    "lat": 16.3991974,
    "lon": 78.6359919
  },
  {
    "partId": 77490,
    "stateCode": "S29",
    "stateName": "Telangana",
    "districtCode": "S2919",
    "districtName": "Nagarkurnool",
    "acNumber": 82,
    "acName": "Achampet",
    "partNumber": 94,
    "partName": "Devadaru Kunta  Tanda",
    "lat": 16.3999846,
    "lon": 78.6379866
  },
  {
    "partId": 77614,
    "stateCode": "S29",
    "stateName": "Telangana",
    "districtCode": "S2919",
    "districtName": "Nagarkurnool",
    "acNumber": 82,
    "acName": "Achampet",
    "partNumber": 95,
    "partName": "GATTUMEEDI THANDA",
    "lat": 16.411708321311476,
    "lon": 78.63876699573771
  },
  {
    "partId": 77615,
    "stateCode": "S29",
    "stateName": "Telangana",
    "districtCode": "S2919",
    "districtName": "Nagarkurnool",
    "acNumber": 82,
    "acName": "Achampet",
    "partNumber": 96,
    "partName": "KOTHA RAM NAGAR",
    "lat": 16.3999846,
    "lon": 78.6379866
  },
  {
    "partId": 77356,
    "stateCode": "S29",
    "stateName": "Telangana",
    "districtCode": "S2919",
    "districtName": "Nagarkurnool",
    "acNumber": 82,
    "acName": "Achampet",
    "partNumber": 97,
    "partName": "Tadooru",
    "lat": 16.3999846,
    "lon": 78.6379866
  },
  {
    "partId": 77357,
    "stateCode": "S29",
    "stateName": "Telangana",
    "districtCode": "S2919",
    "districtName": "Nagarkurnool",
    "acNumber": 82,
    "acName": "Achampet",
    "partNumber": 98,
    "partName": "Tadooru",
    "lat": 16.411708321311476,
    "lon": 78.63876699573771
  },
  {
    "partId": 77358,
    "stateCode": "S29",
    "stateName": "Telangana",
    "districtCode": "S2919",
    "districtName": "Nagarkurnool",
    "acNumber": 82,
    "acName": "Achampet",
    "partNumber": 99,
    "partName": "Veltooru",
    "lat": 16.411708321311476,
    "lon": 78.63876699573771
  },
  {
    "partId": 77491,
    "stateCode": "S29",
    "stateName": "Telangana",
    "districtCode": "S2919",
    "districtName": "Nagarkurnool",
    "acNumber": 82,
    "acName": "Achampet",
    "partNumber": 100,
    "partName": "Veltoor",
    "lat": 16.3999846,
    "lon": 78.6379866
  },
  {
    "partId": 77627,
    "stateCode": "S29",
    "stateName": "Telangana",
    "districtCode": "S2919",
    "districtName": "Nagarkurnool",
    "acNumber": 82,
    "acName": "Achampet",
    "partNumber": 101,
    "partName": "Surya Thanda Janya Thanda",
    "lat": 16.3999846,
    "lon": 78.6379866
  },
  {
    "partId": 77492,
    "stateCode": "S29",
    "stateName": "Telangana",
    "districtCode": "S2919",
    "districtName": "Nagarkurnool",
    "acNumber": 82,
    "acName": "Achampet",
    "partNumber": 102,
    "partName": "Veltoor",
    "lat": 16.5068403,
    "lon": 78.669
  },
  {
    "partId": 77493,
    "stateCode": "S29",
    "stateName": "Telangana",
    "districtCode": "S2919",
    "districtName": "Nagarkurnool",
    "acNumber": 82,
    "acName": "Achampet",
    "partNumber": 103,
    "partName": "Peratu Vani Pally",
    "lat": 16.3999846,
    "lon": 78.6379866
  },
  {
    "partId": 77629,
    "stateCode": "S29",
    "stateName": "Telangana",
    "districtCode": "S2919",
    "districtName": "Nagarkurnool",
    "acNumber": 82,
    "acName": "Achampet",
    "partNumber": 104,
    "partName": "Peratwanpally Thanda",
    "lat": 16.3999846,
    "lon": 78.6379866
  },
  {
    "partId": 77359,
    "stateCode": "S29",
    "stateName": "Telangana",
    "districtCode": "S2919",
    "districtName": "Nagarkurnool",
    "acNumber": 82,
    "acName": "Achampet",
    "partNumber": 105,
    "partName": "Ayyavari Palli",
    "lat": 16.3999846,
    "lon": 78.6379866
  },
  {
    "partId": 77633,
    "stateCode": "S29",
    "stateName": "Telangana",
    "districtCode": "S2919",
    "districtName": "Nagarkurnool",
    "acNumber": 82,
    "acName": "Achampet",
    "partNumber": 106,
    "partName": "Ayyavaripally Thanda",
    "lat": 16.3999846,
    "lon": 78.6379866
  },
  {
    "partId": 77360,
    "stateCode": "S29",
    "stateName": "Telangana",
    "districtCode": "S2919",
    "districtName": "Nagarkurnool",
    "acNumber": 82,
    "acName": "Achampet",
    "partNumber": 107,
    "partName": "Lingotam",
    "lat": 16.414915,
    "lon": 78.6260893
  },
  {
    "partId": 77590,
    "stateCode": "S29",
    "stateName": "Telangana",
    "districtCode": "S2919",
    "districtName": "Nagarkurnool",
    "acNumber": 82,
    "acName": "Achampet",
    "partNumber": 108,
    "partName": "LINGO TAM THANDA",
    "lat": 16.3999846,
    "lon": 78.6379866
  },
  {
    "partId": 77361,
    "stateCode": "S29",
    "stateName": "Telangana",
    "districtCode": "S2919",
    "districtName": "Nagarkurnool",
    "acNumber": 82,
    "acName": "Achampet",
    "partNumber": 109,
    "partName": "Lingotam",
    "lat": 16.414915,
    "lon": 78.6260893
  },
  {
    "partId": 77494,
    "stateCode": "S29",
    "stateName": "Telangana",
    "districtCode": "S2919",
    "districtName": "Nagarkurnool",
    "acNumber": 82,
    "acName": "Achampet",
    "partNumber": 110,
    "partName": "Palka Pally",
    "lat": 16.3999846,
    "lon": 78.6379866
  },
  {
    "partId": 77495,
    "stateCode": "S29",
    "stateName": "Telangana",
    "districtCode": "S2919",
    "districtName": "Nagarkurnool",
    "acNumber": 82,
    "acName": "Achampet",
    "partNumber": 111,
    "partName": "Palkapally",
    "lat": 16.4114098,
    "lon": 78.600498
  },
  {
    "partId": 77496,
    "stateCode": "S29",
    "stateName": "Telangana",
    "districtCode": "S2919",
    "districtName": "Nagarkurnool",
    "acNumber": 82,
    "acName": "Achampet",
    "partNumber": 112,
    "partName": "Achampeta",
    "lat": 16.3999846,
    "lon": 78.6379866
  },
  {
    "partId": 77362,
    "stateCode": "S29",
    "stateName": "Telangana",
    "districtCode": "S2919",
    "districtName": "Nagarkurnool",
    "acNumber": 82,
    "acName": "Achampet",
    "partNumber": 113,
    "partName": "Achampeta",
    "lat": 16.411708321311476,
    "lon": 78.63876699573771
  },
  {
    "partId": 77363,
    "stateCode": "S29",
    "stateName": "Telangana",
    "districtCode": "S2919",
    "districtName": "Nagarkurnool",
    "acNumber": 82,
    "acName": "Achampet",
    "partNumber": 114,
    "partName": "Achampeta",
    "lat": 16.411708321311476,
    "lon": 78.63876699573771
  },
  {
    "partId": 77497,
    "stateCode": "S29",
    "stateName": "Telangana",
    "districtCode": "S2919",
    "districtName": "Nagarkurnool",
    "acNumber": 82,
    "acName": "Achampet",
    "partNumber": 115,
    "partName": "Achampeta",
    "lat": 16.3999846,
    "lon": 78.6379866
  },
  {
    "partId": 77498,
    "stateCode": "S29",
    "stateName": "Telangana",
    "districtCode": "S2919",
    "districtName": "Nagarkurnool",
    "acNumber": 82,
    "acName": "Achampet",
    "partNumber": 116,
    "partName": "Achampet, Block",
    "lat": 16.3999846,
    "lon": 78.6379866
  },
  {
    "partId": 77499,
    "stateCode": "S29",
    "stateName": "Telangana",
    "districtCode": "S2919",
    "districtName": "Nagarkurnool",
    "acNumber": 82,
    "acName": "Achampet",
    "partNumber": 117,
    "partName": "Achampeta",
    "lat": 16.3999846,
    "lon": 78.6379866
  },
  {
    "partId": 77364,
    "stateCode": "S29",
    "stateName": "Telangana",
    "districtCode": "S2919",
    "districtName": "Nagarkurnool",
    "acNumber": 82,
    "acName": "Achampet",
    "partNumber": 118,
    "partName": "Achampeta",
    "lat": 16.3999846,
    "lon": 78.6379866
  },
  {
    "partId": 77500,
    "stateCode": "S29",
    "stateName": "Telangana",
    "districtCode": "S2919",
    "districtName": "Nagarkurnool",
    "acNumber": 82,
    "acName": "Achampet",
    "partNumber": 119,
    "partName": "Achampeta",
    "lat": 16.411708321311476,
    "lon": 78.63876699573771
  },
  {
    "partId": 77365,
    "stateCode": "S29",
    "stateName": "Telangana",
    "districtCode": "S2919",
    "districtName": "Nagarkurnool",
    "acNumber": 82,
    "acName": "Achampet",
    "partNumber": 120,
    "partName": "Achampeta",
    "lat": 16.3999846,
    "lon": 78.6379866
  },
  {
    "partId": 77501,
    "stateCode": "S29",
    "stateName": "Telangana",
    "districtCode": "S2919",
    "districtName": "Nagarkurnool",
    "acNumber": 82,
    "acName": "Achampet",
    "partNumber": 121,
    "partName": "Achampeta",
    "lat": 16.3999846,
    "lon": 78.6379866
  },
  {
    "partId": 77366,
    "stateCode": "S29",
    "stateName": "Telangana",
    "districtCode": "S2919",
    "districtName": "Nagarkurnool",
    "acNumber": 82,
    "acName": "Achampet",
    "partNumber": 122,
    "partName": "Achchampeta",
    "lat": 16.3999846,
    "lon": 78.6379866
  },
  {
    "partId": 77367,
    "stateCode": "S29",
    "stateName": "Telangana",
    "districtCode": "S2919",
    "districtName": "Nagarkurnool",
    "acNumber": 82,
    "acName": "Achampet",
    "partNumber": 123,
    "partName": "Achampeta",
    "lat": 16.3999846,
    "lon": 78.6379866
  },
  {
    "partId": 77368,
    "stateCode": "S29",
    "stateName": "Telangana",
    "districtCode": "S2919",
    "districtName": "Nagarkurnool",
    "acNumber": 82,
    "acName": "Achampet",
    "partNumber": 124,
    "partName": "Achampet",
    "lat": 16.3999846,
    "lon": 78.6379866
  },
  {
    "partId": 77502,
    "stateCode": "S29",
    "stateName": "Telangana",
    "districtCode": "S2919",
    "districtName": "Nagarkurnool",
    "acNumber": 82,
    "acName": "Achampet",
    "partNumber": 125,
    "partName": "Achampeta",
    "lat": 16.3999846,
    "lon": 78.6379866
  },
  {
    "partId": 77503,
    "stateCode": "S29",
    "stateName": "Telangana",
    "districtCode": "S2919",
    "districtName": "Nagarkurnool",
    "acNumber": 82,
    "acName": "Achampet",
    "partNumber": 126,
    "partName": "Achampeta",
    "lat": 16.3999846,
    "lon": 78.6379866
  },
  {
    "partId": 77369,
    "stateCode": "S29",
    "stateName": "Telangana",
    "districtCode": "S2919",
    "districtName": "Nagarkurnool",
    "acNumber": 82,
    "acName": "Achampet",
    "partNumber": 127,
    "partName": "Achampeta",
    "lat": 16.3999846,
    "lon": 78.6379866
  },
  {
    "partId": 77370,
    "stateCode": "S29",
    "stateName": "Telangana",
    "districtCode": "S2919",
    "districtName": "Nagarkurnool",
    "acNumber": 82,
    "acName": "Achampet",
    "partNumber": 128,
    "partName": "Achampet",
    "lat": 16.411708321311476,
    "lon": 78.63876699573771
  },
  {
    "partId": 77371,
    "stateCode": "S29",
    "stateName": "Telangana",
    "districtCode": "S2919",
    "districtName": "Nagarkurnool",
    "acNumber": 82,
    "acName": "Achampet",
    "partNumber": 129,
    "partName": "Achampeta",
    "lat": 16.3999846,
    "lon": 78.6379866
  },
  {
    "partId": 77504,
    "stateCode": "S29",
    "stateName": "Telangana",
    "districtCode": "S2919",
    "districtName": "Nagarkurnool",
    "acNumber": 82,
    "acName": "Achampet",
    "partNumber": 130,
    "partName": "Achampeta",
    "lat": 16.3999846,
    "lon": 78.6379866
  },
  {
    "partId": 77505,
    "stateCode": "S29",
    "stateName": "Telangana",
    "districtCode": "S2919",
    "districtName": "Nagarkurnool",
    "acNumber": 82,
    "acName": "Achampet",
    "partNumber": 131,
    "partName": "Achampeta",
    "lat": 16.3999846,
    "lon": 78.6379866
  },
  {
    "partId": 77506,
    "stateCode": "S29",
    "stateName": "Telangana",
    "districtCode": "S2919",
    "districtName": "Nagarkurnool",
    "acNumber": 82,
    "acName": "Achampet",
    "partNumber": 132,
    "partName": "Chouta Pally",
    "lat": 16.3999846,
    "lon": 78.6379866
  },
  {
    "partId": 77592,
    "stateCode": "S29",
    "stateName": "Telangana",
    "districtCode": "S2919",
    "districtName": "Nagarkurnool",
    "acNumber": 82,
    "acName": "Achampet",
    "partNumber": 133,
    "partName": "Chowtapally thanda",
    "lat": 16.3999846,
    "lon": 78.6379866
  },
  {
    "partId": 77372,
    "stateCode": "S29",
    "stateName": "Telangana",
    "districtCode": "S2919",
    "districtName": "Nagarkurnool",
    "acNumber": 82,
    "acName": "Achampet",
    "partNumber": 134,
    "partName": "Gumpan Pally",
    "lat": 16.3999846,
    "lon": 78.6379866
  },
  {
    "partId": 77373,
    "stateCode": "S29",
    "stateName": "Telangana",
    "districtCode": "S2919",
    "districtName": "Nagarkurnool",
    "acNumber": 82,
    "acName": "Achampet",
    "partNumber": 135,
    "partName": "Laxma Pur. Piyan",
    "lat": 16.3999846,
    "lon": 78.6379866
  },
  {
    "partId": 77595,
    "stateCode": "S29",
    "stateName": "Telangana",
    "districtCode": "S2919",
    "districtName": "Nagarkurnool",
    "acNumber": 82,
    "acName": "Achampet",
    "partNumber": 136,
    "partName": "Shankaraiah Gutta Thanda",
    "lat": 16.3999846,
    "lon": 78.6379866
  },
  {
    "partId": 77374,
    "stateCode": "S29",
    "stateName": "Telangana",
    "districtCode": "S2919",
    "districtName": "Nagarkurnool",
    "acNumber": 82,
    "acName": "Achampet",
    "partNumber": 137,
    "partName": "Laxmapoor",
    "lat": 16.3999846,
    "lon": 78.6379866
  },
  {
    "partId": 77598,
    "stateCode": "S29",
    "stateName": "Telangana",
    "districtCode": "S2919",
    "districtName": "Nagarkurnool",
    "acNumber": 82,
    "acName": "Achampet",
    "partNumber": 138,
    "partName": "Chenchu Palugu Thanda",
    "lat": 16.411708321311476,
    "lon": 78.63876699573771
  },
  {
    "partId": 77507,
    "stateCode": "S29",
    "stateName": "Telangana",
    "districtCode": "S2919",
    "districtName": "Nagarkurnool",
    "acNumber": 82,
    "acName": "Achampet",
    "partNumber": 139,
    "partName": "Bolgatpally",
    "lat": 16.3906979,
    "lon": 78.6912838
  },
  {
    "partId": 77508,
    "stateCode": "S29",
    "stateName": "Telangana",
    "districtCode": "S2919",
    "districtName": "Nagarkurnool",
    "acNumber": 82,
    "acName": "Achampet",
    "partNumber": 140,
    "partName": "Rangpoor",
    "lat": 16.3999846,
    "lon": 78.6379866
  },
  {
    "partId": 77509,
    "stateCode": "S29",
    "stateName": "Telangana",
    "districtCode": "S2919",
    "districtName": "Nagarkurnool",
    "acNumber": 82,
    "acName": "Achampet",
    "partNumber": 141,
    "partName": "Ranga Poor",
    "lat": 16.3999846,
    "lon": 78.6379866
  },
  {
    "partId": 77375,
    "stateCode": "S29",
    "stateName": "Telangana",
    "districtCode": "S2919",
    "districtName": "Nagarkurnool",
    "acNumber": 82,
    "acName": "Achampet",
    "partNumber": 142,
    "partName": "Rangapoor",
    "lat": 16.565081,
    "lon": 78.5397254
  },
  {
    "partId": 77376,
    "stateCode": "S29",
    "stateName": "Telangana",
    "districtCode": "S2919",
    "districtName": "Nagarkurnool",
    "acNumber": 82,
    "acName": "Achampet",
    "partNumber": 143,
    "partName": "Nadim Pally",
    "lat": 16.3999846,
    "lon": 78.6379866
  },
  {
    "partId": 77377,
    "stateCode": "S29",
    "stateName": "Telangana",
    "districtCode": "S2919",
    "districtName": "Nagarkurnool",
    "acNumber": 82,
    "acName": "Achampet",
    "partNumber": 144,
    "partName": "Nadim Pally",
    "lat": 16.3999846,
    "lon": 78.6379866
  },
  {
    "partId": 77510,
    "stateCode": "S29",
    "stateName": "Telangana",
    "districtCode": "S2919",
    "districtName": "Nagarkurnool",
    "acNumber": 82,
    "acName": "Achampet",
    "partNumber": 145,
    "partName": "Puljala",
    "lat": 16.4405975,
    "lon": 78.6530296
  },
  {
    "partId": 77511,
    "stateCode": "S29",
    "stateName": "Telangana",
    "districtCode": "S2919",
    "districtName": "Nagarkurnool",
    "acNumber": 82,
    "acName": "Achampet",
    "partNumber": 146,
    "partName": "Puljala",
    "lat": 16.4405975,
    "lon": 78.6530296
  },
  {
    "partId": 77512,
    "stateCode": "S29",
    "stateName": "Telangana",
    "districtCode": "S2919",
    "districtName": "Nagarkurnool",
    "acNumber": 82,
    "acName": "Achampet",
    "partNumber": 147,
    "partName": "Hajipur",
    "lat": 16.443996,
    "lon": 78.694574
  },
  {
    "partId": 77378,
    "stateCode": "S29",
    "stateName": "Telangana",
    "districtCode": "S2919",
    "districtName": "Nagarkurnool",
    "acNumber": 82,
    "acName": "Achampet",
    "partNumber": 148,
    "partName": "Hajipur",
    "lat": 16.443996,
    "lon": 78.694574
  },
  {
    "partId": 77600,
    "stateCode": "S29",
    "stateName": "Telangana",
    "districtCode": "S2919",
    "districtName": "Nagarkurnool",
    "acNumber": 82,
    "acName": "Achampet",
    "partNumber": 149,
    "partName": "Budda Thanda",
    "lat": 16.3999846,
    "lon": 78.6379866
  },
  {
    "partId": 77379,
    "stateCode": "S29",
    "stateName": "Telangana",
    "districtCode": "S2919",
    "districtName": "Nagarkurnool",
    "acNumber": 82,
    "acName": "Achampet",
    "partNumber": 150,
    "partName": "Chennaram",
    "lat": 16.3755238,
    "lon": 78.5653952
  },
  {
    "partId": 77513,
    "stateCode": "S29",
    "stateName": "Telangana",
    "districtCode": "S2919",
    "districtName": "Nagarkurnool",
    "acNumber": 82,
    "acName": "Achampet",
    "partNumber": 151,
    "partName": "Raiched",
    "lat": 16.3999846,
    "lon": 78.6379866
  },
  {
    "partId": 77514,
    "stateCode": "S29",
    "stateName": "Telangana",
    "districtCode": "S2919",
    "districtName": "Nagarkurnool",
    "acNumber": 82,
    "acName": "Achampet",
    "partNumber": 152,
    "partName": "Singaram",
    "lat": 16.3999846,
    "lon": 78.6379866
  },
  {
    "partId": 77601,
    "stateCode": "S29",
    "stateName": "Telangana",
    "districtCode": "S2919",
    "districtName": "Nagarkurnool",
    "acNumber": 82,
    "acName": "Achampet",
    "partNumber": 153,
    "partName": "Pedda Thanda",
    "lat": 16.5137044,
    "lon": 78.1544101
  },
  {
    "partId": 77515,
    "stateCode": "S29",
    "stateName": "Telangana",
    "districtCode": "S2919",
    "districtName": "Nagarkurnool",
    "acNumber": 82,
    "acName": "Achampet",
    "partNumber": 154,
    "partName": "Singaram",
    "lat": 16.411708321311476,
    "lon": 78.63876699573771
  },
  {
    "partId": 77602,
    "stateCode": "S29",
    "stateName": "Telangana",
    "districtCode": "S2919",
    "districtName": "Nagarkurnool",
    "acNumber": 82,
    "acName": "Achampet",
    "partNumber": 155,
    "partName": "Eddumitta Thanda",
    "lat": 16.3999846,
    "lon": 78.6379866
  },
  {
    "partId": 77380,
    "stateCode": "S29",
    "stateName": "Telangana",
    "districtCode": "S2919",
    "districtName": "Nagarkurnool",
    "acNumber": 82,
    "acName": "Achampet",
    "partNumber": 156,
    "partName": "Chandapur",
    "lat": 16.4400007,
    "lon": 78.7216046
  },
  {
    "partId": 77381,
    "stateCode": "S29",
    "stateName": "Telangana",
    "districtCode": "S2919",
    "districtName": "Nagarkurnool",
    "acNumber": 82,
    "acName": "Achampet",
    "partNumber": 157,
    "partName": "Chandapuru",
    "lat": 16.3999846,
    "lon": 78.6379866
  },
  {
    "partId": 77603,
    "stateCode": "S29",
    "stateName": "Telangana",
    "districtCode": "S2919",
    "districtName": "Nagarkurnool",
    "acNumber": 82,
    "acName": "Achampet",
    "partNumber": 158,
    "partName": "Ankironipalli",
    "lat": 16.3999846,
    "lon": 78.6379866
  },
  {
    "partId": 77382,
    "stateCode": "S29",
    "stateName": "Telangana",
    "districtCode": "S2919",
    "districtName": "Nagarkurnool",
    "acNumber": 82,
    "acName": "Achampet",
    "partNumber": 159,
    "partName": "Brahaman Pally",
    "lat": 16.411708321311476,
    "lon": 78.63876699573771
  },
  {
    "partId": 77516,
    "stateCode": "S29",
    "stateName": "Telangana",
    "districtCode": "S2919",
    "districtName": "Nagarkurnool",
    "acNumber": 82,
    "acName": "Achampet",
    "partNumber": 160,
    "partName": "Inole",
    "lat": 16.4486262,
    "lon": 78.7604123
  },
  {
    "partId": 77517,
    "stateCode": "S29",
    "stateName": "Telangana",
    "districtCode": "S2919",
    "districtName": "Nagarkurnool",
    "acNumber": 82,
    "acName": "Achampet",
    "partNumber": 161,
    "partName": "Inole",
    "lat": 16.3999846,
    "lon": 78.6379866
  },
  {
    "partId": 77518,
    "stateCode": "S29",
    "stateName": "Telangana",
    "districtCode": "S2919",
    "districtName": "Nagarkurnool",
    "acNumber": 82,
    "acName": "Achampet",
    "partNumber": 162,
    "partName": "Dubba,Sivar,Korra Thandas, 4 To 6",
    "lat": 16.3999846,
    "lon": 78.6379866
  },
  {
    "partId": 77383,
    "stateCode": "S29",
    "stateName": "Telangana",
    "districtCode": "S2919",
    "districtName": "Nagarkurnool",
    "acNumber": 82,
    "acName": "Achampet",
    "partNumber": 163,
    "partName": "Chedurubavi Thanda",
    "lat": 16.3999846,
    "lon": 78.6379866
  },
  {
    "partId": 77384,
    "stateCode": "S29",
    "stateName": "Telangana",
    "districtCode": "S2919",
    "districtName": "Nagarkurnool",
    "acNumber": 82,
    "acName": "Achampet",
    "partNumber": 164,
    "partName": "Bomman Pally",
    "lat": 16.3999846,
    "lon": 78.6379866
  },
  {
    "partId": 77385,
    "stateCode": "S29",
    "stateName": "Telangana",
    "districtCode": "S2919",
    "districtName": "Nagarkurnool",
    "acNumber": 82,
    "acName": "Achampet",
    "partNumber": 165,
    "partName": "Bomman Pally",
    "lat": 16.3999846,
    "lon": 78.6379866
  },
  {
    "partId": 77519,
    "stateCode": "S29",
    "stateName": "Telangana",
    "districtCode": "S2919",
    "districtName": "Nagarkurnool",
    "acNumber": 82,
    "acName": "Achampet",
    "partNumber": 166,
    "partName": "Bomman Pally",
    "lat": 16.3999846,
    "lon": 78.6379866
  },
  {
    "partId": 77605,
    "stateCode": "S29",
    "stateName": "Telangana",
    "districtCode": "S2919",
    "districtName": "Nagarkurnool",
    "acNumber": 82,
    "acName": "Achampet",
    "partNumber": 167,
    "partName": "Kanyathanda",
    "lat": 16.4664138,
    "lon": 78.7526809
  },
  {
    "partId": 77520,
    "stateCode": "S29",
    "stateName": "Telangana",
    "districtCode": "S2919",
    "districtName": "Nagarkurnool",
    "acNumber": 82,
    "acName": "Achampet",
    "partNumber": 168,
    "partName": "Kistya Tanda",
    "lat": 16.3999846,
    "lon": 78.6379866
  },
  {
    "partId": 77521,
    "stateCode": "S29",
    "stateName": "Telangana",
    "districtCode": "S2919",
    "districtName": "Nagarkurnool",
    "acNumber": 82,
    "acName": "Achampet",
    "partNumber": 169,
    "partName": "Sidda Pur",
    "lat": 16.3999846,
    "lon": 78.6379866
  },
  {
    "partId": 77386,
    "stateCode": "S29",
    "stateName": "Telangana",
    "districtCode": "S2919",
    "districtName": "Nagarkurnool",
    "acNumber": 82,
    "acName": "Achampet",
    "partNumber": 170,
    "partName": "Sidda Pur",
    "lat": 16.411708321311476,
    "lon": 78.63876699573771
  },
  {
    "partId": 77606,
    "stateCode": "S29",
    "stateName": "Telangana",
    "districtCode": "S2919",
    "districtName": "Nagarkurnool",
    "acNumber": 82,
    "acName": "Achampet",
    "partNumber": 171,
    "partName": "Padmaram Thanda",
    "lat": 16.3999846,
    "lon": 78.6379866
  },
  {
    "partId": 77387,
    "stateCode": "S29",
    "stateName": "Telangana",
    "districtCode": "S2919",
    "districtName": "Nagarkurnool",
    "acNumber": 82,
    "acName": "Achampet",
    "partNumber": 172,
    "partName": "Mannewari Palli,",
    "lat": 16.3999846,
    "lon": 78.6379866
  },
  {
    "partId": 77608,
    "stateCode": "S29",
    "stateName": "Telangana",
    "districtCode": "S2919",
    "districtName": "Nagarkurnool",
    "acNumber": 82,
    "acName": "Achampet",
    "partNumber": 173,
    "partName": "Dasya Thanda",
    "lat": 16.3999846,
    "lon": 78.6379866
  },
  {
    "partId": 77388,
    "stateCode": "S29",
    "stateName": "Telangana",
    "districtCode": "S2919",
    "districtName": "Nagarkurnool",
    "acNumber": 82,
    "acName": "Achampet",
    "partNumber": 174,
    "partName": "Manne Wari Pally",
    "lat": 16.3999846,
    "lon": 78.6379866
  },
  {
    "partId": 77522,
    "stateCode": "S29",
    "stateName": "Telangana",
    "districtCode": "S2919",
    "districtName": "Nagarkurnool",
    "acNumber": 82,
    "acName": "Achampet",
    "partNumber": 175,
    "partName": "Marlapad Tanda & Keshya Tanda",
    "lat": 16.3999846,
    "lon": 78.6379866
  },
  {
    "partId": 77609,
    "stateCode": "S29",
    "stateName": "Telangana",
    "districtCode": "S2919",
    "districtName": "Nagarkurnool",
    "acNumber": 82,
    "acName": "Achampet",
    "partNumber": 176,
    "partName": "Keshya Thanda",
    "lat": 16.3999846,
    "lon": 78.6379866
  },
  {
    "partId": 77523,
    "stateCode": "S29",
    "stateName": "Telangana",
    "districtCode": "S2919",
    "districtName": "Nagarkurnool",
    "acNumber": 82,
    "acName": "Achampet",
    "partNumber": 177,
    "partName": "Ghanapoor",
    "lat": 16.3999846,
    "lon": 78.6379866
  },
  {
    "partId": 77524,
    "stateCode": "S29",
    "stateName": "Telangana",
    "districtCode": "S2919",
    "districtName": "Nagarkurnool",
    "acNumber": 82,
    "acName": "Achampet",
    "partNumber": 178,
    "partName": "Ghanpur",
    "lat": 16.3999846,
    "lon": 78.6379866
  },
  {
    "partId": 77610,
    "stateCode": "S29",
    "stateName": "Telangana",
    "districtCode": "S2919",
    "districtName": "Nagarkurnool",
    "acNumber": 82,
    "acName": "Achampet",
    "partNumber": 179,
    "partName": "Anjaneya Thanda",
    "lat": 16.3999846,
    "lon": 78.6379866
  },
  {
    "partId": 77525,
    "stateCode": "S29",
    "stateName": "Telangana",
    "districtCode": "S2919",
    "districtName": "Nagarkurnool",
    "acNumber": 82,
    "acName": "Achampet",
    "partNumber": 180,
    "partName": "Akkaram",
    "lat": 16.4681024,
    "lon": 79.0091202
  },
  {
    "partId": 77389,
    "stateCode": "S29",
    "stateName": "Telangana",
    "districtCode": "S2919",
    "districtName": "Nagarkurnool",
    "acNumber": 82,
    "acName": "Achampet",
    "partNumber": 181,
    "partName": "Bakkalingayapally",
    "lat": 16.411708321311476,
    "lon": 78.63876699573771
  },
  {
    "partId": 77616,
    "stateCode": "S29",
    "stateName": "Telangana",
    "districtCode": "S2919",
    "districtName": "Nagarkurnool",
    "acNumber": 82,
    "acName": "Achampet",
    "partNumber": 182,
    "partName": "Bandathanda",
    "lat": 16.3999846,
    "lon": 78.6379866
  },
  {
    "partId": 77390,
    "stateCode": "S29",
    "stateName": "Telangana",
    "districtCode": "S2919",
    "districtName": "Nagarkurnool",
    "acNumber": 82,
    "acName": "Achampet",
    "partNumber": 183,
    "partName": "Jinukunta",
    "lat": 16.4234366,
    "lon": 78.5142432
  },
  {
    "partId": 77391,
    "stateCode": "S29",
    "stateName": "Telangana",
    "districtCode": "S2919",
    "districtName": "Nagarkurnool",
    "acNumber": 82,
    "acName": "Achampet",
    "partNumber": 184,
    "partName": "Jinukunta",
    "lat": 16.4234366,
    "lon": 78.5142432
  },
  {
    "partId": 77392,
    "stateCode": "S29",
    "stateName": "Telangana",
    "districtCode": "S2919",
    "districtName": "Nagarkurnool",
    "acNumber": 82,
    "acName": "Achampet",
    "partNumber": 185,
    "partName": "Pollepally",
    "lat": 16.3999846,
    "lon": 78.6379866
  },
  {
    "partId": 77526,
    "stateCode": "S29",
    "stateName": "Telangana",
    "districtCode": "S2919",
    "districtName": "Nagarkurnool",
    "acNumber": 82,
    "acName": "Achampet",
    "partNumber": 186,
    "partName": "Thummanpet",
    "lat": 16.3953463,
    "lon": 78.5390013
  },
  {
    "partId": 77527,
    "stateCode": "S29",
    "stateName": "Telangana",
    "districtCode": "S2919",
    "districtName": "Nagarkurnool",
    "acNumber": 82,
    "acName": "Achampet",
    "partNumber": 187,
    "partName": "Thumman Pet",
    "lat": 16.3999846,
    "lon": 78.6379866
  },
  {
    "partId": 77528,
    "stateCode": "S29",
    "stateName": "Telangana",
    "districtCode": "S2919",
    "districtName": "Nagarkurnool",
    "acNumber": 82,
    "acName": "Achampet",
    "partNumber": 188,
    "partName": "Kondareddy Pally",
    "lat": 16.3999846,
    "lon": 78.6379866
  },
  {
    "partId": 77393,
    "stateCode": "S29",
    "stateName": "Telangana",
    "districtCode": "S2919",
    "districtName": "Nagarkurnool",
    "acNumber": 82,
    "acName": "Achampet",
    "partNumber": 189,
    "partName": "Kothapally",
    "lat": 16.3999846,
    "lon": 78.6379866
  },
  {
    "partId": 77394,
    "stateCode": "S29",
    "stateName": "Telangana",
    "districtCode": "S2919",
    "districtName": "Nagarkurnool",
    "acNumber": 82,
    "acName": "Achampet",
    "partNumber": 190,
    "partName": "Gattu Thumman",
    "lat": 16.3999846,
    "lon": 78.6379866
  },
  {
    "partId": 77395,
    "stateCode": "S29",
    "stateName": "Telangana",
    "districtCode": "S2919",
    "districtName": "Nagarkurnool",
    "acNumber": 82,
    "acName": "Achampet",
    "partNumber": 191,
    "partName": "Gattu Thumman",
    "lat": 16.411708321311476,
    "lon": 78.63876699573771
  },
  {
    "partId": 77584,
    "stateCode": "S29",
    "stateName": "Telangana",
    "districtCode": "S2919",
    "districtName": "Nagarkurnool",
    "acNumber": 82,
    "acName": "Achampet",
    "partNumber": 192,
    "partName": "Ippakunta",
    "lat": 16.3999846,
    "lon": 78.6379866
  },
  {
    "partId": 77529,
    "stateCode": "S29",
    "stateName": "Telangana",
    "districtCode": "S2919",
    "districtName": "Nagarkurnool",
    "acNumber": 82,
    "acName": "Achampet",
    "partNumber": 193,
    "partName": "Mangalikunta Pally",
    "lat": 16.3999846,
    "lon": 78.6379866
  },
  {
    "partId": 77530,
    "stateCode": "S29",
    "stateName": "Telangana",
    "districtCode": "S2919",
    "districtName": "Nagarkurnool",
    "acNumber": 82,
    "acName": "Achampet",
    "partNumber": 194,
    "partName": "Chennaram P.G.",
    "lat": 16.411708321311476,
    "lon": 78.63876699573771
  },
  {
    "partId": 77531,
    "stateCode": "S29",
    "stateName": "Telangana",
    "districtCode": "S2919",
    "districtName": "Nagarkurnool",
    "acNumber": 82,
    "acName": "Achampet",
    "partNumber": 195,
    "partName": "Chennarm  PG.",
    "lat": 16.3999846,
    "lon": 78.6379866
  },
  {
    "partId": 77396,
    "stateCode": "S29",
    "stateName": "Telangana",
    "districtCode": "S2919",
    "districtName": "Nagarkurnool",
    "acNumber": 82,
    "acName": "Achampet",
    "partNumber": 196,
    "partName": "Mahadevpur",
    "lat": 16.3997489,
    "lon": 78.572706
  },
  {
    "partId": 77397,
    "stateCode": "S29",
    "stateName": "Telangana",
    "districtCode": "S2919",
    "districtName": "Nagarkurnool",
    "acNumber": 82,
    "acName": "Achampet",
    "partNumber": 197,
    "partName": "Polishetty Pally",
    "lat": 16.411708321311476,
    "lon": 78.63876699573771
  },
  {
    "partId": 77398,
    "stateCode": "S29",
    "stateName": "Telangana",
    "districtCode": "S2919",
    "districtName": "Nagarkurnool",
    "acNumber": 82,
    "acName": "Achampet",
    "partNumber": 198,
    "partName": "Polishettipally Tanda",
    "lat": 16.3999846,
    "lon": 78.6379866
  },
  {
    "partId": 77585,
    "stateCode": "S29",
    "stateName": "Telangana",
    "districtCode": "S2919",
    "districtName": "Nagarkurnool",
    "acNumber": 82,
    "acName": "Achampet",
    "partNumber": 199,
    "partName": "Todellagadda",
    "lat": 16.3999846,
    "lon": 78.6379866
  },
  {
    "partId": 77532,
    "stateCode": "S29",
    "stateName": "Telangana",
    "districtCode": "S2919",
    "districtName": "Nagarkurnool",
    "acNumber": 82,
    "acName": "Achampet",
    "partNumber": 200,
    "partName": "Polishetty Pally",
    "lat": 16.411708321311476,
    "lon": 78.63876699573771
  },
  {
    "partId": 77533,
    "stateCode": "S29",
    "stateName": "Telangana",
    "districtCode": "S2919",
    "districtName": "Nagarkurnool",
    "acNumber": 82,
    "acName": "Achampet",
    "partNumber": 201,
    "partName": "Ramaji Palli",
    "lat": 16.3999846,
    "lon": 78.6379866
  },
  {
    "partId": 77586,
    "stateCode": "S29",
    "stateName": "Telangana",
    "districtCode": "S2919",
    "districtName": "Nagarkurnool",
    "acNumber": 82,
    "acName": "Achampet",
    "partNumber": 202,
    "partName": "Veeramrajupally",
    "lat": 16.3999846,
    "lon": 78.6379866
  },
  {
    "partId": 77534,
    "stateCode": "S29",
    "stateName": "Telangana",
    "districtCode": "S2919",
    "districtName": "Nagarkurnool",
    "acNumber": 82,
    "acName": "Achampet",
    "partNumber": 203,
    "partName": "Ramaji Palli",
    "lat": 16.3999846,
    "lon": 78.6379866
  },
  {
    "partId": 77399,
    "stateCode": "S29",
    "stateName": "Telangana",
    "districtCode": "S2919",
    "districtName": "Nagarkurnool",
    "acNumber": 82,
    "acName": "Achampet",
    "partNumber": 204,
    "partName": "Godal",
    "lat": 16.3564546,
    "lon": 78.5395432
  },
  {
    "partId": 77400,
    "stateCode": "S29",
    "stateName": "Telangana",
    "districtCode": "S2919",
    "districtName": "Nagarkurnool",
    "acNumber": 82,
    "acName": "Achampet",
    "partNumber": 205,
    "partName": "Godal",
    "lat": 16.3564546,
    "lon": 78.5395432
  },
  {
    "partId": 77401,
    "stateCode": "S29",
    "stateName": "Telangana",
    "districtCode": "S2919",
    "districtName": "Nagarkurnool",
    "acNumber": 82,
    "acName": "Achampet",
    "partNumber": 206,
    "partName": "Narasaya Palli",
    "lat": 16.3999846,
    "lon": 78.6379866
  },
  {
    "partId": 77535,
    "stateCode": "S29",
    "stateName": "Telangana",
    "districtCode": "S2919",
    "districtName": "Nagarkurnool",
    "acNumber": 82,
    "acName": "Achampet",
    "partNumber": 207,
    "partName": "Balmoor",
    "lat": 16.3245464,
    "lon": 78.5627603
  },
  {
    "partId": 77536,
    "stateCode": "S29",
    "stateName": "Telangana",
    "districtCode": "S2919",
    "districtName": "Nagarkurnool",
    "acNumber": 82,
    "acName": "Achampet",
    "partNumber": 208,
    "partName": "Balmoor",
    "lat": 16.3245464,
    "lon": 78.5627603
  },
  {
    "partId": 77537,
    "stateCode": "S29",
    "stateName": "Telangana",
    "districtCode": "S2919",
    "districtName": "Nagarkurnool",
    "acNumber": 82,
    "acName": "Achampet",
    "partNumber": 209,
    "partName": "Balmoor",
    "lat": 16.3245464,
    "lon": 78.5627603
  },
  {
    "partId": 77402,
    "stateCode": "S29",
    "stateName": "Telangana",
    "districtCode": "S2919",
    "districtName": "Nagarkurnool",
    "acNumber": 82,
    "acName": "Achampet",
    "partNumber": 210,
    "partName": "Ananthawaram",
    "lat": 16.3999846,
    "lon": 78.6379866
  },
  {
    "partId": 77403,
    "stateCode": "S29",
    "stateName": "Telangana",
    "districtCode": "S2919",
    "districtName": "Nagarkurnool",
    "acNumber": 82,
    "acName": "Achampet",
    "partNumber": 211,
    "partName": "Ananthavaram",
    "lat": 16.3128983,
    "lon": 78.5563714
  },
  {
    "partId": 77404,
    "stateCode": "S29",
    "stateName": "Telangana",
    "districtCode": "S2919",
    "districtName": "Nagarkurnool",
    "acNumber": 82,
    "acName": "Achampet",
    "partNumber": 212,
    "partName": "Ambagiri",
    "lat": 16.3999846,
    "lon": 78.6379866
  },
  {
    "partId": 77538,
    "stateCode": "S29",
    "stateName": "Telangana",
    "districtCode": "S2919",
    "districtName": "Nagarkurnool",
    "acNumber": 82,
    "acName": "Achampet",
    "partNumber": 213,
    "partName": "Kondanagula",
    "lat": 16.335298,
    "lon": 78.5954619
  },
  {
    "partId": 77539,
    "stateCode": "S29",
    "stateName": "Telangana",
    "districtCode": "S2919",
    "districtName": "Nagarkurnool",
    "acNumber": 82,
    "acName": "Achampet",
    "partNumber": 214,
    "partName": "Kondanagula",
    "lat": 16.335298,
    "lon": 78.5954619
  },
  {
    "partId": 77540,
    "stateCode": "S29",
    "stateName": "Telangana",
    "districtCode": "S2919",
    "districtName": "Nagarkurnool",
    "acNumber": 82,
    "acName": "Achampet",
    "partNumber": 215,
    "partName": "Kondanagula",
    "lat": 16.335298,
    "lon": 78.5954619
  },
  {
    "partId": 77405,
    "stateCode": "S29",
    "stateName": "Telangana",
    "districtCode": "S2919",
    "districtName": "Nagarkurnool",
    "acNumber": 82,
    "acName": "Achampet",
    "partNumber": 216,
    "partName": "Kondanagula",
    "lat": 16.335298,
    "lon": 78.5954619
  },
  {
    "partId": 77406,
    "stateCode": "S29",
    "stateName": "Telangana",
    "districtCode": "S2919",
    "districtName": "Nagarkurnool",
    "acNumber": 82,
    "acName": "Achampet",
    "partNumber": 217,
    "partName": "Kondanagula",
    "lat": 16.335298,
    "lon": 78.5954619
  },
  {
    "partId": 77407,
    "stateCode": "S29",
    "stateName": "Telangana",
    "districtCode": "S2919",
    "districtName": "Nagarkurnool",
    "acNumber": 82,
    "acName": "Achampet",
    "partNumber": 218,
    "partName": "Kondanagula",
    "lat": 16.335298,
    "lon": 78.5954619
  },
  {
    "partId": 77541,
    "stateCode": "S29",
    "stateName": "Telangana",
    "districtCode": "S2919",
    "districtName": "Nagarkurnool",
    "acNumber": 82,
    "acName": "Achampet",
    "partNumber": 219,
    "partName": "Mailaram",
    "lat": 16.2175283,
    "lon": 78.2272589
  },
  {
    "partId": 77542,
    "stateCode": "S29",
    "stateName": "Telangana",
    "districtCode": "S2919",
    "districtName": "Nagarkurnool",
    "acNumber": 82,
    "acName": "Achampet",
    "partNumber": 220,
    "partName": "Laxmi Palli",
    "lat": 16.3999846,
    "lon": 78.6379866
  },
  {
    "partId": 77587,
    "stateCode": "S29",
    "stateName": "Telangana",
    "districtCode": "S2919",
    "districtName": "Nagarkurnool",
    "acNumber": 82,
    "acName": "Achampet",
    "partNumber": 221,
    "partName": "Chenchugudem",
    "lat": 16.157412,
    "lon": 78.3837192
  },
  {
    "partId": 77408,
    "stateCode": "S29",
    "stateName": "Telangana",
    "districtCode": "S2919",
    "districtName": "Nagarkurnool",
    "acNumber": 82,
    "acName": "Achampet",
    "partNumber": 222,
    "partName": "Banala",
    "lat": 16.3200803,
    "lon": 78.6355379
  },
  {
    "partId": 77409,
    "stateCode": "S29",
    "stateName": "Telangana",
    "districtCode": "S2919",
    "districtName": "Nagarkurnool",
    "acNumber": 82,
    "acName": "Achampet",
    "partNumber": 223,
    "partName": "Banala",
    "lat": 16.3200803,
    "lon": 78.6355379
  },
  {
    "partId": 77410,
    "stateCode": "S29",
    "stateName": "Telangana",
    "districtCode": "S2919",
    "districtName": "Nagarkurnool",
    "acNumber": 82,
    "acName": "Achampet",
    "partNumber": 224,
    "partName": "Valla Bha   Pur .",
    "lat": 16.3999846,
    "lon": 78.6379866
  },
  {
    "partId": 77543,
    "stateCode": "S29",
    "stateName": "Telangana",
    "districtCode": "S2919",
    "districtName": "Nagarkurnool",
    "acNumber": 82,
    "acName": "Achampet",
    "partNumber": 225,
    "partName": "Rampur",
    "lat": 16.7163711,
    "lon": 78.6916857
  },
  {
    "partId": 77544,
    "stateCode": "S29",
    "stateName": "Telangana",
    "districtCode": "S2919",
    "districtName": "Nagarkurnool",
    "acNumber": 82,
    "acName": "Achampet",
    "partNumber": 226,
    "partName": "Bakaram",
    "lat": 16.3284936,
    "lon": 78.4904373
  },
  {
    "partId": 77545,
    "stateCode": "S29",
    "stateName": "Telangana",
    "districtCode": "S2919",
    "districtName": "Nagarkurnool",
    "acNumber": 82,
    "acName": "Achampet",
    "partNumber": 227,
    "partName": "Komatikunta",
    "lat": 16.2848642,
    "lon": 78.4992456
  },
  {
    "partId": 77411,
    "stateCode": "S29",
    "stateName": "Telangana",
    "districtCode": "S2919",
    "districtName": "Nagarkurnool",
    "acNumber": 82,
    "acName": "Achampet",
    "partNumber": 228,
    "partName": "Komatikunta",
    "lat": 16.2848642,
    "lon": 78.4992456
  },
  {
    "partId": 77412,
    "stateCode": "S29",
    "stateName": "Telangana",
    "districtCode": "S2919",
    "districtName": "Nagarkurnool",
    "acNumber": 82,
    "acName": "Achampet",
    "partNumber": 229,
    "partName": "Jeelugupally",
    "lat": 16.3999846,
    "lon": 78.6379866
  },
  {
    "partId": 77413,
    "stateCode": "S29",
    "stateName": "Telangana",
    "districtCode": "S2919",
    "districtName": "Nagarkurnool",
    "acNumber": 82,
    "acName": "Achampet",
    "partNumber": 230,
    "partName": "Dhatharam",
    "lat": 16.3999846,
    "lon": 78.6379866
  },
  {
    "partId": 77546,
    "stateCode": "S29",
    "stateName": "Telangana",
    "districtCode": "S2919",
    "districtName": "Nagarkurnool",
    "acNumber": 82,
    "acName": "Achampet",
    "partNumber": 231,
    "partName": "Shainpet",
    "lat": 16.3034841,
    "lon": 78.4601538
  },
  {
    "partId": 77547,
    "stateCode": "S29",
    "stateName": "Telangana",
    "districtCode": "S2919",
    "districtName": "Nagarkurnool",
    "acNumber": 82,
    "acName": "Achampet",
    "partNumber": 232,
    "partName": "Sainpet",
    "lat": 16.3999846,
    "lon": 78.6379866
  },
  {
    "partId": 77548,
    "stateCode": "S29",
    "stateName": "Telangana",
    "districtCode": "S2919",
    "districtName": "Nagarkurnool",
    "acNumber": 82,
    "acName": "Achampet",
    "partNumber": 233,
    "partName": "Ambatpalli",
    "lat": 16.411708321311476,
    "lon": 78.63876699573771
  },
  {
    "partId": 77549,
    "stateCode": "S29",
    "stateName": "Telangana",
    "districtCode": "S2919",
    "districtName": "Nagarkurnool",
    "acNumber": 82,
    "acName": "Achampet",
    "partNumber": 234,
    "partName": "Ambatpalli",
    "lat": 16.3999846,
    "lon": 78.6379866
  },
  {
    "partId": 77414,
    "stateCode": "S29",
    "stateName": "Telangana",
    "districtCode": "S2919",
    "districtName": "Nagarkurnool",
    "acNumber": 82,
    "acName": "Achampet",
    "partNumber": 235,
    "partName": "Ambati Pally",
    "lat": 16.3999846,
    "lon": 78.6379866
  },
  {
    "partId": 77415,
    "stateCode": "S29",
    "stateName": "Telangana",
    "districtCode": "S2919",
    "districtName": "Nagarkurnool",
    "acNumber": 82,
    "acName": "Achampet",
    "partNumber": 236,
    "partName": "Ambatpally",
    "lat": 16.3645972,
    "lon": 78.7896206
  },
  {
    "partId": 77626,
    "stateCode": "S29",
    "stateName": "Telangana",
    "districtCode": "S2919",
    "districtName": "Nagarkurnool",
    "acNumber": 82,
    "acName": "Achampet",
    "partNumber": 237,
    "partName": "Kotha Cheruvu Thanda",
    "lat": 16.3999846,
    "lon": 78.6379866
  },
  {
    "partId": 77416,
    "stateCode": "S29",
    "stateName": "Telangana",
    "districtCode": "S2919",
    "districtName": "Nagarkurnool",
    "acNumber": 82,
    "acName": "Achampet",
    "partNumber": 238,
    "partName": "Rayavaram",
    "lat": 16.2415895,
    "lon": 78.4524411
  },
  {
    "partId": 77417,
    "stateCode": "S29",
    "stateName": "Telangana",
    "districtCode": "S2919",
    "districtName": "Nagarkurnool",
    "acNumber": 82,
    "acName": "Achampet",
    "partNumber": 239,
    "partName": "Rayawaram",
    "lat": 16.3999846,
    "lon": 78.6379866
  },
  {
    "partId": 77637,
    "stateCode": "S29",
    "stateName": "Telangana",
    "districtCode": "S2919",
    "districtName": "Nagarkurnool",
    "acNumber": 82,
    "acName": "Achampet",
    "partNumber": 240,
    "partName": "Camp Rayavaram",
    "lat": 16.240835,
    "lon": 78.4740329
  },
  {
    "partId": 77550,
    "stateCode": "S29",
    "stateName": "Telangana",
    "districtCode": "S2919",
    "districtName": "Nagarkurnool",
    "acNumber": 82,
    "acName": "Achampet",
    "partNumber": 241,
    "partName": "Avusalikunta",
    "lat": 16.3999846,
    "lon": 78.6379866
  },
  {
    "partId": 77551,
    "stateCode": "S29",
    "stateName": "Telangana",
    "districtCode": "S2919",
    "districtName": "Nagarkurnool",
    "acNumber": 82,
    "acName": "Achampet",
    "partNumber": 242,
    "partName": "Avusalikunta",
    "lat": 16.3999846,
    "lon": 78.6379866
  },
  {
    "partId": 77552,
    "stateCode": "S29",
    "stateName": "Telangana",
    "districtCode": "S2919",
    "districtName": "Nagarkurnool",
    "acNumber": 82,
    "acName": "Achampet",
    "partNumber": 243,
    "partName": "Lingaala",
    "lat": 16.3999846,
    "lon": 78.6379866
  },
  {
    "partId": 77553,
    "stateCode": "S29",
    "stateName": "Telangana",
    "districtCode": "S2919",
    "districtName": "Nagarkurnool",
    "acNumber": 82,
    "acName": "Achampet",
    "partNumber": 244,
    "partName": "Lingala",
    "lat": 16.2692133,
    "lon": 78.5164104
  },
  {
    "partId": 77418,
    "stateCode": "S29",
    "stateName": "Telangana",
    "districtCode": "S2919",
    "districtName": "Nagarkurnool",
    "acNumber": 82,
    "acName": "Achampet",
    "partNumber": 245,
    "partName": "Lingala",
    "lat": 16.2692133,
    "lon": 78.5164104
  },
  {
    "partId": 77419,
    "stateCode": "S29",
    "stateName": "Telangana",
    "districtCode": "S2919",
    "districtName": "Nagarkurnool",
    "acNumber": 82,
    "acName": "Achampet",
    "partNumber": 246,
    "partName": "Lingala",
    "lat": 16.2692133,
    "lon": 78.5164104
  },
  {
    "partId": 77420,
    "stateCode": "S29",
    "stateName": "Telangana",
    "districtCode": "S2919",
    "districtName": "Nagarkurnool",
    "acNumber": 82,
    "acName": "Achampet",
    "partNumber": 247,
    "partName": "Lingal",
    "lat": 16.411708321311476,
    "lon": 78.63876699573771
  },
  {
    "partId": 77554,
    "stateCode": "S29",
    "stateName": "Telangana",
    "districtCode": "S2919",
    "districtName": "Nagarkurnool",
    "acNumber": 82,
    "acName": "Achampet",
    "partNumber": 248,
    "partName": "Lingal",
    "lat": 16.2685557,
    "lon": 78.516517
  },
  {
    "partId": 77555,
    "stateCode": "S29",
    "stateName": "Telangana",
    "districtCode": "S2919",
    "districtName": "Nagarkurnool",
    "acNumber": 82,
    "acName": "Achampet",
    "partNumber": 249,
    "partName": "Padmannapally",
    "lat": 16.3999846,
    "lon": 78.6379866
  },
  {
    "partId": 77556,
    "stateCode": "S29",
    "stateName": "Telangana",
    "districtCode": "S2919",
    "districtName": "Nagarkurnool",
    "acNumber": 82,
    "acName": "Achampet",
    "partNumber": 250,
    "partName": "Dharaaram",
    "lat": 16.3999846,
    "lon": 78.6379866
  },
  {
    "partId": 77421,
    "stateCode": "S29",
    "stateName": "Telangana",
    "districtCode": "S2919",
    "districtName": "Nagarkurnool",
    "acNumber": 82,
    "acName": "Achampet",
    "partNumber": 251,
    "partName": "Dhararam",
    "lat": 16.3999846,
    "lon": 78.6379866
  },
  {
    "partId": 77422,
    "stateCode": "S29",
    "stateName": "Telangana",
    "districtCode": "S2919",
    "districtName": "Nagarkurnool",
    "acNumber": 82,
    "acName": "Achampet",
    "partNumber": 252,
    "partName": "Chennam Pally",
    "lat": 16.3999846,
    "lon": 78.6379866
  },
  {
    "partId": 77628,
    "stateCode": "S29",
    "stateName": "Telangana",
    "districtCode": "S2919",
    "districtName": "Nagarkurnool",
    "acNumber": 82,
    "acName": "Achampet",
    "partNumber": 253,
    "partName": "Erra Penta",
    "lat": 16.3999846,
    "lon": 78.6379866
  },
  {
    "partId": 77423,
    "stateCode": "S29",
    "stateName": "Telangana",
    "districtCode": "S2919",
    "districtName": "Nagarkurnool",
    "acNumber": 82,
    "acName": "Achampet",
    "partNumber": 254,
    "partName": "Appai Pally",
    "lat": 16.3999846,
    "lon": 78.6379866
  },
  {
    "partId": 77630,
    "stateCode": "S29",
    "stateName": "Telangana",
    "districtCode": "S2919",
    "districtName": "Nagarkurnool",
    "acNumber": 82,
    "acName": "Achampet",
    "partNumber": 255,
    "partName": "M C Thanda",
    "lat": 16.3999846,
    "lon": 78.6379866
  },
  {
    "partId": 77557,
    "stateCode": "S29",
    "stateName": "Telangana",
    "districtCode": "S2919",
    "districtName": "Nagarkurnool",
    "acNumber": 82,
    "acName": "Achampet",
    "partNumber": 256,
    "partName": "Appai Palli",
    "lat": 16.3999846,
    "lon": 78.6379866
  },
  {
    "partId": 77631,
    "stateCode": "S29",
    "stateName": "Telangana",
    "districtCode": "S2919",
    "districtName": "Nagarkurnool",
    "acNumber": 82,
    "acName": "Achampet",
    "partNumber": 257,
    "partName": "Srirangapur",
    "lat": 16.3999846,
    "lon": 78.6379866
  },
  {
    "partId": 77558,
    "stateCode": "S29",
    "stateName": "Telangana",
    "districtCode": "S2919",
    "districtName": "Nagarkurnool",
    "acNumber": 82,
    "acName": "Achampet",
    "partNumber": 258,
    "partName": "Appaipally",
    "lat": 16.411708321311476,
    "lon": 78.63876699573771
  },
  {
    "partId": 77424,
    "stateCode": "S29",
    "stateName": "Telangana",
    "districtCode": "S2919",
    "districtName": "Nagarkurnool",
    "acNumber": 82,
    "acName": "Achampet",
    "partNumber": 259,
    "partName": "Appapur Penta",
    "lat": 16.3999846,
    "lon": 78.6379866
  },
  {
    "partId": 77632,
    "stateCode": "S29",
    "stateName": "Telangana",
    "districtCode": "S2919",
    "districtName": "Nagarkurnool",
    "acNumber": 82,
    "acName": "Achampet",
    "partNumber": 260,
    "partName": "Rampur Penta",
    "lat": 16.3999846,
    "lon": 78.6379866
  },
  {
    "partId": 77634,
    "stateCode": "S29",
    "stateName": "Telangana",
    "districtCode": "S2919",
    "districtName": "Nagarkurnool",
    "acNumber": 82,
    "acName": "Achampet",
    "partNumber": 261,
    "partName": "Bourapoor Penta",
    "lat": 16.3999846,
    "lon": 78.6379866
  },
  {
    "partId": 77635,
    "stateCode": "S29",
    "stateName": "Telangana",
    "districtCode": "S2919",
    "districtName": "Nagarkurnool",
    "acNumber": 82,
    "acName": "Achampet",
    "partNumber": 262,
    "partName": "Pullayapally",
    "lat": 16.3999846,
    "lon": 78.6379866
  },
  {
    "partId": 77636,
    "stateCode": "S29",
    "stateName": "Telangana",
    "districtCode": "S2919",
    "districtName": "Nagarkurnool",
    "acNumber": 82,
    "acName": "Achampet",
    "partNumber": 263,
    "partName": "Sangadigundala",
    "lat": 16.3999846,
    "lon": 78.6379866
  },
  {
    "partId": 77425,
    "stateCode": "S29",
    "stateName": "Telangana",
    "districtCode": "S2919",
    "districtName": "Nagarkurnool",
    "acNumber": 82,
    "acName": "Achampet",
    "partNumber": 264,
    "partName": "Kotha Kunta Pally",
    "lat": 16.3999846,
    "lon": 78.6379866
  },
  {
    "partId": 77426,
    "stateCode": "S29",
    "stateName": "Telangana",
    "districtCode": "S2919",
    "districtName": "Nagarkurnool",
    "acNumber": 82,
    "acName": "Achampet",
    "partNumber": 265,
    "partName": "Surapur",
    "lat": 16.3034326,
    "lon": 78.515575
  },
  {
    "partId": 77559,
    "stateCode": "S29",
    "stateName": "Telangana",
    "districtCode": "S2919",
    "districtName": "Nagarkurnool",
    "acNumber": 82,
    "acName": "Achampet",
    "partNumber": 266,
    "partName": "Surapur",
    "lat": 16.3034326,
    "lon": 78.515575
  },
  {
    "partId": 77560,
    "stateCode": "S29",
    "stateName": "Telangana",
    "districtCode": "S2919",
    "districtName": "Nagarkurnool",
    "acNumber": 82,
    "acName": "Achampet",
    "partNumber": 267,
    "partName": "Venkateshwarla Bavi",
    "lat": 16.3999846,
    "lon": 78.6379866
  },
  {
    "partId": 77561,
    "stateCode": "S29",
    "stateName": "Telangana",
    "districtCode": "S2919",
    "districtName": "Nagarkurnool",
    "acNumber": 82,
    "acName": "Achampet",
    "partNumber": 268,
    "partName": "Venkateshwarla Bavi",
    "lat": 16.3999846,
    "lon": 78.6379866
  },
  {
    "partId": 77427,
    "stateCode": "S29",
    "stateName": "Telangana",
    "districtCode": "S2919",
    "districtName": "Nagarkurnool",
    "acNumber": 82,
    "acName": "Achampet",
    "partNumber": 269,
    "partName": "Macharam",
    "lat": 16.3785371,
    "lon": 78.7933641
  },
  {
    "partId": 77428,
    "stateCode": "S29",
    "stateName": "Telangana",
    "districtCode": "S2919",
    "districtName": "Nagarkurnool",
    "acNumber": 82,
    "acName": "Achampet",
    "partNumber": 270,
    "partName": "Macharam Colany",
    "lat": 16.3999846,
    "lon": 78.6379866
  },
  {
    "partId": 77638,
    "stateCode": "S29",
    "stateName": "Telangana",
    "districtCode": "S2919",
    "districtName": "Nagarkurnool",
    "acNumber": 82,
    "acName": "Achampet",
    "partNumber": 271,
    "partName": "Kollampenta",
    "lat": 16.3999846,
    "lon": 78.6379866
  },
  {
    "partId": 77429,
    "stateCode": "S29",
    "stateName": "Telangana",
    "districtCode": "S2919",
    "districtName": "Nagarkurnool",
    "acNumber": 82,
    "acName": "Achampet",
    "partNumber": 272,
    "partName": "Mannanooru",
    "lat": 16.3999846,
    "lon": 78.6379866
  },
  {
    "partId": 77562,
    "stateCode": "S29",
    "stateName": "Telangana",
    "districtCode": "S2919",
    "districtName": "Nagarkurnool",
    "acNumber": 82,
    "acName": "Achampet",
    "partNumber": 273,
    "partName": "Mannanooru",
    "lat": 16.3999846,
    "lon": 78.6379866
  },
  {
    "partId": 77563,
    "stateCode": "S29",
    "stateName": "Telangana",
    "districtCode": "S2919",
    "districtName": "Nagarkurnool",
    "acNumber": 82,
    "acName": "Achampet",
    "partNumber": 274,
    "partName": "Mananoor",
    "lat": 16.3999846,
    "lon": 78.6379866
  },
  {
    "partId": 77564,
    "stateCode": "S29",
    "stateName": "Telangana",
    "districtCode": "S2919",
    "districtName": "Nagarkurnool",
    "acNumber": 82,
    "acName": "Achampet",
    "partNumber": 275,
    "partName": "Mannanooru",
    "lat": 16.3999846,
    "lon": 78.6379866
  },
  {
    "partId": 77430,
    "stateCode": "S29",
    "stateName": "Telangana",
    "districtCode": "S2919",
    "districtName": "Nagarkurnool",
    "acNumber": 82,
    "acName": "Achampet",
    "partNumber": 276,
    "partName": "Mannanoor",
    "lat": 16.3701845,
    "lon": 78.7603667
  },
  {
    "partId": 77604,
    "stateCode": "S29",
    "stateName": "Telangana",
    "districtCode": "S2919",
    "districtName": "Nagarkurnool",
    "acNumber": 82,
    "acName": "Achampet",
    "partNumber": 277,
    "partName": "Farhabad",
    "lat": 16.3999846,
    "lon": 78.6379866
  },
  {
    "partId": 77613,
    "stateCode": "S29",
    "stateName": "Telangana",
    "districtCode": "S2919",
    "districtName": "Nagarkurnool",
    "acNumber": 82,
    "acName": "Achampet",
    "partNumber": 278,
    "partName": "Mallapur Penta",
    "lat": 16.3999846,
    "lon": 78.6379866
  },
  {
    "partId": 77431,
    "stateCode": "S29",
    "stateName": "Telangana",
    "districtCode": "S2919",
    "districtName": "Nagarkurnool",
    "acNumber": 82,
    "acName": "Achampet",
    "partNumber": 279,
    "partName": "Vatvarla Palli",
    "lat": 16.3999846,
    "lon": 78.6379866
  },
  {
    "partId": 77432,
    "stateCode": "S29",
    "stateName": "Telangana",
    "districtCode": "S2919",
    "districtName": "Nagarkurnool",
    "acNumber": 82,
    "acName": "Achampet",
    "partNumber": 280,
    "partName": "Sarlapally",
    "lat": 16.411708321311476,
    "lon": 78.63876699573771
  },
  {
    "partId": 77639,
    "stateCode": "S29",
    "stateName": "Telangana",
    "districtCode": "S2919",
    "districtName": "Nagarkurnool",
    "acNumber": 82,
    "acName": "Achampet",
    "partNumber": 281,
    "partName": "Kudichinthalabailu",
    "lat": 16.3999846,
    "lon": 78.6379866
  },
  {
    "partId": 77565,
    "stateCode": "S29",
    "stateName": "Telangana",
    "districtCode": "S2919",
    "districtName": "Nagarkurnool",
    "acNumber": 82,
    "acName": "Achampet",
    "partNumber": 282,
    "partName": "Domalapenta",
    "lat": 16.1036489,
    "lon": 78.8974732
  },
  {
    "partId": 77566,
    "stateCode": "S29",
    "stateName": "Telangana",
    "districtCode": "S2919",
    "districtName": "Nagarkurnool",
    "acNumber": 82,
    "acName": "Achampet",
    "partNumber": 283,
    "partName": "Eegalapenta",
    "lat": 16.09128,
    "lon": 78.89324
  },
  {
    "partId": 77640,
    "stateCode": "S29",
    "stateName": "Telangana",
    "districtCode": "S2919",
    "districtName": "Nagarkurnool",
    "acNumber": 82,
    "acName": "Achampet",
    "partNumber": 284,
    "partName": "Paataala ganga",
    "lat": 16.3999846,
    "lon": 78.6379866
  },
  {
    "partId": 77641,
    "stateCode": "S29",
    "stateName": "Telangana",
    "districtCode": "S2919",
    "districtName": "Nagarkurnool",
    "acNumber": 82,
    "acName": "Achampet",
    "partNumber": 285,
    "partName": "Inland Tuannel",
    "lat": 16.3999846,
    "lon": 78.6379866
  },
  {
    "partId": 77567,
    "stateCode": "S29",
    "stateName": "Telangana",
    "districtCode": "S2919",
    "districtName": "Nagarkurnool",
    "acNumber": 82,
    "acName": "Achampet",
    "partNumber": 286,
    "partName": "Domala Penta",
    "lat": 16.3999846,
    "lon": 78.6379866
  },
  {
    "partId": 77433,
    "stateCode": "S29",
    "stateName": "Telangana",
    "districtCode": "S2919",
    "districtName": "Nagarkurnool",
    "acNumber": 82,
    "acName": "Achampet",
    "partNumber": 287,
    "partName": "Maddimadugu",
    "lat": 16.3127696,
    "lon": 79.134313
  },
  {
    "partId": 77434,
    "stateCode": "S29",
    "stateName": "Telangana",
    "districtCode": "S2919",
    "districtName": "Nagarkurnool",
    "acNumber": 82,
    "acName": "Achampet",
    "partNumber": 288,
    "partName": "Ippalapalli",
    "lat": 16.3999846,
    "lon": 78.6379866
  },
  {
    "partId": 77435,
    "stateCode": "S29",
    "stateName": "Telangana",
    "districtCode": "S2919",
    "districtName": "Nagarkurnool",
    "acNumber": 82,
    "acName": "Achampet",
    "partNumber": 289,
    "partName": "Ippalapally",
    "lat": 16.6970152,
    "lon": 78.2070069
  },
  {
    "partId": 77617,
    "stateCode": "S29",
    "stateName": "Telangana",
    "districtCode": "S2919",
    "districtName": "Nagarkurnool",
    "acNumber": 82,
    "acName": "Achampet",
    "partNumber": 290,
    "partName": "Palleroutepenta",
    "lat": 16.3999846,
    "lon": 78.6379866
  },
  {
    "partId": 77568,
    "stateCode": "S29",
    "stateName": "Telangana",
    "districtCode": "S2919",
    "districtName": "Nagarkurnool",
    "acNumber": 82,
    "acName": "Achampet",
    "partNumber": 291,
    "partName": "Maredugu",
    "lat": 16.3999846,
    "lon": 78.6379866
  },
  {
    "partId": 77569,
    "stateCode": "S29",
    "stateName": "Telangana",
    "districtCode": "S2919",
    "districtName": "Nagarkurnool",
    "acNumber": 82,
    "acName": "Achampet",
    "partNumber": 292,
    "partName": "Udimilla",
    "lat": 16.4353494,
    "lon": 78.8784698
  },
  {
    "partId": 77570,
    "stateCode": "S29",
    "stateName": "Telangana",
    "districtCode": "S2919",
    "districtName": "Nagarkurnool",
    "acNumber": 82,
    "acName": "Achampet",
    "partNumber": 293,
    "partName": "Chitlam Kunta",
    "lat": 16.3999846,
    "lon": 78.6379866
  },
  {
    "partId": 77619,
    "stateCode": "S29",
    "stateName": "Telangana",
    "districtCode": "S2919",
    "districtName": "Nagarkurnool",
    "acNumber": 82,
    "acName": "Achampet",
    "partNumber": 294,
    "partName": "Petralchenu",
    "lat": 16.3999846,
    "lon": 78.6379866
  },
  {
    "partId": 77436,
    "stateCode": "S29",
    "stateName": "Telangana",
    "districtCode": "S2919",
    "districtName": "Nagarkurnool",
    "acNumber": 82,
    "acName": "Achampet",
    "partNumber": 295,
    "partName": "Chitlam Kunta",
    "lat": 16.3999846,
    "lon": 78.6379866
  },
  {
    "partId": 77437,
    "stateCode": "S29",
    "stateName": "Telangana",
    "districtCode": "S2919",
    "districtName": "Nagarkurnool",
    "acNumber": 82,
    "acName": "Achampet",
    "partNumber": 296,
    "partName": "Chennampally",
    "lat": 16.2135029,
    "lon": 78.5414924
  },
  {
    "partId": 77438,
    "stateCode": "S29",
    "stateName": "Telangana",
    "districtCode": "S2919",
    "districtName": "Nagarkurnool",
    "acNumber": 82,
    "acName": "Achampet",
    "partNumber": 297,
    "partName": "Venkeshwaram",
    "lat": 16.3999846,
    "lon": 78.6379866
  },
  {
    "partId": 77571,
    "stateCode": "S29",
    "stateName": "Telangana",
    "districtCode": "S2919",
    "districtName": "Nagarkurnool",
    "acNumber": 82,
    "acName": "Achampet",
    "partNumber": 298,
    "partName": "Venkeshwaram",
    "lat": 16.3999846,
    "lon": 78.6379866
  },
  {
    "partId": 77572,
    "stateCode": "S29",
    "stateName": "Telangana",
    "districtCode": "S2919",
    "districtName": "Nagarkurnool",
    "acNumber": 82,
    "acName": "Achampet",
    "partNumber": 299,
    "partName": "Vankeshwaram",
    "lat": 16.4310964,
    "lon": 78.9101503
  },
  {
    "partId": 77573,
    "stateCode": "S29",
    "stateName": "Telangana",
    "districtCode": "S2919",
    "districtName": "Nagarkurnool",
    "acNumber": 82,
    "acName": "Achampet",
    "partNumber": 300,
    "partName": "Padra",
    "lat": 16.4362704,
    "lon": 78.8769865
  },
  {
    "partId": 77439,
    "stateCode": "S29",
    "stateName": "Telangana",
    "districtCode": "S2919",
    "districtName": "Nagarkurnool",
    "acNumber": 82,
    "acName": "Achampet",
    "partNumber": 301,
    "partName": "Padra",
    "lat": 16.4362704,
    "lon": 78.8769865
  },
  {
    "partId": 77440,
    "stateCode": "S29",
    "stateName": "Telangana",
    "districtCode": "S2919",
    "districtName": "Nagarkurnool",
    "acNumber": 82,
    "acName": "Achampet",
    "partNumber": 302,
    "partName": "Padra",
    "lat": 16.4362704,
    "lon": 78.8769865
  },
  {
    "partId": 77441,
    "stateCode": "S29",
    "stateName": "Telangana",
    "districtCode": "S2919",
    "districtName": "Nagarkurnool",
    "acNumber": 82,
    "acName": "Achampet",
    "partNumber": 303,
    "partName": "Padra",
    "lat": 16.4362704,
    "lon": 78.8769865
  },
  {
    "partId": 77442,
    "stateCode": "S29",
    "stateName": "Telangana",
    "districtCode": "S2919",
    "districtName": "Nagarkurnool",
    "acNumber": 82,
    "acName": "Achampet",
    "partNumber": 304,
    "partName": "Jyothinayak Tanda",
    "lat": 16.411708321311476,
    "lon": 78.63876699573771
  },
  {
    "partId": 77574,
    "stateCode": "S29",
    "stateName": "Telangana",
    "districtCode": "S2919",
    "districtName": "Nagarkurnool",
    "acNumber": 82,
    "acName": "Achampet",
    "partNumber": 305,
    "partName": "Kummaroni Palli",
    "lat": 16.3999846,
    "lon": 78.6379866
  },
  {
    "partId": 77575,
    "stateCode": "S29",
    "stateName": "Telangana",
    "districtCode": "S2919",
    "districtName": "Nagarkurnool",
    "acNumber": 82,
    "acName": "Achampet",
    "partNumber": 306,
    "partName": "Kummaronipally",
    "lat": 16.3931031,
    "lon": 78.8644007
  },
  {
    "partId": 77576,
    "stateCode": "S29",
    "stateName": "Telangana",
    "districtCode": "S2919",
    "districtName": "Nagarkurnool",
    "acNumber": 82,
    "acName": "Achampet",
    "partNumber": 307,
    "partName": "Vanguronipally",
    "lat": 16.3999846,
    "lon": 78.6379866
  },
  {
    "partId": 77577,
    "stateCode": "S29",
    "stateName": "Telangana",
    "districtCode": "S2919",
    "districtName": "Nagarkurnool",
    "acNumber": 82,
    "acName": "Achampet",
    "partNumber": 308,
    "partName": "Madhavani Pally",
    "lat": 16.3999846,
    "lon": 78.6379866
  },
  {
    "partId": 77443,
    "stateCode": "S29",
    "stateName": "Telangana",
    "districtCode": "S2919",
    "districtName": "Nagarkurnool",
    "acNumber": 82,
    "acName": "Achampet",
    "partNumber": 309,
    "partName": "Madhavani Pally",
    "lat": 16.3999846,
    "lon": 78.6379866
  },
  {
    "partId": 77444,
    "stateCode": "S29",
    "stateName": "Telangana",
    "districtCode": "S2919",
    "districtName": "Nagarkurnool",
    "acNumber": 82,
    "acName": "Achampet",
    "partNumber": 310,
    "partName": "Laxmapur  B.K.",
    "lat": 16.3864366,
    "lon": 78.9174074
  },
  {
    "partId": 77445,
    "stateCode": "S29",
    "stateName": "Telangana",
    "districtCode": "S2919",
    "districtName": "Nagarkurnool",
    "acNumber": 82,
    "acName": "Achampet",
    "partNumber": 311,
    "partName": "Laxmapur Thanda",
    "lat": 16.3807959,
    "lon": 78.9228147
  },
  {
    "partId": 77578,
    "stateCode": "S29",
    "stateName": "Telangana",
    "districtCode": "S2919",
    "districtName": "Nagarkurnool",
    "acNumber": 82,
    "acName": "Achampet",
    "partNumber": 312,
    "partName": "Tirumalapur,  B.K.",
    "lat": 16.3999846,
    "lon": 78.6379866
  },
  {
    "partId": 77579,
    "stateCode": "S29",
    "stateName": "Telangana",
    "districtCode": "S2919",
    "districtName": "Nagarkurnool",
    "acNumber": 82,
    "acName": "Achampet",
    "partNumber": 313,
    "partName": "Tirumalapur, B.K.,",
    "lat": 16.3999846,
    "lon": 78.6379866
  },
  {
    "partId": 77580,
    "stateCode": "S29",
    "stateName": "Telangana",
    "districtCode": "S2919",
    "districtName": "Nagarkurnool",
    "acNumber": 82,
    "acName": "Achampet",
    "partNumber": 314,
    "partName": "B.K. Uppununthala",
    "lat": 16.3999846,
    "lon": 78.6379866
  },
  {
    "partId": 77446,
    "stateCode": "S29",
    "stateName": "Telangana",
    "districtCode": "S2919",
    "districtName": "Nagarkurnool",
    "acNumber": 82,
    "acName": "Achampet",
    "partNumber": 315,
    "partName": "Amrabad",
    "lat": 16.3767064,
    "lon": 78.833257
  },
  {
    "partId": 77447,
    "stateCode": "S29",
    "stateName": "Telangana",
    "districtCode": "S2919",
    "districtName": "Nagarkurnool",
    "acNumber": 82,
    "acName": "Achampet",
    "partNumber": 316,
    "partName": "Amrabad",
    "lat": 16.3767064,
    "lon": 78.833257
  },
  {
    "partId": 77642,
    "stateCode": "S29",
    "stateName": "Telangana",
    "districtCode": "S2919",
    "districtName": "Nagarkurnool",
    "acNumber": 82,
    "acName": "Achampet",
    "partNumber": 317,
    "partName": "Idulabavi",
    "lat": 16.3999846,
    "lon": 78.6379866
  },
  {
    "partId": 77643,
    "stateCode": "S29",
    "stateName": "Telangana",
    "districtCode": "S2919",
    "districtName": "Nagarkurnool",
    "acNumber": 82,
    "acName": "Achampet",
    "partNumber": 318,
    "partName": "Yelma palli",
    "lat": 16.3999846,
    "lon": 78.6379866
  },
  {
    "partId": 77644,
    "stateCode": "S29",
    "stateName": "Telangana",
    "districtCode": "S2919",
    "districtName": "Nagarkurnool",
    "acNumber": 82,
    "acName": "Achampet",
    "partNumber": 319,
    "partName": "Chinthaloni pally",
    "lat": 16.3999846,
    "lon": 78.6379866
  },
  {
    "partId": 77448,
    "stateCode": "S29",
    "stateName": "Telangana",
    "districtCode": "S2919",
    "districtName": "Nagarkurnool",
    "acNumber": 82,
    "acName": "Achampet",
    "partNumber": 320,
    "partName": "Kalumulonipally",
    "lat": 16.3999846,
    "lon": 78.6379866
  },
  {
    "partId": 77581,
    "stateCode": "S29",
    "stateName": "Telangana",
    "districtCode": "S2919",
    "districtName": "Nagarkurnool",
    "acNumber": 82,
    "acName": "Achampet",
    "partNumber": 321,
    "partName": "Amrabad",
    "lat": 16.3767064,
    "lon": 78.833257
  },
  {
    "partId": 77582,
    "stateCode": "S29",
    "stateName": "Telangana",
    "districtCode": "S2919",
    "districtName": "Nagarkurnool",
    "acNumber": 82,
    "acName": "Achampet",
    "partNumber": 322,
    "partName": "Amrabad",
    "lat": 16.3767064,
    "lon": 78.833257
  },
  {
    "partId": 77583,
    "stateCode": "S29",
    "stateName": "Telangana",
    "districtCode": "S2919",
    "districtName": "Nagarkurnool",
    "acNumber": 82,
    "acName": "Achampet",
    "partNumber": 323,
    "partName": "Amrabad",
    "lat": 16.3767064,
    "lon": 78.833257
  },
  {
    "partId": 77449,
    "stateCode": "S29",
    "stateName": "Telangana",
    "districtCode": "S2919",
    "districtName": "Nagarkurnool",
    "acNumber": 82,
    "acName": "Achampet",
    "partNumber": 324,
    "partName": "Kothapally",
    "lat": 16.3999846,
    "lon": 78.6379866
  },
  {
    "partId": 77450,
    "stateCode": "S29",
    "stateName": "Telangana",
    "districtCode": "S2919",
    "districtName": "Nagarkurnool",
    "acNumber": 82,
    "acName": "Achampet",
    "partNumber": 325,
    "partName": "Amrabad",
    "lat": 16.3767064,
    "lon": 78.833257
  },
  {
    "partId": 77451,
    "stateCode": "S29",
    "stateName": "Telangana",
    "districtCode": "S2919",
    "districtName": "Nagarkurnool",
    "acNumber": 82,
    "acName": "Achampet",
    "partNumber": 326,
    "partName": "Jangam Reddy Palli",
    "lat": 16.3999846,
    "lon": 78.6379866
  },
  {
    "partId": 77831,
    "stateCode": "S29",
    "stateName": "Telangana",
    "districtCode": "S2919",
    "districtName": "Nagarkurnool",
    "acNumber": 85,
    "acName": "Kollapur",
    "partNumber": 1,
    "partName": "Vennacherla",
    "lat": 16.3411072,
    "lon": 78.3127785
  },
  {
    "partId": 77983,
    "stateCode": "S29",
    "stateName": "Telangana",
    "districtCode": "S2919",
    "districtName": "Nagarkurnool",
    "acNumber": 85,
    "acName": "Kollapur",
    "partNumber": 2,
    "partName": "Vennacherla",
    "lat": 16.3411072,
    "lon": 78.3127785
  },
  {
    "partId": 77984,
    "stateCode": "S29",
    "stateName": "Telangana",
    "districtCode": "S2919",
    "districtName": "Nagarkurnool",
    "acNumber": 85,
    "acName": "Kollapur",
    "partNumber": 3,
    "partName": "Vennacherla",
    "lat": 16.3411072,
    "lon": 78.3127785
  },
  {
    "partId": 77985,
    "stateCode": "S29",
    "stateName": "Telangana",
    "districtCode": "S2919",
    "districtName": "Nagarkurnool",
    "acNumber": 85,
    "acName": "Kollapur",
    "partNumber": 4,
    "partName": "Nakkala Palli",
    "lat": 16.1061268,
    "lon": 78.3194833
  },
  {
    "partId": 77833,
    "stateCode": "S29",
    "stateName": "Telangana",
    "districtCode": "S2919",
    "districtName": "Nagarkurnool",
    "acNumber": 85,
    "acName": "Kollapur",
    "partNumber": 5,
    "partName": "Chandrakal",
    "lat": 16.3590668,
    "lon": 78.3596206
  },
  {
    "partId": 77986,
    "stateCode": "S29",
    "stateName": "Telangana",
    "districtCode": "S2919",
    "districtName": "Nagarkurnool",
    "acNumber": 85,
    "acName": "Kollapur",
    "partNumber": 6,
    "partName": "Chandrakal",
    "lat": 16.3590668,
    "lon": 78.3596206
  },
  {
    "partId": 77835,
    "stateCode": "S29",
    "stateName": "Telangana",
    "districtCode": "S2919",
    "districtName": "Nagarkurnool",
    "acNumber": 85,
    "acName": "Kollapur",
    "partNumber": 7,
    "partName": "Sanjeevapur",
    "lat": 16.1061268,
    "lon": 78.3194833
  },
  {
    "partId": 77987,
    "stateCode": "S29",
    "stateName": "Telangana",
    "districtCode": "S2919",
    "districtName": "Nagarkurnool",
    "acNumber": 85,
    "acName": "Kollapur",
    "partNumber": 8,
    "partName": "Adirala",
    "lat": 16.3207015,
    "lon": 78.3586001
  },
  {
    "partId": 77837,
    "stateCode": "S29",
    "stateName": "Telangana",
    "districtCode": "S2919",
    "districtName": "Nagarkurnool",
    "acNumber": 85,
    "acName": "Kollapur",
    "partNumber": 9,
    "partName": "Musthipalli",
    "lat": 16.1061268,
    "lon": 78.3194833
  },
  {
    "partId": 77839,
    "stateCode": "S29",
    "stateName": "Telangana",
    "districtCode": "S2919",
    "districtName": "Nagarkurnool",
    "acNumber": 85,
    "acName": "Kollapur",
    "partNumber": 10,
    "partName": "Mushthipalli",
    "lat": 16.1061268,
    "lon": 78.3194833
  },
  {
    "partId": 77841,
    "stateCode": "S29",
    "stateName": "Telangana",
    "districtCode": "S2919",
    "districtName": "Nagarkurnool",
    "acNumber": 85,
    "acName": "Kollapur",
    "partNumber": 11,
    "partName": "Perumallapally",
    "lat": 16.1061268,
    "lon": 78.3194833
  },
  {
    "partId": 77988,
    "stateCode": "S29",
    "stateName": "Telangana",
    "districtCode": "S2919",
    "districtName": "Nagarkurnool",
    "acNumber": 85,
    "acName": "Kollapur",
    "partNumber": 12,
    "partName": "Marrikal",
    "lat": 16.3285876,
    "lon": 78.4062374
  },
  {
    "partId": 77989,
    "stateCode": "S29",
    "stateName": "Telangana",
    "districtCode": "S2919",
    "districtName": "Nagarkurnool",
    "acNumber": 85,
    "acName": "Kollapur",
    "partNumber": 13,
    "partName": "Marrikal",
    "lat": 16.1061268,
    "lon": 78.3194833
  },