[
  {
    "partId": 54725,
    "stateCode": "S29",
    "stateName": "Telangana",
    "districtCode": "S2908",
    "districtName": "Peddapalli",
    "acNumber": 24,
    "acName": "Manthani",
    "partNumber": 1,
    "partName": "Sundilla",
    "lat": 18.7595848,
    "lon": 79.548064
  },
  {
    "partId": 54580,
    "stateCode": "S29",
    "stateName": "Telangana",
    "districtCode": "S2908",
    "districtName": "Peddapalli",
    "acNumber": 24,
    "acName": "Manthani",
    "partNumber": 2,
    "partName": "Sundilla",
    "lat": 18.7595848,
    "lon": 79.548064
  },
  {
    "partId": 54581,
    "stateCode": "S29",
    "stateName": "Telangana",
    "districtCode": "S2908",
    "districtName": "Peddapalli",
    "acNumber": 24,
    "acName": "Manthani",
    "partNumber": 3,
    "partName": "Sundilla",
    "lat": 18.7595848,
    "lon": 79.548064
  },
  {
    "partId": 54582,
    "stateCode": "S29",
    "stateName": "Telangana",
    "districtCode": "S2908",
    "districtName": "Peddapalli",
    "acNumber": 24,
    "acName": "Manthani",
    "partNumber": 4,
    "partName": "Mustyala",
    "lat": 18.7396935,
    "lon": 79.5632002
  },
  {
    "partId": 54583,
    "stateCode": "S29",
    "stateName": "Telangana",
    "districtCode": "S2908",
    "districtName": "Peddapalli",
    "acNumber": 24,
    "acName": "Manthani",
    "partNumber": 5,
    "partName": "Chandhanpur",
    "lat": 18.6512469,
    "lon": 79.665771
  },
  {
    "partId": 54726,
    "stateCode": "S29",
    "stateName": "Telangana",
    "districtCode": "S2908",
    "districtName": "Peddapalli",
    "acNumber": 24,
    "acName": "Manthani",
    "partNumber": 6,
    "partName": "Singireddypalli",
    "lat": 18.6512469,
    "lon": 79.665771
  },
  {
    "partId": 54727,
    "stateCode": "S29",
    "stateName": "Telangana",
    "districtCode": "S2908",
    "districtName": "Peddapalli",
    "acNumber": 24,
    "acName": "Manthani",
    "partNumber": 7,
    "partName": "Singireddipalli",
    "lat": 18.6512469,
    "lon": 79.665771
  },
  {
    "partId": 54728,
    "stateCode": "S29",
    "stateName": "Telangana",
    "districtCode": "S2908",
    "districtName": "Peddapalli",
    "acNumber": 24,
    "acName": "Manthani",
    "partNumber": 8,
    "partName": "Peddampeta",
    "lat": 18.7986131,
    "lon": 79.4329873
  },
  {
    "partId": 54584,
    "stateCode": "S29",
    "stateName": "Telangana",
    "districtCode": "S2908",
    "districtName": "Peddapalli",
    "acNumber": 24,
    "acName": "Manthani",
    "partNumber": 9,
    "partName": "Peddampeta",
    "lat": 18.7986131,
    "lon": 79.4329873
  },
  {
    "partId": 54585,
    "stateCode": "S29",
    "stateName": "Telangana",
    "districtCode": "S2908",
    "districtName": "Peddapalli",
    "acNumber": 24,
    "acName": "Manthani",
    "partNumber": 10,
    "partName": "Mangalpalli",
    "lat": 18.6512469,
    "lon": 79.665771
  },
  {
    "partId": 54586,
    "stateCode": "S29",
    "stateName": "Telangana",
    "districtCode": "S2908",
    "districtName": "Peddapalli",
    "acNumber": 24,
    "acName": "Manthani",
    "partNumber": 11,
    "partName": "Venkatraopally",
    "lat": 18.6186623,
    "lon": 79.3036232
  },
  {
    "partId": 54729,
    "stateCode": "S29",
    "stateName": "Telangana",
    "districtCode": "S2908",
    "districtName": "Peddapalli",
    "acNumber": 24,
    "acName": "Manthani",
    "partNumber": 12,
    "partName": "Venkatraopally",
    "lat": 18.6186623,
    "lon": 79.3036232
  },
  {
    "partId": 54730,
    "stateCode": "S29",
    "stateName": "Telangana",
    "districtCode": "S2908",
    "districtName": "Peddapalli",
    "acNumber": 24,
    "acName": "Manthani",
    "partNumber": 13,
    "partName": "Venkatraopally",
    "lat": 18.6186623,
    "lon": 79.3036232
  },
  {
    "partId": 54731,
    "stateCode": "S29",
    "stateName": "Telangana",
    "districtCode": "S2908",
    "districtName": "Peddapalli",
    "acNumber": 24,
    "acName": "Manthani",
    "partNumber": 14,
    "partName": "Venkatraopalli",
    "lat": 18.6512469,
    "lon": 79.665771
  },
  {
    "partId": 54587,
    "stateCode": "S29",
    "stateName": "Telangana",
    "districtCode": "S2908",
    "districtName": "Peddapalli",
    "acNumber": 24,
    "acName": "Manthani",
    "partNumber": 15,
    "partName": "Venkatraopalli",
    "lat": 18.6512469,
    "lon": 79.665771
  },
  {
    "partId": 54588,
    "stateCode": "S29",
    "stateName": "Telangana",
    "districtCode": "S2908",
    "districtName": "Peddapalli",
    "acNumber": 24,
    "acName": "Manthani",
    "partNumber": 16,
    "partName": "Venkatraopalli",
    "lat": 18.6512469,
    "lon": 79.665771
  },
  {
    "partId": 54732,
    "stateCode": "S29",
    "stateName": "Telangana",
    "districtCode": "S2908",
    "districtName": "Peddapalli",
    "acNumber": 24,
    "acName": "Manthani",
    "partNumber": 17,
    "partName": "Centenary Colony",
    "lat": 18.6512469,
    "lon": 79.665771
  },
  {
    "partId": 54733,
    "stateCode": "S29",
    "stateName": "Telangana",
    "districtCode": "S2908",
    "districtName": "Peddapalli",
    "acNumber": 24,
    "acName": "Manthani",
    "partNumber": 18,
    "partName": "Nagepalli",
    "lat": 18.6512469,
    "lon": 79.665771
  },
  {
    "partId": 54734,
    "stateCode": "S29",
    "stateName": "Telangana",
    "districtCode": "S2908",
    "districtName": "Peddapalli",
    "acNumber": 24,
    "acName": "Manthani",
    "partNumber": 19,
    "partName": "Nagepalli",
    "lat": 18.6512469,
    "lon": 79.665771
  },
  {
    "partId": 54589,
    "stateCode": "S29",
    "stateName": "Telangana",
    "districtCode": "S2908",
    "districtName": "Peddapalli",
    "acNumber": 24,
    "acName": "Manthani",
    "partNumber": 20,
    "partName": "Pannur",
    "lat": 18.6389062,
    "lon": 79.5514762
  },
  {
    "partId": 54590,
    "stateCode": "S29",
    "stateName": "Telangana",
    "districtCode": "S2908",
    "districtName": "Peddapalli",
    "acNumber": 24,
    "acName": "Manthani",
    "partNumber": 21,
    "partName": "Pannur",
    "lat": 18.6389062,
    "lon": 79.5514762
  },
  {
    "partId": 54591,
    "stateCode": "S29",
    "stateName": "Telangana",
    "districtCode": "S2908",
    "districtName": "Peddapalli",
    "acNumber": 24,
    "acName": "Manthani",
    "partNumber": 22,
    "partName": "Pannur",
    "lat": 18.6389062,
    "lon": 79.5514762
  },
  {
    "partId": 54735,
    "stateCode": "S29",
    "stateName": "Telangana",
    "districtCode": "S2908",
    "districtName": "Peddapalli",
    "acNumber": 24,
    "acName": "Manthani",
    "partNumber": 23,
    "partName": "Pannur",
    "lat": 18.6389062,
    "lon": 79.5514762
  },
  {
    "partId": 54736,
    "stateCode": "S29",
    "stateName": "Telangana",
    "districtCode": "S2908",
    "districtName": "Peddapalli",
    "acNumber": 24,
    "acName": "Manthani",
    "partNumber": 24,
    "partName": "Pannur",
    "lat": 18.6389062,
    "lon": 79.5514762
  },
  {
    "partId": 54737,
    "stateCode": "S29",
    "stateName": "Telangana",
    "districtCode": "S2908",
    "districtName": "Peddapalli",
    "acNumber": 24,
    "acName": "Manthani",
    "partNumber": 25,
    "partName": "Pannur",
    "lat": 18.6389062,
    "lon": 79.5514762
  },
  {
    "partId": 54592,
    "stateCode": "S29",
    "stateName": "Telangana",
    "districtCode": "S2908",
    "districtName": "Peddapalli",
    "acNumber": 24,
    "acName": "Manthani",
    "partNumber": 26,
    "partName": "Rathnapur",
    "lat": 18.6281137,
    "lon": 79.5527087
  },
  {
    "partId": 54593,
    "stateCode": "S29",
    "stateName": "Telangana",
    "districtCode": "S2908",
    "districtName": "Peddapalli",
    "acNumber": 24,
    "acName": "Manthani",
    "partNumber": 27,
    "partName": "Rathnapur",
    "lat": 18.6281137,
    "lon": 79.5527087
  },
  {
    "partId": 54594,
    "stateCode": "S29",
    "stateName": "Telangana",
    "districtCode": "S2908",
    "districtName": "Peddapalli",
    "acNumber": 24,
    "acName": "Manthani",
    "partNumber": 28,
    "partName": "Rathnapur",
    "lat": 18.6281137,
    "lon": 79.5527087
  },
  {
    "partId": 54595,
    "stateCode": "S29",
    "stateName": "Telangana",
    "districtCode": "S2908",
    "districtName": "Peddapalli",
    "acNumber": 24,
    "acName": "Manthani",
    "partNumber": 29,
    "partName": "Rathnapur",
    "lat": 18.6281137,
    "lon": 79.5527087
  },
  {
    "partId": 54738,
    "stateCode": "S29",
    "stateName": "Telangana",
    "districtCode": "S2908",
    "districtName": "Peddapalli",
    "acNumber": 24,
    "acName": "Manthani",
    "partNumber": 30,
    "partName": "Begumpeta",
    "lat": 18.6002468,
    "lon": 79.5673227
  },
  {
    "partId": 54739,
    "stateCode": "S29",
    "stateName": "Telangana",
    "districtCode": "S2908",
    "districtName": "Peddapalli",
    "acNumber": 24,
    "acName": "Manthani",
    "partNumber": 31,
    "partName": "Begumpeta",
    "lat": 18.6002468,
    "lon": 79.5673227
  },
  {
    "partId": 54740,
    "stateCode": "S29",
    "stateName": "Telangana",
    "districtCode": "S2908",
    "districtName": "Peddapalli",
    "acNumber": 24,
    "acName": "Manthani",
    "partNumber": 32,
    "partName": "Nawabpeta",
    "lat": 18.6512469,
    "lon": 79.665771
  },
  {
    "partId": 54741,
    "stateCode": "S29",
    "stateName": "Telangana",
    "districtCode": "S2908",
    "districtName": "Peddapalli",
    "acNumber": 24,
    "acName": "Manthani",
    "partNumber": 33,
    "partName": "Nawabpeta",
    "lat": 18.6512469,
    "lon": 79.665771
  },
  {
    "partId": 54596,
    "stateCode": "S29",
    "stateName": "Telangana",
    "districtCode": "S2908",
    "districtName": "Peddapalli",
    "acNumber": 24,
    "acName": "Manthani",
    "partNumber": 34,
    "partName": "Begumpeta",
    "lat": 18.6002468,
    "lon": 79.5673227
  },
  {
    "partId": 54597,
    "stateCode": "S29",
    "stateName": "Telangana",
    "districtCode": "S2908",
    "districtName": "Peddapalli",
    "acNumber": 24,
    "acName": "Manthani",
    "partNumber": 35,
    "partName": "Kalvacherla",
    "lat": 18.6328708,
    "lon": 79.5300934
  },
  {
    "partId": 54598,
    "stateCode": "S29",
    "stateName": "Telangana",
    "districtCode": "S2908",
    "districtName": "Peddapalli",
    "acNumber": 24,
    "acName": "Manthani",
    "partNumber": 36,
    "partName": "Kalavacherla",
    "lat": 18.6512469,
    "lon": 79.665771
  },
  {
    "partId": 54599,
    "stateCode": "S29",
    "stateName": "Telangana",
    "districtCode": "S2908",
    "districtName": "Peddapalli",
    "acNumber": 24,
    "acName": "Manthani",
    "partNumber": 37,
    "partName": "Kalvacherla",
    "lat": 18.6328708,
    "lon": 79.5300934
  },
  {
    "partId": 54742,
    "stateCode": "S29",
    "stateName": "Telangana",
    "districtCode": "S2908",
    "districtName": "Peddapalli",
    "acNumber": 24,
    "acName": "Manthani",
    "partNumber": 38,
    "partName": "Kalvacherla",
    "lat": 18.6328708,
    "lon": 79.5300934
  },
  {
    "partId": 54743,
    "stateCode": "S29",
    "stateName": "Telangana",
    "districtCode": "S2908",
    "districtName": "Peddapalli",
    "acNumber": 24,
    "acName": "Manthani",
    "partNumber": 39,
    "partName": "Kalvacherla",
    "lat": 18.6328708,
    "lon": 79.5300934
  },
  {
    "partId": 54744,
    "stateCode": "S29",
    "stateName": "Telangana",
    "districtCode": "S2908",
    "districtName": "Peddapalli",
    "acNumber": 24,
    "acName": "Manthani",
    "partNumber": 40,
    "partName": "Lonkakesaram",
    "lat": 18.6512469,
    "lon": 79.665771
  },
  {
    "partId": 54600,
    "stateCode": "S29",
    "stateName": "Telangana",
    "districtCode": "S2908",
    "districtName": "Peddapalli",
    "acNumber": 24,
    "acName": "Manthani",
    "partNumber": 41,
    "partName": "Julapalli",
    "lat": 18.62609655,
    "lon": 79.25453593937138
  },
  {
    "partId": 54601,
    "stateCode": "S29",
    "stateName": "Telangana",
    "districtCode": "S2908",
    "districtName": "Peddapalli",
    "acNumber": 24,
    "acName": "Manthani",
    "partNumber": 42,
    "partName": "Julapalli",
    "lat": 18.62609655,
    "lon": 79.25453593937138
  },
  {
    "partId": 54602,
    "stateCode": "S29",
    "stateName": "Telangana",
    "districtCode": "S2908",
    "districtName": "Peddapalli",
    "acNumber": 24,
    "acName": "Manthani",
    "partNumber": 43,
    "partName": "Julapalli",
    "lat": 18.62609655,
    "lon": 79.25453593937138
  },
  {
    "partId": 54745,
    "stateCode": "S29",
    "stateName": "Telangana",
    "districtCode": "S2908",
    "districtName": "Peddapalli",
    "acNumber": 24,
    "acName": "Manthani",
    "partNumber": 44,
    "partName": "Kamanpur",
    "lat": 18.6618445,
    "lon": 79.5029538
  },
  {
    "partId": 54746,
    "stateCode": "S29",
    "stateName": "Telangana",
    "districtCode": "S2908",
    "districtName": "Peddapalli",
    "acNumber": 24,
    "acName": "Manthani",
    "partNumber": 45,
    "partName": "Kamanpur",
    "lat": 18.6618445,
    "lon": 79.5029538
  },
  {
    "partId": 54747,
    "stateCode": "S29",
    "stateName": "Telangana",
    "districtCode": "S2908",
    "districtName": "Peddapalli",
    "acNumber": 24,
    "acName": "Manthani",
    "partNumber": 46,
    "partName": "Kamanpur",
    "lat": 18.6618445,
    "lon": 79.5029538
  },
  {
    "partId": 54603,
    "stateCode": "S29",
    "stateName": "Telangana",
    "districtCode": "S2908",
    "districtName": "Peddapalli",
    "acNumber": 24,
    "acName": "Manthani",
    "partNumber": 47,
    "partName": "Kamanpur",
    "lat": 18.6618445,
    "lon": 79.5029538
  },
  {
    "partId": 54604,
    "stateCode": "S29",
    "stateName": "Telangana",
    "districtCode": "S2908",
    "districtName": "Peddapalli",
    "acNumber": 24,
    "acName": "Manthani",
    "partNumber": 48,
    "partName": "Kamanpur",
    "lat": 18.6618445,
    "lon": 79.5029538
  },
  {
    "partId": 54748,
    "stateCode": "S29",
    "stateName": "Telangana",
    "districtCode": "S2908",
    "districtName": "Peddapalli",
    "acNumber": 24,
    "acName": "Manthani",
    "partNumber": 49,
    "partName": "Kamanpur",
    "lat": 18.6618445,
    "lon": 79.5029538
  },
  {
    "partId": 54605,
    "stateCode": "S29",
    "stateName": "Telangana",
    "districtCode": "S2908",
    "districtName": "Peddapalli",
    "acNumber": 24,
    "acName": "Manthani",
    "partNumber": 50,
    "partName": "Kamanpur",
    "lat": 18.6618445,
    "lon": 79.5029538
  },
  {
    "partId": 54749,
    "stateCode": "S29",
    "stateName": "Telangana",
    "districtCode": "S2908",
    "districtName": "Peddapalli",
    "acNumber": 24,
    "acName": "Manthani",
    "partNumber": 51,
    "partName": "Gundaram",
    "lat": 18.6454132,
    "lon": 79.4930111
  },
  {
    "partId": 54606,
    "stateCode": "S29",
    "stateName": "Telangana",
    "districtCode": "S2908",
    "districtName": "Peddapalli",
    "acNumber": 24,
    "acName": "Manthani",
    "partNumber": 52,
    "partName": "Gundaram",
    "lat": 18.6454132,
    "lon": 79.4930111
  },
  {
    "partId": 54750,
    "stateCode": "S29",
    "stateName": "Telangana",
    "districtCode": "S2908",
    "districtName": "Peddapalli",
    "acNumber": 24,
    "acName": "Manthani",
    "partNumber": 53,
    "partName": "Perapalli",
    "lat": 18.6512469,
    "lon": 79.665771
  },
  {
    "partId": 54751,
    "stateCode": "S29",
    "stateName": "Telangana",
    "districtCode": "S2908",
    "districtName": "Peddapalli",
    "acNumber": 24,
    "acName": "Manthani",
    "partNumber": 54,
    "partName": "Gollapalli",
    "lat": 18.720094,
    "lon": 79.2841508
  },
  {
    "partId": 54752,
    "stateCode": "S29",
    "stateName": "Telangana",
    "districtCode": "S2908",
    "districtName": "Peddapalli",
    "acNumber": 24,
    "acName": "Manthani",
    "partNumber": 55,
    "partName": "Rompikunta",
    "lat": 18.6681073,
    "lon": 79.4736017
  },
  {
    "partId": 54607,
    "stateCode": "S29",
    "stateName": "Telangana",
    "districtCode": "S2908",
    "districtName": "Peddapalli",
    "acNumber": 24,
    "acName": "Manthani",
    "partNumber": 56,
    "partName": "Rompikunta",
    "lat": 18.6681073,
    "lon": 79.4736017
  },
  {
    "partId": 54608,
    "stateCode": "S29",
    "stateName": "Telangana",
    "districtCode": "S2908",
    "districtName": "Peddapalli",
    "acNumber": 24,
    "acName": "Manthani",
    "partNumber": 57,
    "partName": "Nagaram Lingala",
    "lat": 18.6512469,
    "lon": 79.665771
  },
  {
    "partId": 54609,
    "stateCode": "S29",
    "stateName": "Telangana",
    "districtCode": "S2908",
    "districtName": "Peddapalli",
    "acNumber": 24,
    "acName": "Manthani",
    "partNumber": 58,
    "partName": "Nagaram Lingala",
    "lat": 18.6512469,
    "lon": 79.665771
  },
  {
    "partId": 54753,
    "stateCode": "S29",
    "stateName": "Telangana",
    "districtCode": "S2908",
    "districtName": "Peddapalli",
    "acNumber": 24,
    "acName": "Manthani",
    "partNumber": 59,
    "partName": "Ranapur",
    "lat": 18.6968308,
    "lon": 79.4543289
  },
  {
    "partId": 54754,
    "stateCode": "S29",
    "stateName": "Telangana",
    "districtCode": "S2908",
    "districtName": "Peddapalli",
    "acNumber": 24,
    "acName": "Manthani",
    "partNumber": 60,
    "partName": "Ranapur",
    "lat": 18.6968308,
    "lon": 79.4543289
  },
  {
    "partId": 54755,
    "stateCode": "S29",
    "stateName": "Telangana",
    "districtCode": "S2908",
    "districtName": "Peddapalli",
    "acNumber": 24,
    "acName": "Manthani",
    "partNumber": 61,
    "partName": "Kannala",
    "lat": 18.6629796,
    "lon": 79.6127266
  },
  {
    "partId": 54756,
    "stateCode": "S29",
    "stateName": "Telangana",
    "districtCode": "S2908",
    "districtName": "Peddapalli",
    "acNumber": 24,
    "acName": "Manthani",
    "partNumber": 62,
    "partName": "Kannala",
    "lat": 18.6629796,
    "lon": 79.6127266
  },
  {
    "partId": 54868,
    "stateCode": "S29",
    "stateName": "Telangana",
    "districtCode": "S2908",
    "districtName": "Peddapalli",
    "acNumber": 24,
    "acName": "Manthani",
    "partNumber": 63,
    "partName": "Bamlanayak Thanda",
    "lat": 18.6512469,
    "lon": 79.665771
  },
  {
    "partId": 54610,
    "stateCode": "S29",
    "stateName": "Telangana",
    "districtCode": "S2908",
    "districtName": "Peddapalli",
    "acNumber": 24,
    "acName": "Manthani",
    "partNumber": 64,
    "partName": "Kannala",
    "lat": 18.6629796,
    "lon": 79.6127266
  },
  {
    "partId": 54611,
    "stateCode": "S29",
    "stateName": "Telangana",
    "districtCode": "S2908",
    "districtName": "Peddapalli",
    "acNumber": 24,
    "acName": "Manthani",
    "partNumber": 65,
    "partName": "Kannala",
    "lat": 18.6629796,
    "lon": 79.6127266
  },
  {
    "partId": 54612,
    "stateCode": "S29",
    "stateName": "Telangana",
    "districtCode": "S2908",
    "districtName": "Peddapalli",
    "acNumber": 24,
    "acName": "Manthani",
    "partNumber": 66,
    "partName": "Kannala",
    "lat": 18.6629796,
    "lon": 79.6127266
  },
  {
    "partId": 54613,
    "stateCode": "S29",
    "stateName": "Telangana",
    "districtCode": "S2908",
    "districtName": "Peddapalli",
    "acNumber": 24,
    "acName": "Manthani",
    "partNumber": 67,
    "partName": "Kannala",
    "lat": 18.6629796,
    "lon": 79.6127266
  },
  {
    "partId": 54757,
    "stateCode": "S29",
    "stateName": "Telangana",
    "districtCode": "S2908",
    "districtName": "Peddapalli",
    "acNumber": 24,
    "acName": "Manthani",
    "partNumber": 68,
    "partName": "Kannala",
    "lat": 18.6629796,
    "lon": 79.6127266
  },
  {
    "partId": 54758,
    "stateCode": "S29",
    "stateName": "Telangana",
    "districtCode": "S2908",
    "districtName": "Peddapalli",
    "acNumber": 24,
    "acName": "Manthani",
    "partNumber": 69,
    "partName": "Penchikalpet",
    "lat": 18.6512469,
    "lon": 79.665771
  },
  {
    "partId": 54759,
    "stateCode": "S29",
    "stateName": "Telangana",
    "districtCode": "S2908",
    "districtName": "Peddapalli",
    "acNumber": 24,
    "acName": "Manthani",
    "partNumber": 70,
    "partName": "Penchikalpet",
    "lat": 18.6512469,
    "lon": 79.665771
  },
  {
    "partId": 54760,
    "stateCode": "S29",
    "stateName": "Telangana",
    "districtCode": "S2908",
    "districtName": "Peddapalli",
    "acNumber": 24,
    "acName": "Manthani",
    "partNumber": 71,
    "partName": "Siripuram",
    "lat": 18.7185197,
    "lon": 79.5991401
  },
  {
    "partId": 54614,
    "stateCode": "S29",
    "stateName": "Telangana",
    "districtCode": "S2908",
    "districtName": "Peddapalli",
    "acNumber": 24,
    "acName": "Manthani",
    "partNumber": 72,
    "partName": "Dubbapalli",
    "lat": 18.4938889,
    "lon": 79.226998
  },
  {
    "partId": 54615,
    "stateCode": "S29",
    "stateName": "Telangana",
    "districtCode": "S2908",
    "districtName": "Peddapalli",
    "acNumber": 24,
    "acName": "Manthani",
    "partNumber": 73,
    "partName": "Chillapalli",
    "lat": 18.6512469,
    "lon": 79.665771
  },
  {
    "partId": 54616,
    "stateCode": "S29",
    "stateName": "Telangana",
    "districtCode": "S2908",
    "districtName": "Peddapalli",
    "acNumber": 24,
    "acName": "Manthani",
    "partNumber": 74,
    "partName": "Gunjapadugu",
    "lat": 18.7161396,
    "lon": 79.598491
  },
  {
    "partId": 54617,
    "stateCode": "S29",
    "stateName": "Telangana",
    "districtCode": "S2908",
    "districtName": "Peddapalli",
    "acNumber": 24,
    "acName": "Manthani",
    "partNumber": 75,
    "partName": "Gunjapadugu",
    "lat": 18.7161396,
    "lon": 79.598491
  },
  {
    "partId": 54761,
    "stateCode": "S29",
    "stateName": "Telangana",
    "districtCode": "S2908",
    "districtName": "Peddapalli",
    "acNumber": 24,
    "acName": "Manthani",
    "partNumber": 76,
    "partName": "Gunjapadugu",
    "lat": 18.7161396,
    "lon": 79.598491
  },
  {
    "partId": 54762,
    "stateCode": "S29",
    "stateName": "Telangana",
    "districtCode": "S2908",
    "districtName": "Peddapalli",
    "acNumber": 24,
    "acName": "Manthani",
    "partNumber": 77,
    "partName": "Uppatla",
    "lat": 18.7094909,
    "lon": 79.6259729
  },
  {
    "partId": 54763,
    "stateCode": "S29",
    "stateName": "Telangana",
    "districtCode": "S2908",
    "districtName": "Peddapalli",
    "acNumber": 24,
    "acName": "Manthani",
    "partNumber": 78,
    "partName": "Nagaram",
    "lat": 18.6739044,
    "lon": 79.6113953
  },
  {
    "partId": 54618,
    "stateCode": "S29",
    "stateName": "Telangana",
    "districtCode": "S2908",
    "districtName": "Peddapalli",
    "acNumber": 24,
    "acName": "Manthani",
    "partNumber": 79,
    "partName": "Potaram",
    "lat": 18.6512469,
    "lon": 79.665771
  },
  {
    "partId": 54619,
    "stateCode": "S29",
    "stateName": "Telangana",
    "districtCode": "S2908",
    "districtName": "Peddapalli",
    "acNumber": 24,
    "acName": "Manthani",
    "partNumber": 80,
    "partName": "Vilochavaram",
    "lat": 18.6811624,
    "lon": 79.6480648
  },
  {
    "partId": 54620,
    "stateCode": "S29",
    "stateName": "Telangana",
    "districtCode": "S2908",
    "districtName": "Peddapalli",
    "acNumber": 24,
    "acName": "Manthani",
    "partNumber": 81,
    "partName": "Manthani",
    "lat": 18.6512469,
    "lon": 79.665771
  },
  {
    "partId": 54764,
    "stateCode": "S29",
    "stateName": "Telangana",
    "districtCode": "S2908",
    "districtName": "Peddapalli",
    "acNumber": 24,
    "acName": "Manthani",
    "partNumber": 82,
    "partName": "Manthani",
    "lat": 18.6512469,
    "lon": 79.665771
  },
  {
    "partId": 54621,
    "stateCode": "S29",
    "stateName": "Telangana",
    "districtCode": "S2908",
    "districtName": "Peddapalli",
    "acNumber": 24,
    "acName": "Manthani",
    "partNumber": 83,
    "partName": "Manthani",
    "lat": 18.6512469,
    "lon": 79.665771
  },
  {
    "partId": 54765,
    "stateCode": "S29",
    "stateName": "Telangana",
    "districtCode": "S2908",
    "districtName": "Peddapalli",
    "acNumber": 24,
    "acName": "Manthani",
    "partNumber": 84,
    "partName": "Manthani",
    "lat": 18.6512469,
    "lon": 79.665771
  },
  {
    "partId": 54622,
    "stateCode": "S29",
    "stateName": "Telangana",
    "districtCode": "S2908",
    "districtName": "Peddapalli",
    "acNumber": 24,
    "acName": "Manthani",
    "partNumber": 85,
    "partName": "Manthani",
    "lat": 18.6512469,
    "lon": 79.665771
  },
  {
    "partId": 54766,
    "stateCode": "S29",
    "stateName": "Telangana",
    "districtCode": "S2908",
    "districtName": "Peddapalli",
    "acNumber": 24,
    "acName": "Manthani",
    "partNumber": 86,
    "partName": "Manthani",
    "lat": 18.6512469,
    "lon": 79.665771
  },
  {
    "partId": 54767,
    "stateCode": "S29",
    "stateName": "Telangana",
    "districtCode": "S2908",
    "districtName": "Peddapalli",
    "acNumber": 24,
    "acName": "Manthani",
    "partNumber": 87,
    "partName": "Manthani",
    "lat": 18.6512469,
    "lon": 79.665771
  },
  {
    "partId": 54768,
    "stateCode": "S29",
    "stateName": "Telangana",
    "districtCode": "S2908",
    "districtName": "Peddapalli",
    "acNumber": 24,
    "acName": "Manthani",
    "partNumber": 88,
    "partName": "Manthani",
    "lat": 18.6512469,
    "lon": 79.665771
  },
  {
    "partId": 54623,
    "stateCode": "S29",
    "stateName": "Telangana",
    "districtCode": "S2908",
    "districtName": "Peddapalli",
    "acNumber": 24,
    "acName": "Manthani",
    "partNumber": 89,
    "partName": "Manthani",
    "lat": 18.6512469,
    "lon": 79.665771
  },
  {
    "partId": 54624,
    "stateCode": "S29",
    "stateName": "Telangana",
    "districtCode": "S2908",
    "districtName": "Peddapalli",
    "acNumber": 24,
    "acName": "Manthani",
    "partNumber": 90,
    "partName": "Manthani",
    "lat": 18.6512469,
    "lon": 79.665771
  },
  {
    "partId": 54625,
    "stateCode": "S29",
    "stateName": "Telangana",
    "districtCode": "S2908",
    "districtName": "Peddapalli",
    "acNumber": 24,
    "acName": "Manthani",
    "partNumber": 91,
    "partName": "Manthani",
    "lat": 18.6512469,
    "lon": 79.665771
  },
  {
    "partId": 54769,
    "stateCode": "S29",
    "stateName": "Telangana",
    "districtCode": "S2908",
    "districtName": "Peddapalli",
    "acNumber": 24,
    "acName": "Manthani",
    "partNumber": 92,
    "partName": "Manthani",
    "lat": 18.6512469,
    "lon": 79.665771
  },
  {
    "partId": 54770,
    "stateCode": "S29",
    "stateName": "Telangana",
    "districtCode": "S2908",
    "districtName": "Peddapalli",
    "acNumber": 24,
    "acName": "Manthani",
    "partNumber": 93,
    "partName": "Manthani",
    "lat": 18.6512469,
    "lon": 79.665771
  },
  {
    "partId": 54771,
    "stateCode": "S29",
    "stateName": "Telangana",
    "districtCode": "S2908",
    "districtName": "Peddapalli",
    "acNumber": 24,
    "acName": "Manthani",
    "partNumber": 94,
    "partName": "Manthani",
    "lat": 18.6512469,
    "lon": 79.665771
  },
  {
    "partId": 54772,
    "stateCode": "S29",
    "stateName": "Telangana",
    "districtCode": "S2908",
    "districtName": "Peddapalli",
    "acNumber": 24,
    "acName": "Manthani",
    "partNumber": 95,
    "partName": "Manthani",
    "lat": 18.650118617446044,
    "lon": 79.62546253459755
  },
  {
    "partId": 54626,
    "stateCode": "S29",
    "stateName": "Telangana",
    "districtCode": "S2908",
    "districtName": "Peddapalli",
    "acNumber": 24,
    "acName": "Manthani",
    "partNumber": 96,
    "partName": "Kuchirajpalli",
    "lat": 18.6512469,
    "lon": 79.665771
  },
  {
    "partId": 54627,
    "stateCode": "S29",
    "stateName": "Telangana",
    "districtCode": "S2908",
    "districtName": "Peddapalli",
    "acNumber": 24,
    "acName": "Manthani",
    "partNumber": 97,
    "partName": "Gangapuri",
    "lat": 18.6512469,
    "lon": 79.665771
  },
  {
    "partId": 54628,
    "stateCode": "S29",
    "stateName": "Telangana",
    "districtCode": "S2908",
    "districtName": "Peddapalli",
    "acNumber": 24,
    "acName": "Manthani",
    "partNumber": 98,
    "partName": "Suraiah Palli",
    "lat": 18.650118617446044,
    "lon": 79.62546253459755
  },
  {
    "partId": 54629,
    "stateCode": "S29",
    "stateName": "Telangana",
    "districtCode": "S2908",
    "districtName": "Peddapalli",
    "acNumber": 24,
    "acName": "Manthani",
    "partNumber": 99,
    "partName": "Kakarlapalli",
    "lat": 18.650118617446044,
    "lon": 79.62546253459755
  },
  {
    "partId": 54773,
    "stateCode": "S29",
    "stateName": "Telangana",
    "districtCode": "S2908",
    "districtName": "Peddapalli",
    "acNumber": 24,
    "acName": "Manthani",
    "partNumber": 100,
    "partName": "Khanapur",
    "lat": 18.6638969,
    "lon": 79.6978846
  },
  {
    "partId": 54774,
    "stateCode": "S29",
    "stateName": "Telangana",
    "districtCode": "S2908",
    "districtName": "Peddapalli",
    "acNumber": 24,
    "acName": "Manthani",
    "partNumber": 101,
    "partName": "Eklaspur",
    "lat": 18.6463602,
    "lon": 79.6884131
  },
  {
    "partId": 54775,
    "stateCode": "S29",
    "stateName": "Telangana",
    "districtCode": "S2908",
    "districtName": "Peddapalli",
    "acNumber": 24,
    "acName": "Manthani",
    "partNumber": 102,
    "partName": "Eklaspur",
    "lat": 18.6463602,
    "lon": 79.6884131
  },
  {
    "partId": 54630,
    "stateCode": "S29",
    "stateName": "Telangana",
    "districtCode": "S2908",
    "districtName": "Peddapalli",
    "acNumber": 24,
    "acName": "Manthani",
    "partNumber": 103,
    "partName": "Eklaspur",
    "lat": 18.6463602,
    "lon": 79.6884131
  },
  {
    "partId": 54631,
    "stateCode": "S29",
    "stateName": "Telangana",
    "districtCode": "S2908",
    "districtName": "Peddapalli",
    "acNumber": 24,
    "acName": "Manthani",
    "partNumber": 104,
    "partName": "Bhatpalli",
    "lat": 18.6512469,
    "lon": 79.665771
  },
  {
    "partId": 54632,
    "stateCode": "S29",
    "stateName": "Telangana",
    "districtCode": "S2908",
    "districtName": "Peddapalli",
    "acNumber": 24,
    "acName": "Manthani",
    "partNumber": 105,
    "partName": "Khansai Peta",
    "lat": 18.6512469,
    "lon": 79.665771
  },
  {
    "partId": 54776,
    "stateCode": "S29",
    "stateName": "Telangana",
    "districtCode": "S2908",
    "districtName": "Peddapalli",
    "acNumber": 24,
    "acName": "Manthani",
    "partNumber": 106,
    "partName": "Arenda",
    "lat": 18.6840732,
    "lon": 79.8057063
  },
  {
    "partId": 54777,
    "stateCode": "S29",
    "stateName": "Telangana",
    "districtCode": "S2908",
    "districtName": "Peddapalli",
    "acNumber": 24,
    "acName": "Manthani",
    "partNumber": 107,
    "partName": "Mallaram",
    "lat": 18.676691,
    "lon": 79.8100864
  },
  {
    "partId": 54633,
    "stateCode": "S29",
    "stateName": "Telangana",
    "districtCode": "S2908",
    "districtName": "Peddapalli",
    "acNumber": 24,
    "acName": "Manthani",
    "partNumber": 108,
    "partName": "Venkatapur",
    "lat": 18.6583059,
    "lon": 79.8118252
  },
  {
    "partId": 54634,
    "stateCode": "S29",
    "stateName": "Telangana",
    "districtCode": "S2908",
    "districtName": "Peddapalli",
    "acNumber": 24,
    "acName": "Manthani",
    "partNumber": 109,
    "partName": "Swarnapalle",
    "lat": 18.6512469,
    "lon": 79.665771
  },
  {
    "partId": 54635,
    "stateCode": "S29",
    "stateName": "Telangana",
    "districtCode": "S2908",
    "districtName": "Peddapalli",
    "acNumber": 24,
    "acName": "Manthani",
    "partNumber": 110,
    "partName": "Nagepalli",
    "lat": 18.6512469,
    "lon": 79.665771
  },
  {
    "partId": 54778,
    "stateCode": "S29",
    "stateName": "Telangana",
    "districtCode": "S2908",
    "districtName": "Peddapalli",
    "acNumber": 24,
    "acName": "Manthani",
    "partNumber": 111,
    "partName": "Adavisomanpalli",
    "lat": 18.6512469,
    "lon": 79.665771
  },
  {
    "partId": 54636,
    "stateCode": "S29",
    "stateName": "Telangana",
    "districtCode": "S2908",
    "districtName": "Peddapalli",
    "acNumber": 24,
    "acName": "Manthani",
    "partNumber": 112,
    "partName": "Chinna Odela",
    "lat": 18.5764942,
    "lon": 79.7736597
  },
  {
    "partId": 54779,
    "stateCode": "S29",
    "stateName": "Telangana",
    "districtCode": "S2908",
    "districtName": "Peddapalli",
    "acNumber": 24,
    "acName": "Manthani",
    "partNumber": 113,
    "partName": "Gopalpur",
    "lat": 18.5856922,
    "lon": 79.7262907
  },
  {
    "partId": 54637,
    "stateCode": "S29",
    "stateName": "Telangana",
    "districtCode": "S2908",
    "districtName": "Peddapalli",
    "acNumber": 24,
    "acName": "Manthani",
    "partNumber": 114,
    "partName": "Gaddalapalli",
    "lat": 18.575042,
    "lon": 79.6831871
  },
  {
    "partId": 54780,
    "stateCode": "S29",
    "stateName": "Telangana",
    "districtCode": "S2908",
    "districtName": "Peddapalli",
    "acNumber": 24,
    "acName": "Manthani",
    "partNumber": 115,
    "partName": "Gaddalapalli",
    "lat": 18.575042,
    "lon": 79.6831871
  },
  {
    "partId": 54781,
    "stateCode": "S29",
    "stateName": "Telangana",
    "districtCode": "S2908",
    "districtName": "Peddapalli",
    "acNumber": 24,
    "acName": "Manthani",
    "partNumber": 116,
    "partName": "Bitpalli (K)",
    "lat": 18.6512469,
    "lon": 79.665771
  },
  {
    "partId": 54782,
    "stateCode": "S29",
    "stateName": "Telangana",
    "districtCode": "S2908",
    "districtName": "Peddapalli",
    "acNumber": 24,
    "acName": "Manthani",
    "partNumber": 117,
    "partName": "Maidupalli",
    "lat": 18.6512469,
    "lon": 79.665771
  },
  {
    "partId": 54638,
    "stateCode": "S29",
    "stateName": "Telangana",
    "districtCode": "S2908",
    "districtName": "Peddapalli",
    "acNumber": 24,
    "acName": "Manthani",
    "partNumber": 118,
    "partName": "Gajulapally",
    "lat": 18.6512469,
    "lon": 79.665771
  },
  {
    "partId": 54639,
    "stateCode": "S29",
    "stateName": "Telangana",
    "districtCode": "S2908",
    "districtName": "Peddapalli",
    "acNumber": 24,
    "acName": "Manthani",
    "partNumber": 119,
    "partName": "Gummunoor",
    "lat": 18.6512469,
    "lon": 79.665771
  },
  {
    "partId": 54783,
    "stateCode": "S29",
    "stateName": "Telangana",
    "districtCode": "S2908",
    "districtName": "Peddapalli",
    "acNumber": 24,
    "acName": "Manthani",
    "partNumber": 120,
    "partName": "Lakkepur",
    "lat": 18.6512469,
    "lon": 79.665771
  },
  {
    "partId": 54784,
    "stateCode": "S29",
    "stateName": "Telangana",
    "districtCode": "S2908",
    "districtName": "Peddapalli",
    "acNumber": 24,
    "acName": "Manthani",
    "partNumber": 121,
    "partName": "Puttapaka",
    "lat": 18.6395602,
    "lon": 79.6174013
  },
  {
    "partId": 54785,
    "stateCode": "S29",
    "stateName": "Telangana",
    "districtCode": "S2908",
    "districtName": "Peddapalli",
    "acNumber": 24,
    "acName": "Manthani",
    "partNumber": 122,
    "partName": "Nagarampalli",
    "lat": 18.6512469,
    "lon": 79.665771
  },
  {
    "partId": 54640,
    "stateCode": "S29",
    "stateName": "Telangana",
    "districtCode": "S2908",
    "districtName": "Peddapalli",
    "acNumber": 24,
    "acName": "Manthani",
    "partNumber": 123,
    "partName": "Maidupalli",
    "lat": 18.6512469,
    "lon": 79.665771
  },
  {
    "partId": 54641,
    "stateCode": "S29",
    "stateName": "Telangana",
    "districtCode": "S2908",
    "districtName": "Peddapalli",
    "acNumber": 24,
    "acName": "Manthani",
    "partNumber": 124,
    "partName": "Kannala",
    "lat": 18.6629796,
    "lon": 79.6127266
  },
  {
    "partId": 54642,
    "stateCode": "S29",
    "stateName": "Telangana",
    "districtCode": "S2908",
    "districtName": "Peddapalli",
    "acNumber": 24,
    "acName": "Manthani",
    "partNumber": 125,
    "partName": "Pandulapalli",
    "lat": 18.6512469,
    "lon": 79.665771
  },
  {
    "partId": 54786,
    "stateCode": "S29",
    "stateName": "Telangana",
    "districtCode": "S2908",
    "districtName": "Peddapalli",
    "acNumber": 24,
    "acName": "Manthani",
    "partNumber": 126,
    "partName": "Mallepalli",
    "lat": 18.6512469,
    "lon": 79.665771
  },
  {
    "partId": 54787,
    "stateCode": "S29",
    "stateName": "Telangana",
    "districtCode": "S2908",
    "districtName": "Peddapalli",
    "acNumber": 24,
    "acName": "Manthani",
    "partNumber": 127,
    "partName": "Rachapally (R&R Colony)",
    "lat": 18.6512469,
    "lon": 79.665771
  },
  {
    "partId": 54788,
    "stateCode": "S29",
    "stateName": "Telangana",
    "districtCode": "S2908",
    "districtName": "Peddapalli",
    "acNumber": 24,
    "acName": "Manthani",
    "partNumber": 128,
    "partName": "Gangapuri",
    "lat": 18.6365087,
    "lon": 79.6537019
  },
  {
    "partId": 54643,
    "stateCode": "S29",
    "stateName": "Telangana",
    "districtCode": "S2908",
    "districtName": "Peddapalli",
    "acNumber": 24,
    "acName": "Manthani",
    "partNumber": 129,
    "partName": "Jadaraopet And Gudur",
    "lat": 18.6512469,
    "lon": 79.665771
  },
  {
    "partId": 54644,
    "stateCode": "S29",
    "stateName": "Telangana",
    "districtCode": "S2908",
    "districtName": "Peddapalli",
    "acNumber": 24,
    "acName": "Manthani",
    "partNumber": 130,
    "partName": "Ragupally",
    "lat": 18.6512469,
    "lon": 79.665771
  },
  {
    "partId": 54645,
    "stateCode": "S29",
    "stateName": "Telangana",
    "districtCode": "S2908",
    "districtName": "Peddapalli",
    "acNumber": 24,
    "acName": "Manthani",
    "partNumber": 131,
    "partName": "Odipilavamcha",
    "lat": 18.6512469,
    "lon": 79.665771
  },
  {
    "partId": 54789,
    "stateCode": "S29",
    "stateName": "Telangana",
    "districtCode": "S2908",
    "districtName": "Peddapalli",
    "acNumber": 24,
    "acName": "Manthani",
    "partNumber": 132,
    "partName": "Veerapur",
    "lat": 18.6512469,
    "lon": 79.665771
  },
  {
    "partId": 54790,
    "stateCode": "S29",
    "stateName": "Telangana",
    "districtCode": "S2908",
    "districtName": "Peddapalli",
    "acNumber": 24,
    "acName": "Manthani",
    "partNumber": 133,
    "partName": "Nastur Palli",
    "lat": 18.6512469,
    "lon": 79.665771
  },
  {
    "partId": 54791,
    "stateCode": "S29",
    "stateName": "Telangana",
    "districtCode": "S2908",
    "districtName": "Peddapalli",
    "acNumber": 24,
    "acName": "Manthani",
    "partNumber": 134,
    "partName": "Pratapagiri",
    "lat": 18.6512469,
    "lon": 79.665771
  },
  {
    "partId": 54646,
    "stateCode": "S29",
    "stateName": "Telangana",
    "districtCode": "S2908",
    "districtName": "Peddapalli",
    "acNumber": 24,
    "acName": "Manthani",
    "partNumber": 135,
    "partName": "Srinivas Palle",
    "lat": 18.6512469,
    "lon": 79.665771
  },
  {
    "partId": 54647,
    "stateCode": "S29",
    "stateName": "Telangana",
    "districtCode": "S2908",
    "districtName": "Peddapalli",
    "acNumber": 24,
    "acName": "Manthani",
    "partNumber": 136,
    "partName": "Chidnepalli",
    "lat": 18.6512469,
    "lon": 79.665771
  },
  {
    "partId": 54648,
    "stateCode": "S29",
    "stateName": "Telangana",
    "districtCode": "S2908",
    "districtName": "Peddapalli",
    "acNumber": 24,
    "acName": "Manthani",
    "partNumber": 137,
    "partName": "Chintakani",
    "lat": 18.6512469,
    "lon": 79.665771
  },
  {
    "partId": 54792,
    "stateCode": "S29",
    "stateName": "Telangana",
    "districtCode": "S2908",
    "districtName": "Peddapalli",
    "acNumber": 24,
    "acName": "Manthani",
    "partNumber": 138,
    "partName": "Chinthakani",
    "lat": 18.6512469,
    "lon": 79.665771
  },
  {
    "partId": 54793,
    "stateCode": "S29",
    "stateName": "Telangana",
    "districtCode": "S2908",
    "districtName": "Peddapalli",
    "acNumber": 24,
    "acName": "Manthani",
    "partNumber": 139,
    "partName": "Ibraheempalli H/O Potulvayi",
    "lat": 18.6512469,
    "lon": 79.665771
  },
  {
    "partId": 54649,
    "stateCode": "S29",
    "stateName": "Telangana",
    "districtCode": "S2908",
    "districtName": "Peddapalli",
    "acNumber": 24,
    "acName": "Manthani",
    "partNumber": 140,
    "partName": "Bayyaram",
    "lat": 18.6512469,
    "lon": 79.665771
  },
  {
    "partId": 54650,
    "stateCode": "S29",
    "stateName": "Telangana",
    "districtCode": "S2908",
    "districtName": "Peddapalli",
    "acNumber": 24,
    "acName": "Manthani",
    "partNumber": 141,
    "partName": "Bayyaram",
    "lat": 18.6512469,
    "lon": 79.665771
  },
  {
    "partId": 54651,
    "stateCode": "S29",
    "stateName": "Telangana",
    "districtCode": "S2908",
    "districtName": "Peddapalli",
    "acNumber": 24,
    "acName": "Manthani",
    "partNumber": 142,
    "partName": "Ankusapur",
    "lat": 18.6512469,
    "lon": 79.665771
  },
  {
    "partId": 54794,
    "stateCode": "S29",
    "stateName": "Telangana",
    "districtCode": "S2908",
    "districtName": "Peddapalli",
    "acNumber": 24,
    "acName": "Manthani",
    "partNumber": 143,
    "partName": "Medipalli",
    "lat": 18.650118617446044,
    "lon": 79.62546253459755
  },
  {
    "partId": 54652,
    "stateCode": "S29",
    "stateName": "Telangana",
    "districtCode": "S2908",
    "districtName": "Peddapalli",
    "acNumber": 24,
    "acName": "Manthani",
    "partNumber": 144,
    "partName": "Sunderajpet",
    "lat": 18.6512469,
    "lon": 79.665771
  },
  {
    "partId": 54795,
    "stateCode": "S29",
    "stateName": "Telangana",
    "districtCode": "S2908",
    "districtName": "Peddapalli",
    "acNumber": 24,
    "acName": "Manthani",
    "partNumber": 145,
    "partName": "Kothapally",
    "lat": 18.7267211,
    "lon": 79.1717656
  },
  {
    "partId": 54653,
    "stateCode": "S29",
    "stateName": "Telangana",
    "districtCode": "S2908",
    "districtName": "Peddapalli",
    "acNumber": 24,
    "acName": "Manthani",
    "partNumber": 146,
    "partName": "Garepalli",
    "lat": 18.6512469,
    "lon": 79.665771
  },
  {
    "partId": 54796,
    "stateCode": "S29",
    "stateName": "Telangana",
    "districtCode": "S2908",
    "districtName": "Peddapalli",
    "acNumber": 24,
    "acName": "Manthani",
    "partNumber": 147,
    "partName": "Garepalli",
    "lat": 18.6512469,
    "lon": 79.665771
  },
  {
    "partId": 54797,
    "stateCode": "S29",
    "stateName": "Telangana",
    "districtCode": "S2908",
    "districtName": "Peddapalli",
    "acNumber": 24,
    "acName": "Manthani",
    "partNumber": 148,
    "partName": "Garepalli",
    "lat": 18.6512469,
    "lon": 79.665771
  },
  {
    "partId": 54798,
    "stateCode": "S29",
    "stateName": "Telangana",
    "districtCode": "S2908",
    "districtName": "Peddapalli",
    "acNumber": 24,
    "acName": "Manthani",
    "partNumber": 149,
    "partName": "Kataram",
    "lat": 18.6512469,
    "lon": 79.665771
  },
  {
    "partId": 54654,
    "stateCode": "S29",
    "stateName": "Telangana",
    "districtCode": "S2908",
    "districtName": "Peddapalli",
    "acNumber": 24,
    "acName": "Manthani",
    "partNumber": 150,
    "partName": "Kataram",
    "lat": 18.6512469,
    "lon": 79.665771
  },
  {
    "partId": 54655,
    "stateCode": "S29",
    "stateName": "Telangana",
    "districtCode": "S2908",
    "districtName": "Peddapalli",
    "acNumber": 24,
    "acName": "Manthani",
    "partNumber": 151,
    "partName": "Kataram",
    "lat": 18.650118617446044,
    "lon": 79.62546253459755
  },
  {
    "partId": 54656,
    "stateCode": "S29",
    "stateName": "Telangana",
    "districtCode": "S2908",
    "districtName": "Peddapalli",
    "acNumber": 24,
    "acName": "Manthani",
    "partNumber": 152,
    "partName": "Dhanwada",
    "lat": 18.6512469,
    "lon": 79.665771
  },
  {
    "partId": 54657,
    "stateCode": "S29",
    "stateName": "Telangana",
    "districtCode": "S2908",
    "districtName": "Peddapalli",
    "acNumber": 24,
    "acName": "Manthani",
    "partNumber": 153,
    "partName": "Dhanwada",
    "lat": 18.6512469,
    "lon": 79.665771
  },
  {
    "partId": 54799,
    "stateCode": "S29",
    "stateName": "Telangana",
    "districtCode": "S2908",
    "districtName": "Peddapalli",
    "acNumber": 24,
    "acName": "Manthani",
    "partNumber": 154,
    "partName": "Devarampalli",
    "lat": 18.6512469,
    "lon": 79.665771
  },
  {
    "partId": 54800,
    "stateCode": "S29",
    "stateName": "Telangana",
    "districtCode": "S2908",
    "districtName": "Peddapalli",
    "acNumber": 24,
    "acName": "Manthani",
    "partNumber": 155,
    "partName": "Regulagudem",
    "lat": 18.6512469,
    "lon": 79.665771
  },
  {
    "partId": 54801,
    "stateCode": "S29",
    "stateName": "Telangana",
    "districtCode": "S2908",
    "districtName": "Peddapalli",
    "acNumber": 24,
    "acName": "Manthani",
    "partNumber": 156,
    "partName": "Gummallapalli",
    "lat": 18.6512469,
    "lon": 79.665771
  },
  {
    "partId": 54802,
    "stateCode": "S29",
    "stateName": "Telangana",
    "districtCode": "S2908",
    "districtName": "Peddapalli",
    "acNumber": 24,
    "acName": "Manthani",
    "partNumber": 157,
    "partName": "Adivaram Peta",
    "lat": 18.6512469,
    "lon": 79.665771
  },
  {
    "partId": 54658,
    "stateCode": "S29",
    "stateName": "Telangana",
    "districtCode": "S2908",
    "districtName": "Peddapalli",
    "acNumber": 24,
    "acName": "Manthani",
    "partNumber": 158,
    "partName": "Vilasagar",
    "lat": 18.6512469,
    "lon": 79.665771
  },
  {
    "partId": 54659,
    "stateCode": "S29",
    "stateName": "Telangana",
    "districtCode": "S2908",
    "districtName": "Peddapalli",
    "acNumber": 24,
    "acName": "Manthani",
    "partNumber": 159,
    "partName": "Gangaram H/o Vilasagar",
    "lat": 18.6512469,
    "lon": 79.665771
  },
  {
    "partId": 54660,
    "stateCode": "S29",
    "stateName": "Telangana",
    "districtCode": "S2908",
    "districtName": "Peddapalli",
    "acNumber": 24,
    "acName": "Manthani",
    "partNumber": 160,
    "partName": "Gangaram H/o Vilasagar",
    "lat": 18.6512469,
    "lon": 79.665771
  },
  {
    "partId": 54803,
    "stateCode": "S29",
    "stateName": "Telangana",
    "districtCode": "S2908",
    "districtName": "Peddapalli",
    "acNumber": 24,
    "acName": "Manthani",
    "partNumber": 161,
    "partName": "Dharmasagar",
    "lat": 18.6512469,
    "lon": 79.665771
  },
  {
    "partId": 54804,
    "stateCode": "S29",
    "stateName": "Telangana",
    "districtCode": "S2908",
    "districtName": "Peddapalli",
    "acNumber": 24,
    "acName": "Manthani",
    "partNumber": 162,
    "partName": "Damerakunta",
    "lat": 18.6512469,
    "lon": 79.665771
  },
  {
    "partId": 54805,
    "stateCode": "S29",
    "stateName": "Telangana",
    "districtCode": "S2908",
    "districtName": "Peddapalli",
    "acNumber": 24,
    "acName": "Manthani",
    "partNumber": 163,
    "partName": "Damerakunta",
    "lat": 18.6512469,
    "lon": 79.665771
  },
  {
    "partId": 54661,
    "stateCode": "S29",
    "stateName": "Telangana",
    "districtCode": "S2908",
    "districtName": "Peddapalli",
    "acNumber": 24,
    "acName": "Manthani",
    "partNumber": 164,
    "partName": "Palugula",
    "lat": 18.650118617446044,
    "lon": 79.62546253459755
  },
  {
    "partId": 54662,
    "stateCode": "S29",
    "stateName": "Telangana",
    "districtCode": "S2908",
    "districtName": "Peddapalli",
    "acNumber": 24,
    "acName": "Manthani",
    "partNumber": 165,
    "partName": "Maddula Palli",
    "lat": 18.6512469,
    "lon": 79.665771
  },
  {
    "partId": 54663,
    "stateCode": "S29",
    "stateName": "Telangana",
    "districtCode": "S2908",
    "districtName": "Peddapalli",
    "acNumber": 24,
    "acName": "Manthani",
    "partNumber": 166,
    "partName": "Chandrupalli",
    "lat": 18.6512469,
    "lon": 79.665771
  },
  {
    "partId": 54806,
    "stateCode": "S29",
    "stateName": "Telangana",
    "districtCode": "S2908",
    "districtName": "Peddapalli",
    "acNumber": 24,
    "acName": "Manthani",
    "partNumber": 167,
    "partName": "Annaram",
    "lat": 18.7195803,
    "lon": 79.6292934
  },
  {
    "partId": 54807,
    "stateCode": "S29",
    "stateName": "Telangana",
    "districtCode": "S2908",
    "districtName": "Peddapalli",
    "acNumber": 24,
    "acName": "Manthani",
    "partNumber": 168,
    "partName": "Annaram",
    "lat": 18.7195803,
    "lon": 79.6292934
  },
  {
    "partId": 54808,
    "stateCode": "S29",
    "stateName": "Telangana",
    "districtCode": "S2908",
    "districtName": "Peddapalli",
    "acNumber": 24,
    "acName": "Manthani",
    "partNumber": 169,
    "partName": "Kaleshwaram",
    "lat": 18.7200471,
    "lon": 79.6127451
  },
  {
    "partId": 54664,
    "stateCode": "S29",
    "stateName": "Telangana",
    "districtCode": "S2908",
    "districtName": "Peddapalli",
    "acNumber": 24,
    "acName": "Manthani",
    "partNumber": 170,
    "partName": "Kaleshwaram",
    "lat": 18.7200471,
    "lon": 79.6127451
  },
  {
    "partId": 54665,
    "stateCode": "S29",
    "stateName": "Telangana",
    "districtCode": "S2908",
    "districtName": "Peddapalli",
    "acNumber": 24,
    "acName": "Manthani",
    "partNumber": 171,
    "partName": "Metpalli And Beersagar",
    "lat": 18.6512469,
    "lon": 79.665771
  },
  {
    "partId": 54666,
    "stateCode": "S29",
    "stateName": "Telangana",
    "districtCode": "S2908",
    "districtName": "Peddapalli",
    "acNumber": 24,
    "acName": "Manthani",
    "partNumber": 172,
    "partName": "Majeedpalli",
    "lat": 18.6512469,
    "lon": 79.665771
  },
  {
    "partId": 54809,
    "stateCode": "S29",
    "stateName": "Telangana",
    "districtCode": "S2908",
    "districtName": "Peddapalli",
    "acNumber": 24,
    "acName": "Manthani",
    "partNumber": 173,
    "partName": "Kudurupalli",
    "lat": 18.6512469,
    "lon": 79.665771
  },
  {
    "partId": 54810,
    "stateCode": "S29",
    "stateName": "Telangana",
    "districtCode": "S2908",
    "districtName": "Peddapalli",
    "acNumber": 24,
    "acName": "Manthani",
    "partNumber": 174,
    "partName": "Edapally",
    "lat": 18.6512469,
    "lon": 79.665771
  },
  {
    "partId": 54811,
    "stateCode": "S29",
    "stateName": "Telangana",
    "districtCode": "S2908",
    "districtName": "Peddapalli",
    "acNumber": 24,
    "acName": "Manthani",
    "partNumber": 175,
    "partName": "Mahadevpur",
    "lat": 18.6512469,
    "lon": 79.665771
  },
  {
    "partId": 54667,
    "stateCode": "S29",
    "stateName": "Telangana",
    "districtCode": "S2908",
    "districtName": "Peddapalli",
    "acNumber": 24,
    "acName": "Manthani",
    "partNumber": 176,
    "partName": "Mahadevpur",
    "lat": 18.6512469,
    "lon": 79.665771
  },
  {
    "partId": 54668,
    "stateCode": "S29",
    "stateName": "Telangana",
    "districtCode": "S2908",
    "districtName": "Peddapalli",
    "acNumber": 24,
    "acName": "Manthani",
    "partNumber": 177,
    "partName": "Mahadevpur",
    "lat": 18.6512469,
    "lon": 79.665771
  },
  {
    "partId": 54669,
    "stateCode": "S29",
    "stateName": "Telangana",
    "districtCode": "S2908",
    "districtName": "Peddapalli",
    "acNumber": 24,
    "acName": "Manthani",
    "partNumber": 178,
    "partName": "Mahadevpur",
    "lat": 18.650118617446044,
    "lon": 79.62546253459755
  },
  {
    "partId": 54812,
    "stateCode": "S29",
    "stateName": "Telangana",
    "districtCode": "S2908",
    "districtName": "Peddapalli",
    "acNumber": 24,
    "acName": "Manthani",
    "partNumber": 179,
    "partName": "Mahadevpur",
    "lat": 18.6512469,
    "lon": 79.665771
  },
  {
    "partId": 54813,
    "stateCode": "S29",
    "stateName": "Telangana",
    "districtCode": "S2908",
    "districtName": "Peddapalli",
    "acNumber": 24,
    "acName": "Manthani",
    "partNumber": 180,
    "partName": "Mahadevpur",
    "lat": 18.6512469,
    "lon": 79.665771
  },
  {
    "partId": 54814,
    "stateCode": "S29",
    "stateName": "Telangana",
    "districtCode": "S2908",
    "districtName": "Peddapalli",
    "acNumber": 24,
    "acName": "Manthani",
    "partNumber": 181,
    "partName": "Mahadevpur",
    "lat": 18.6512469,
    "lon": 79.665771
  },
  {
    "partId": 54670,
    "stateCode": "S29",
    "stateName": "Telangana",
    "districtCode": "S2908",
    "districtName": "Peddapalli",
    "acNumber": 24,
    "acName": "Manthani",
    "partNumber": 182,
    "partName": "Brahmanapalli",
    "lat": 18.8035843,
    "lon": 79.3830071
  },
  {
    "partId": 54671,
    "stateCode": "S29",
    "stateName": "Telangana",
    "districtCode": "S2908",
    "districtName": "Peddapalli",
    "acNumber": 24,
    "acName": "Manthani",
    "partNumber": 183,
    "partName": "Bommapur",
    "lat": 18.6512469,
    "lon": 79.665771
  },
  {
    "partId": 54672,
    "stateCode": "S29",
    "stateName": "Telangana",
    "districtCode": "S2908",
    "districtName": "Peddapalli",
    "acNumber": 24,
    "acName": "Manthani",
    "partNumber": 184,
    "partName": "Bommapur",
    "lat": 18.6512469,
    "lon": 79.665771
  },
  {
    "partId": 54673,
    "stateCode": "S29",
    "stateName": "Telangana",
    "districtCode": "S2908",
    "districtName": "Peddapalli",
    "acNumber": 24,
    "acName": "Manthani",
    "partNumber": 185,
    "partName": "Elkeshwaram",
    "lat": 18.6512469,
    "lon": 79.665771
  },
  {
    "partId": 54815,
    "stateCode": "S29",
    "stateName": "Telangana",
    "districtCode": "S2908",
    "districtName": "Peddapalli",
    "acNumber": 24,
    "acName": "Manthani",
    "partNumber": 186,
    "partName": "Beglur",
    "lat": 18.6512469,
    "lon": 79.665771
  },
  {
    "partId": 54816,
    "stateCode": "S29",
    "stateName": "Telangana",
    "districtCode": "S2908",
    "districtName": "Peddapalli",
    "acNumber": 24,
    "acName": "Manthani",
    "partNumber": 187,
    "partName": "Beglur",
    "lat": 18.6512469,
    "lon": 79.665771
  },
  {
    "partId": 54817,
    "stateCode": "S29",
    "stateName": "Telangana",
    "districtCode": "S2908",
    "districtName": "Peddapalli",
    "acNumber": 24,
    "acName": "Manthani",
    "partNumber": 188,
    "partName": "Suraram",
    "lat": 18.6512469,
    "lon": 79.665771
  },
  {
    "partId": 54818,
    "stateCode": "S29",
    "stateName": "Telangana",
    "districtCode": "S2908",
    "districtName": "Peddapalli",
    "acNumber": 24,
    "acName": "Manthani",
    "partNumber": 189,
    "partName": "Suraram",
    "lat": 18.6512469,
    "lon": 79.665771
  },
  {
    "partId": 54674,
    "stateCode": "S29",
    "stateName": "Telangana",
    "districtCode": "S2908",
    "districtName": "Peddapalli",
    "acNumber": 24,
    "acName": "Manthani",
    "partNumber": 190,
    "partName": "Suraram",
    "lat": 18.650118617446044,
    "lon": 79.62546253459755
  },
  {
    "partId": 54675,
    "stateCode": "S29",
    "stateName": "Telangana",
    "districtCode": "S2908",
    "districtName": "Peddapalli",
    "acNumber": 24,
    "acName": "Manthani",
    "partNumber": 191,
    "partName": "Suraram",
    "lat": 18.6512469,
    "lon": 79.665771
  },
  {
    "partId": 54676,
    "stateCode": "S29",
    "stateName": "Telangana",
    "districtCode": "S2908",
    "districtName": "Peddapalli",
    "acNumber": 24,
    "acName": "Manthani",
    "partNumber": 192,
    "partName": "Enakepalli",
    "lat": 18.6512469,
    "lon": 79.665771
  },
  {
    "partId": 54819,
    "stateCode": "S29",
    "stateName": "Telangana",
    "districtCode": "S2908",
    "districtName": "Peddapalli",
    "acNumber": 24,
    "acName": "Manthani",
    "partNumber": 193,
    "partName": "Rapelli Kota",
    "lat": 18.6512469,
    "lon": 79.665771
  },
  {
    "partId": 54820,
    "stateCode": "S29",
    "stateName": "Telangana",
    "districtCode": "S2908",
    "districtName": "Peddapalli",
    "acNumber": 24,
    "acName": "Manthani",
    "partNumber": 194,
    "partName": "Ambatpalli",
    "lat": 18.6512469,
    "lon": 79.665771
  },
  {
    "partId": 54821,
    "stateCode": "S29",
    "stateName": "Telangana",
    "districtCode": "S2908",
    "districtName": "Peddapalli",
    "acNumber": 24,
    "acName": "Manthani",
    "partNumber": 195,
    "partName": "Ambatpalli",
    "lat": 18.6512469,
    "lon": 79.665771
  },
  {
    "partId": 54677,
    "stateCode": "S29",
    "stateName": "Telangana",
    "districtCode": "S2908",
    "districtName": "Peddapalli",
    "acNumber": 24,
    "acName": "Manthani",
    "partNumber": 196,
    "partName": "Peddampeta",
    "lat": 18.7986131,
    "lon": 79.4329873
  },
  {
    "partId": 54678,
    "stateCode": "S29",
    "stateName": "Telangana",
    "districtCode": "S2908",
    "districtName": "Peddapalli",
    "acNumber": 24,
    "acName": "Manthani",
    "partNumber": 197,
    "partName": "Medigadda",
    "lat": 18.6512469,
    "lon": 79.665771
  },
  {
    "partId": 54822,
    "stateCode": "S29",
    "stateName": "Telangana",
    "districtCode": "S2908",
    "districtName": "Peddapalli",
    "acNumber": 24,
    "acName": "Manthani",
    "partNumber": 198,
    "partName": "Pankena",
    "lat": 18.6512469,
    "lon": 79.665771
  },
  {
    "partId": 54823,
    "stateCode": "S29",
    "stateName": "Telangana",
    "districtCode": "S2908",
    "districtName": "Peddapalli",
    "acNumber": 24,
    "acName": "Manthani",
    "partNumber": 199,
    "partName": "Moded",
    "lat": 18.650118617446044,
    "lon": 79.62546253459755
  },
  {
    "partId": 54824,
    "stateCode": "S29",
    "stateName": "Telangana",
    "districtCode": "S2908",
    "districtName": "Peddapalli",
    "acNumber": 24,
    "acName": "Manthani",
    "partNumber": 200,
    "partName": "Lenkalagadda",
    "lat": 18.6512469,
    "lon": 79.665771
  },
  {
    "partId": 54679,
    "stateCode": "S29",
    "stateName": "Telangana",
    "districtCode": "S2908",
    "districtName": "Peddapalli",
    "acNumber": 24,
    "acName": "Manthani",
    "partNumber": 201,
    "partName": "Palimela",
    "lat": 18.6512469,
    "lon": 79.665771
  },
  {
    "partId": 54825,
    "stateCode": "S29",
    "stateName": "Telangana",
    "districtCode": "S2908",
    "districtName": "Peddapalli",
    "acNumber": 24,
    "acName": "Manthani",
    "partNumber": 202,
    "partName": "Palimela",
    "lat": 18.6512469,
    "lon": 79.665771
  },
  {
    "partId": 54680,
    "stateCode": "S29",
    "stateName": "Telangana",
    "districtCode": "S2908",
    "districtName": "Peddapalli",
    "acNumber": 24,
    "acName": "Manthani",
    "partNumber": 203,
    "partName": "Kamanpalli",
    "lat": 18.6512469,
    "lon": 79.665771
  },
  {
    "partId": 54826,
    "stateCode": "S29",
    "stateName": "Telangana",
    "districtCode": "S2908",
    "districtName": "Peddapalli",
    "acNumber": 24,
    "acName": "Manthani",
    "partNumber": 204,
    "partName": "Sarvaipeta",
    "lat": 18.6512469,
    "lon": 79.665771
  },
  {
    "partId": 54681,
    "stateCode": "S29",
    "stateName": "Telangana",
    "districtCode": "S2908",
    "districtName": "Peddapalli",
    "acNumber": 24,
    "acName": "Manthani",
    "partNumber": 205,
    "partName": "Neelampalli",
    "lat": 18.650118617446044,
    "lon": 79.62546253459755
  },
  {
    "partId": 54682,
    "stateCode": "S29",
    "stateName": "Telangana",
    "districtCode": "S2908",
    "districtName": "Peddapalli",
    "acNumber": 24,
    "acName": "Manthani",
    "partNumber": 206,
    "partName": "Dhammuru",
    "lat": 18.6512469,
    "lon": 79.665771
  },
  {
    "partId": 54683,
    "stateCode": "S29",
    "stateName": "Telangana",
    "districtCode": "S2908",
    "districtName": "Peddapalli",
    "acNumber": 24,
    "acName": "Manthani",
    "partNumber": 207,
    "partName": "Thimmetigudem",
    "lat": 18.6512469,
    "lon": 79.665771
  },
  {
    "partId": 54827,
    "stateCode": "S29",
    "stateName": "Telangana",
    "districtCode": "S2908",
    "districtName": "Peddapalli",
    "acNumber": 24,
    "acName": "Manthani",
    "partNumber": 208,
    "partName": "Mukunoor",
    "lat": 18.6512469,
    "lon": 79.665771
  },
  {
    "partId": 54828,
    "stateCode": "S29",
    "stateName": "Telangana",
    "districtCode": "S2908",
    "districtName": "Peddapalli",
    "acNumber": 24,
    "acName": "Manthani",
    "partNumber": 209,
    "partName": "Jeelapalli",
    "lat": 18.6512469,
    "lon": 79.665771
  },
  {
    "partId": 54829,
    "stateCode": "S29",
    "stateName": "Telangana",
    "districtCode": "S2908",
    "districtName": "Peddapalli",
    "acNumber": 24,
    "acName": "Manthani",
    "partNumber": 210,
    "partName": "Nimmagudem",
    "lat": 18.6512469,
    "lon": 79.665771
  },
  {
    "partId": 54684,
    "stateCode": "S29",
    "stateName": "Telangana",
    "districtCode": "S2908",
    "districtName": "Peddapalli",
    "acNumber": 24,
    "acName": "Manthani",
    "partNumber": 211,
    "partName": "Yathnaram",
    "lat": 18.6512469,
    "lon": 79.665771
  },
  {
    "partId": 54685,
    "stateCode": "S29",
    "stateName": "Telangana",
    "districtCode": "S2908",
    "districtName": "Peddapalli",
    "acNumber": 24,
    "acName": "Manthani",
    "partNumber": 212,
    "partName": "Kanukunuru",
    "lat": 18.6512469,
    "lon": 79.665771
  },
  {
    "partId": 54686,
    "stateCode": "S29",
    "stateName": "Telangana",
    "districtCode": "S2908",
    "districtName": "Peddapalli",
    "acNumber": 24,
    "acName": "Manthani",
    "partNumber": 213,
    "partName": "Singampalli",
    "lat": 18.6512469,
    "lon": 79.665771
  },
  {
    "partId": 54687,
    "stateCode": "S29",
    "stateName": "Telangana",
    "districtCode": "S2908",
    "districtName": "Peddapalli",
    "acNumber": 24,
    "acName": "Manthani",
    "partNumber": 214,
    "partName": "Borlagudem",
    "lat": 18.6512469,
    "lon": 79.665771
  },
  {
    "partId": 54830,
    "stateCode": "S29",
    "stateName": "Telangana",
    "districtCode": "S2908",
    "districtName": "Peddapalli",
    "acNumber": 24,
    "acName": "Manthani",
    "partNumber": 215,
    "partName": "Reddypalli",
    "lat": 18.650118617446044,
    "lon": 79.62546253459755
  },
  {
    "partId": 54831,
    "stateCode": "S29",
    "stateName": "Telangana",
    "districtCode": "S2908",
    "districtName": "Peddapalli",
    "acNumber": 24,
    "acName": "Manthani",
    "partNumber": 216,
    "partName": "Stambampalli PK",
    "lat": 18.6512469,
    "lon": 79.665771
  },
  {
    "partId": 54832,
    "stateCode": "S29",
    "stateName": "Telangana",
    "districtCode": "S2908",
    "districtName": "Peddapalli",
    "acNumber": 24,
    "acName": "Manthani",
    "partNumber": 217,
    "partName": "Singaram",
    "lat": 18.6512469,
    "lon": 79.665771
  },
  {
    "partId": 54688,
    "stateCode": "S29",
    "stateName": "Telangana",
    "districtCode": "S2908",
    "districtName": "Peddapalli",
    "acNumber": 24,
    "acName": "Manthani",
    "partNumber": 218,
    "partName": "Gandi Kamaram",
    "lat": 18.6512469,
    "lon": 79.665771
  },
  {
    "partId": 54689,
    "stateCode": "S29",
    "stateName": "Telangana",
    "districtCode": "S2908",
    "districtName": "Peddapalli",
    "acNumber": 24,
    "acName": "Manthani",
    "partNumber": 219,
    "partName": "Regulagudem",
    "lat": 18.6512469,
    "lon": 79.665771
  },
  {
    "partId": 54690,
    "stateCode": "S29",
    "stateName": "Telangana",
    "districtCode": "S2908",
    "districtName": "Peddapalli",
    "acNumber": 24,
    "acName": "Manthani",
    "partNumber": 220,
    "partName": "Borla Gudem",
    "lat": 18.6512469,
    "lon": 79.665771
  },
  {
    "partId": 54833,
    "stateCode": "S29",
    "stateName": "Telangana",
    "districtCode": "S2908",
    "districtName": "Peddapalli",
    "acNumber": 24,
    "acName": "Manthani",
    "partNumber": 221,
    "partName": "Pegadapalli",
    "lat": 18.6512469,
    "lon": 79.665771
  },
  {
    "partId": 54691,
    "stateCode": "S29",
    "stateName": "Telangana",
    "districtCode": "S2908",
    "districtName": "Peddapalli",
    "acNumber": 24,
    "acName": "Manthani",
    "partNumber": 222,
    "partName": "Nallagunta Meenajipeta",
    "lat": 18.6512469,
    "lon": 79.665771
  },
  {
    "partId": 54834,
    "stateCode": "S29",
    "stateName": "Telangana",
    "districtCode": "S2908",
    "districtName": "Peddapalli",
    "acNumber": 24,
    "acName": "Manthani",
    "partNumber": 223,
    "partName": "Narsingapur",
    "lat": 18.6964768,
    "lon": 79.1271071
  },
  {
    "partId": 54692,
    "stateCode": "S29",
    "stateName": "Telangana",
    "districtCode": "S2908",
    "districtName": "Peddapalli",
    "acNumber": 24,
    "acName": "Manthani",
    "partNumber": 224,
    "partName": "Yaman Palli",
    "lat": 18.6512469,
    "lon": 79.665771
  },
  {
    "partId": 54835,
    "stateCode": "S29",
    "stateName": "Telangana",
    "districtCode": "S2908",
    "districtName": "Peddapalli",
    "acNumber": 24,
    "acName": "Manthani",
    "partNumber": 225,
    "partName": "Maha Mutharam",
    "lat": 18.6512469,
    "lon": 79.665771
  },
  {
    "partId": 54836,
    "stateCode": "S29",
    "stateName": "Telangana",
    "districtCode": "S2908",
    "districtName": "Peddapalli",
    "acNumber": 24,
    "acName": "Manthani",
    "partNumber": 226,
    "partName": "Maha Mutharam",
    "lat": 18.6512469,
    "lon": 79.665771
  },
  {
    "partId": 54837,
    "stateCode": "S29",
    "stateName": "Telangana",
    "districtCode": "S2908",
    "districtName": "Peddapalli",
    "acNumber": 24,
    "acName": "Manthani",
    "partNumber": 227,
    "partName": "Dobbalapad, Douthupalli",
    "lat": 18.6512469,
    "lon": 79.665771
  },
  {
    "partId": 54693,
    "stateCode": "S29",
    "stateName": "Telangana",
    "districtCode": "S2908",
    "districtName": "Peddapalli",
    "acNumber": 24,
    "acName": "Manthani",
    "partNumber": 228,
    "partName": "New Maha Mutharam",
    "lat": 18.6512469,
    "lon": 79.665771
  },
  {
    "partId": 54694,
    "stateCode": "S29",
    "stateName": "Telangana",
    "districtCode": "S2908",
    "districtName": "Peddapalli",
    "acNumber": 24,
    "acName": "Manthani",
    "partNumber": 229,
    "partName": "Polaram",
    "lat": 18.6512469,
    "lon": 79.665771
  },
  {
    "partId": 54838,
    "stateCode": "S29",
    "stateName": "Telangana",
    "districtCode": "S2908",
    "districtName": "Peddapalli",
    "acNumber": 24,
    "acName": "Manthani",
    "partNumber": 230,
    "partName": "Stambampalli PP",
    "lat": 18.6512469,
    "lon": 79.665771
  },
  {
    "partId": 54839,
    "stateCode": "S29",
    "stateName": "Telangana",
    "districtCode": "S2908",
    "districtName": "Peddapalli",
    "acNumber": 24,
    "acName": "Manthani",
    "partNumber": 231,
    "partName": "Vajjenapally",
    "lat": 18.650118617446044,
    "lon": 79.62546253459755
  },
  {
    "partId": 54840,
    "stateCode": "S29",
    "stateName": "Telangana",
    "districtCode": "S2908",
    "districtName": "Peddapalli",
    "acNumber": 24,
    "acName": "Manthani",
    "partNumber": 232,
    "partName": "Mulugupalli",
    "lat": 18.6512469,
    "lon": 79.665771
  },
  {
    "partId": 54695,
    "stateCode": "S29",
    "stateName": "Telangana",
    "districtCode": "S2908",
    "districtName": "Peddapalli",
    "acNumber": 24,
    "acName": "Manthani",
    "partNumber": 233,
    "partName": "Mulugupalli",
    "lat": 18.6512469,
    "lon": 79.665771
  },
  {
    "partId": 54841,
    "stateCode": "S29",
    "stateName": "Telangana",
    "districtCode": "S2908",
    "districtName": "Peddapalli",
    "acNumber": 24,
    "acName": "Manthani",
    "partNumber": 234,
    "partName": "Madaram",
    "lat": 18.7255006,
    "lon": 79.2196893
  },
  {
    "partId": 54696,
    "stateCode": "S29",
    "stateName": "Telangana",
    "districtCode": "S2908",
    "districtName": "Peddapalli",
    "acNumber": 24,
    "acName": "Manthani",
    "partNumber": 235,
    "partName": "Korlakunta",
    "lat": 18.6512469,
    "lon": 79.665771
  },
  {
    "partId": 54842,
    "stateCode": "S29",
    "stateName": "Telangana",
    "districtCode": "S2908",
    "districtName": "Peddapalli",
    "acNumber": 24,
    "acName": "Manthani",
    "partNumber": 236,
    "partName": "Kondampet",
    "lat": 18.6512469,
    "lon": 79.665771
  },
  {
    "partId": 54869,
    "stateCode": "S29",
    "stateName": "Telangana",
    "districtCode": "S2908",
    "districtName": "Peddapalli",
    "acNumber": 24,
    "acName": "Manthani",
    "partNumber": 237,
    "partName": "Ippalapalli",
    "lat": 18.6512469,
    "lon": 79.665771
  },
  {
    "partId": 54697,
    "stateCode": "S29",
    "stateName": "Telangana",
    "districtCode": "S2908",
    "districtName": "Peddapalli",
    "acNumber": 24,
    "acName": "Manthani",
    "partNumber": 238,
    "partName": "Yedlapalli",
    "lat": 18.6512469,
    "lon": 79.665771
  },
  {
    "partId": 54698,
    "stateCode": "S29",
    "stateName": "Telangana",
    "districtCode": "S2908",
    "districtName": "Peddapalli",
    "acNumber": 24,
    "acName": "Manthani",
    "partNumber": 239,
    "partName": "Rudraram",
    "lat": 18.6512469,
    "lon": 79.665771
  },
  {
    "partId": 54699,
    "stateCode": "S29",
    "stateName": "Telangana",
    "districtCode": "S2908",
    "districtName": "Peddapalli",
    "acNumber": 24,
    "acName": "Manthani",
    "partNumber": 240,
    "partName": "Old Rudraram",
    "lat": 18.6512469,
    "lon": 79.665771
  },
  {
    "partId": 54843,
    "stateCode": "S29",
    "stateName": "Telangana",
    "districtCode": "S2908",
    "districtName": "Peddapalli",
    "acNumber": 24,
    "acName": "Manthani",
    "partNumber": 241,
    "partName": "Rudraram",
    "lat": 18.6512469,
    "lon": 79.665771
  },
  {
    "partId": 54844,
    "stateCode": "S29",
    "stateName": "Telangana",
    "districtCode": "S2908",
    "districtName": "Peddapalli",
    "acNumber": 24,
    "acName": "Manthani",
    "partNumber": 242,
    "partName": "Ansanpally",
    "lat": 18.6512469,
    "lon": 79.665771
  },
  {
    "partId": 54845,
    "stateCode": "S29",
    "stateName": "Telangana",
    "districtCode": "S2908",
    "districtName": "Peddapalli",
    "acNumber": 24,
    "acName": "Manthani",
    "partNumber": 243,
    "partName": "Nacharam",
    "lat": 18.6512469,
    "lon": 79.665771
  },
  {
    "partId": 54700,
    "stateCode": "S29",
    "stateName": "Telangana",
    "districtCode": "S2908",
    "districtName": "Peddapalli",
    "acNumber": 24,
    "acName": "Manthani",
    "partNumber": 244,
    "partName": "Mallampalli",
    "lat": 18.6512469,
    "lon": 79.665771
  },
  {
    "partId": 54701,
    "stateCode": "S29",
    "stateName": "Telangana",
    "districtCode": "S2908",
    "districtName": "Peddapalli",
    "acNumber": 24,
    "acName": "Manthani",
    "partNumber": 245,
    "partName": "Pedda Tundla",
    "lat": 18.6512469,
    "lon": 79.665771
  },
  {
    "partId": 54702,
    "stateCode": "S29",
    "stateName": "Telangana",
    "districtCode": "S2908",
    "districtName": "Peddapalli",
    "acNumber": 24,
    "acName": "Manthani",
    "partNumber": 246,
    "partName": "Gadampalli H/o.Peddatundla",
    "lat": 18.6512469,
    "lon": 79.665771
  },
  {
    "partId": 54703,
    "stateCode": "S29",
    "stateName": "Telangana",
    "districtCode": "S2908",
    "districtName": "Peddapalli",
    "acNumber": 24,
    "acName": "Manthani",
    "partNumber": 247,
    "partName": "Gadampalli H/o.Peddatundla",
    "lat": 18.6512469,
    "lon": 79.665771
  },
  {
    "partId": 54704,
    "stateCode": "S29",
    "stateName": "Telangana",
    "districtCode": "S2908",
    "districtName": "Peddapalli",
    "acNumber": 24,
    "acName": "Manthani",
    "partNumber": 248,
    "partName": "Tadicherla",
    "lat": 18.6512469,
    "lon": 79.665771
  },
  {
    "partId": 54846,
    "stateCode": "S29",
    "stateName": "Telangana",
    "districtCode": "S2908",
    "districtName": "Peddapalli",
    "acNumber": 24,
    "acName": "Manthani",
    "partNumber": 249,
    "partName": "Tadicherla",
    "lat": 18.6512469,
    "lon": 79.665771
  },
  {
    "partId": 54847,
    "stateCode": "S29",
    "stateName": "Telangana",
    "districtCode": "S2908",
    "districtName": "Peddapalli",
    "acNumber": 24,
    "acName": "Manthani",
    "partNumber": 250,
    "partName": "Tadicherla",
    "lat": 18.6512469,
    "lon": 79.665771
  },
  {
    "partId": 54848,
    "stateCode": "S29",
    "stateName": "Telangana",
    "districtCode": "S2908",
    "districtName": "Peddapalli",
    "acNumber": 24,
    "acName": "Manthani",
    "partNumber": 251,
    "partName": "Tadicherla",
    "lat": 18.6512469,
    "lon": 79.665771
  },
  {
    "partId": 54705,
    "stateCode": "S29",
    "stateName": "Telangana",
    "districtCode": "S2908",
    "districtName": "Peddapalli",
    "acNumber": 24,
    "acName": "Manthani",
    "partNumber": 252,
    "partName": "Tadicherla",
    "lat": 18.6512469,
    "lon": 79.665771
  },
  {
    "partId": 54706,
    "stateCode": "S29",
    "stateName": "Telangana",
    "districtCode": "S2908",
    "districtName": "Peddapalli",
    "acNumber": 24,
    "acName": "Manthani",
    "partNumber": 253,
    "partName": "Mallaram",
    "lat": 18.676691,
    "lon": 79.8100864
  },
  {
    "partId": 54707,
    "stateCode": "S29",
    "stateName": "Telangana",
    "districtCode": "S2908",
    "districtName": "Peddapalli",
    "acNumber": 24,
    "acName": "Manthani",
    "partNumber": 254,
    "partName": "Mallaram",
    "lat": 18.676691,
    "lon": 79.8100864
  },
  {
    "partId": 54849,
    "stateCode": "S29",
    "stateName": "Telangana",
    "districtCode": "S2908",
    "districtName": "Peddapalli",
    "acNumber": 24,
    "acName": "Manthani",
    "partNumber": 255,
    "partName": "Chinnathundla",
    "lat": 18.6512469,
    "lon": 79.665771
  },
  {
    "partId": 54870,
    "stateCode": "S29",
    "stateName": "Telangana",
    "districtCode": "S2908",
    "districtName": "Peddapalli",
    "acNumber": 24,
    "acName": "Manthani",
    "partNumber": 256,
    "partName": "Dubbapeta",
    "lat": 18.6512469,
    "lon": 79.665771
  },
  {
    "partId": 54850,
    "stateCode": "S29",
    "stateName": "Telangana",
    "districtCode": "S2908",
    "districtName": "Peddapalli",
    "acNumber": 24,
    "acName": "Manthani",
    "partNumber": 257,
    "partName": "Koyyuru",
    "lat": 18.6512469,
    "lon": 79.665771
  },
  {
    "partId": 54851,
    "stateCode": "S29",
    "stateName": "Telangana",
    "districtCode": "S2908",
    "districtName": "Peddapalli",
    "acNumber": 24,
    "acName": "Manthani",
    "partNumber": 258,
    "partName": "Vallamkunta",
    "lat": 18.6512469,
    "lon": 79.665771
  },
  {
    "partId": 54708,
    "stateCode": "S29",
    "stateName": "Telangana",
    "districtCode": "S2908",
    "districtName": "Peddapalli",
    "acNumber": 24,
    "acName": "Manthani",
    "partNumber": 259,
    "partName": "Vallamkunta",
    "lat": 18.650118617446044,
    "lon": 79.62546253459755
  },
  {
    "partId": 54709,
    "stateCode": "S29",
    "stateName": "Telangana",
    "districtCode": "S2908",
    "districtName": "Peddapalli",
    "acNumber": 24,
    "acName": "Manthani",
    "partNumber": 260,
    "partName": "Seethampeta  H/o Ippalapalli",
    "lat": 18.6512469,
    "lon": 79.665771
  },
  {
    "partId": 54852,
    "stateCode": "S29",
    "stateName": "Telangana",
    "districtCode": "S2908",
    "districtName": "Peddapalli",
    "acNumber": 24,
    "acName": "Manthani",
    "partNumber": 261,
    "partName": "Ramakrishnapur  H/o.Ippalapalli",
    "lat": 18.6512469,
    "lon": 79.665771
  },
  {
    "partId": 54853,
    "stateCode": "S29",
    "stateName": "Telangana",
    "districtCode": "S2908",
    "districtName": "Peddapalli",
    "acNumber": 24,
    "acName": "Manthani",
    "partNumber": 262,
    "partName": "Khammampalli",
    "lat": 18.6512469,
    "lon": 79.665771
  },
  {
    "partId": 54854,
    "stateCode": "S29",
    "stateName": "Telangana",
    "districtCode": "S2908",
    "districtName": "Peddapalli",
    "acNumber": 24,
    "acName": "Manthani",
    "partNumber": 263,
    "partName": "Khammampalli",
    "lat": 18.6512469,
    "lon": 79.665771
  },
  {
    "partId": 54710,
    "stateCode": "S29",
    "stateName": "Telangana",
    "districtCode": "S2908",
    "districtName": "Peddapalli",
    "acNumber": 24,
    "acName": "Manthani",
    "partNumber": 264,
    "partName": "Khammampalli",
    "lat": 18.6512469,
    "lon": 79.665771
  },
  {
    "partId": 54855,
    "stateCode": "S29",
    "stateName": "Telangana",
    "districtCode": "S2908",
    "districtName": "Peddapalli",
    "acNumber": 24,
    "acName": "Manthani",
    "partNumber": 265,
    "partName": "Adavi Srirampur",
    "lat": 18.6512469,
    "lon": 79.665771
  },
  {
    "partId": 54711,
    "stateCode": "S29",
    "stateName": "Telangana",
    "districtCode": "S2908",
    "districtName": "Peddapalli",
    "acNumber": 24,
    "acName": "Manthani",
    "partNumber": 266,
    "partName": "Adavisrirampur",
    "lat": 18.6512469,
    "lon": 79.665771
  },
  {
    "partId": 54856,
    "stateCode": "S29",
    "stateName": "Telangana",
    "districtCode": "S2908",
    "districtName": "Peddapalli",
    "acNumber": 24,
    "acName": "Manthani",
    "partNumber": 267,
    "partName": "Adavisrirampur",
    "lat": 18.6512469,
    "lon": 79.665771
  },
  {
    "partId": 54712,
    "stateCode": "S29",
    "stateName": "Telangana",
    "districtCode": "S2908",
    "districtName": "Peddapalli",
    "acNumber": 24,
    "acName": "Manthani",
    "partNumber": 268,
    "partName": "Odedu",
    "lat": 18.4829461,
    "lon": 79.6424549
  },
  {
    "partId": 54857,
    "stateCode": "S29",
    "stateName": "Telangana",
    "districtCode": "S2908",
    "districtName": "Peddapalli",
    "acNumber": 24,
    "acName": "Manthani",
    "partNumber": 269,
    "partName": "Odedu",
    "lat": 18.4829461,
    "lon": 79.6424549
  },
  {
    "partId": 54713,
    "stateCode": "S29",
    "stateName": "Telangana",
    "districtCode": "S2908",
    "districtName": "Peddapalli",
    "acNumber": 24,
    "acName": "Manthani",
    "partNumber": 270,
    "partName": "Odedu",
    "lat": 18.4829461,
    "lon": 79.6424549
  },
  {
    "partId": 54858,
    "stateCode": "S29",
    "stateName": "Telangana",
    "districtCode": "S2908",
    "districtName": "Peddapalli",
    "acNumber": 24,
    "acName": "Manthani",
    "partNumber": 271,
    "partName": "Mutharam",
    "lat": 18.5133917,
    "lon": 79.6229228
  },
  {
    "partId": 54714,
    "stateCode": "S29",
    "stateName": "Telangana",
    "districtCode": "S2908",
    "districtName": "Peddapalli",
    "acNumber": 24,
    "acName": "Manthani",
    "partNumber": 272,
    "partName": "Mutharam",
    "lat": 18.5133917,
    "lon": 79.6229228
  },
  {
    "partId": 54715,
    "stateCode": "S29",
    "stateName": "Telangana",
    "districtCode": "S2908",
    "districtName": "Peddapalli",
    "acNumber": 24,
    "acName": "Manthani",
    "partNumber": 273,
    "partName": "Mutharam",
    "lat": 18.5133917,
    "lon": 79.6229228
  },
  {
    "partId": 54716,
    "stateCode": "S29",
    "stateName": "Telangana",
    "districtCode": "S2908",
    "districtName": "Peddapalli",
    "acNumber": 24,
    "acName": "Manthani",
    "partNumber": 274,
    "partName": "Mutharam",
    "lat": 18.5133917,
    "lon": 79.6229228
  },
  {
    "partId": 54859,
    "stateCode": "S29",
    "stateName": "Telangana",
    "districtCode": "S2908",
    "districtName": "Peddapalli",
    "acNumber": 24,
    "acName": "Manthani",
    "partNumber": 275,
    "partName": "Keshanapalli",
    "lat": 18.6512469,
    "lon": 79.665771
  },
  {
    "partId": 54860,
    "stateCode": "S29",
    "stateName": "Telangana",
    "districtCode": "S2908",
    "districtName": "Peddapalli",
    "acNumber": 24,
    "acName": "Manthani",
    "partNumber": 276,
    "partName": "Keshanapalli",
    "lat": 18.6512469,
    "lon": 79.665771
  },
  {
    "partId": 54861,
    "stateCode": "S29",
    "stateName": "Telangana",
    "districtCode": "S2908",
    "districtName": "Peddapalli",
    "acNumber": 24,
    "acName": "Manthani",
    "partNumber": 277,
    "partName": "Daryapur",
    "lat": 18.6512469,
    "lon": 79.665771
  },
  {
    "partId": 54717,
    "stateCode": "S29",
    "stateName": "Telangana",
    "districtCode": "S2908",
    "districtName": "Peddapalli",
    "acNumber": 24,
    "acName": "Manthani",
    "partNumber": 278,
    "partName": "Mydambanda",
    "lat": 18.5479153,
    "lon": 79.6019596
  },
  {
    "partId": 54718,
    "stateCode": "S29",
    "stateName": "Telangana",
    "districtCode": "S2908",
    "districtName": "Peddapalli",
    "acNumber": 24,
    "acName": "Manthani",
    "partNumber": 279,
    "partName": "Mydambanda",
    "lat": 18.5479153,
    "lon": 79.6019596
  },
  {
    "partId": 54719,
    "stateCode": "S29",
    "stateName": "Telangana",
    "districtCode": "S2908",
    "districtName": "Peddapalli",
    "acNumber": 24,
    "acName": "Manthani",
    "partNumber": 280,
    "partName": "Potharam",
    "lat": 18.5360902,
    "lon": 79.6097844
  },
  {
    "partId": 54720,
    "stateCode": "S29",
    "stateName": "Telangana",
    "districtCode": "S2908",
    "districtName": "Peddapalli",
    "acNumber": 24,
    "acName": "Manthani",
    "partNumber": 281,
    "partName": "Parupalli",
    "lat": 18.6512469,
    "lon": 79.665771
  },
  {
    "partId": 54871,
    "stateCode": "S29",
    "stateName": "Telangana",
    "districtCode": "S2908",
    "districtName": "Peddapalli",
    "acNumber": 24,
    "acName": "Manthani",
    "partNumber": 282,
    "partName": "Shatrajpalli",
    "lat": 18.650118617446044,
    "lon": 79.62546253459755
  },
  {
    "partId": 54862,
    "stateCode": "S29",
    "stateName": "Telangana",
    "districtCode": "S2908",
    "districtName": "Peddapalli",
    "acNumber": 24,
    "acName": "Manthani",
    "partNumber": 283,
    "partName": "Lakkaram",
    "lat": 18.5655617,
    "lon": 79.579161
  },
  {
    "partId": 54863,
    "stateCode": "S29",
    "stateName": "Telangana",
    "districtCode": "S2908",
    "districtName": "Peddapalli",
    "acNumber": 24,
    "acName": "Manthani",
    "partNumber": 284,
    "partName": "Lakkaram",
    "lat": 18.5655617,
    "lon": 79.579161
  },
  {
    "partId": 54864,
    "stateCode": "S29",
    "stateName": "Telangana",
    "districtCode": "S2908",
    "districtName": "Peddapalli",
    "acNumber": 24,
    "acName": "Manthani",
    "partNumber": 285,
    "partName": "Matchupeta",
    "lat": 18.6512469,
    "lon": 79.665771
  },
  {
    "partId": 54721,
    "stateCode": "S29",
    "stateName": "Telangana",
    "districtCode": "S2908",
    "districtName": "Peddapalli",
    "acNumber": 24,
    "acName": "Manthani",
    "partNumber": 286,
    "partName": "Adivarampeta",
    "lat": 18.6512469,
    "lon": 79.665771
  },
  {
    "partId": 54722,
    "stateCode": "S29",
    "stateName": "Telangana",
    "districtCode": "S2908",
    "districtName": "Peddapalli",
    "acNumber": 24,
    "acName": "Manthani",
    "partNumber": 287,
    "partName": "Adivarampet",
    "lat": 18.6249525,
    "lon": 79.5723126
  },
  {
    "partId": 54723,
    "stateCode": "S29",
    "stateName": "Telangana",
    "districtCode": "S2908",
    "districtName": "Peddapalli",
    "acNumber": 24,
    "acName": "Manthani",
    "partNumber": 288,
    "partName": "Budhavaarampeta",
    "lat": 18.6512469,
    "lon": 79.665771
  },
  {
    "partId": 54865,
    "stateCode": "S29",
    "stateName": "Telangana",
    "districtCode": "S2908",
    "districtName": "Peddapalli",
    "acNumber": 24,
    "acName": "Manthani",
    "partNumber": 289,
    "partName": "Bhudavarampet",
    "lat": 18.6512469,
    "lon": 79.665771
  },
  {
    "partId": 54866,
    "stateCode": "S29",
    "stateName": "Telangana",
    "districtCode": "S2908",
    "districtName": "Peddapalli",
    "acNumber": 24,
    "acName": "Manthani",
    "partNumber": 290,
    "partName": "Rajapur",
    "lat": 18.6419691,
    "lon": 79.4982181
  },
  {
    "partId": 54867,
    "stateCode": "S29",
    "stateName": "Telangana",
    "districtCode": "S2908",
    "districtName": "Peddapalli",
    "acNumber": 24,
    "acName": "Manthani",
    "partNumber": 291,
    "partName": "Ladanpur",
    "lat": 18.6512469,
    "lon": 79.665771
  },
  {
    "partId": 54724,
    "stateCode": "S29",
    "stateName": "Telangana",
    "districtCode": "S2908",
    "districtName": "Peddapalli",
    "acNumber": 24,
    "acName": "Manthani",
    "partNumber": 292,
    "partName": "Ladnapur",
    "lat": 18.6512469,
    "lon": 79.665771
  },
  {
    "partId": 55235,
    "stateCode": "S29",
    "stateName": "Telangana",
    "districtCode": "S2908",
    "districtName": "Peddapalli",
    "acNumber": 25,
    "acName": "Peddapalle",
    "partNumber": 1,
    "partName": "Palitham",
    "lat": 18.562464178915665,
    "lon": 79.36771825998485
  },
  {
    "partId": 55091,
    "stateCode": "S29",
    "stateName": "Telangana",
    "districtCode": "S2908",
    "districtName": "Peddapalli",
    "acNumber": 25,
    "acName": "Peddapalle",
    "partNumber": 2,
    "partName": "Palitham",
    "lat": 18.562464178915665,
    "lon": 79.36771825998485
  },
  {
    "partId": 55236,
    "stateCode": "S29",
    "stateName": "Telangana",
    "districtCode": "S2908",
    "districtName": "Peddapalli",
    "acNumber": 25,
    "acName": "Peddapalle",
    "partNumber": 3,
    "partName": "Gopaiah Palli",
    "lat": 18.562464178915665,
    "lon": 79.36771825998485
  },
  {
    "partId": 55092,
    "stateCode": "S29",
    "stateName": "Telangana",
    "districtCode": "S2908",
    "districtName": "Peddapalli",
    "acNumber": 25,
    "acName": "Peddapalle",
    "partNumber": 4,
    "partName": "Kasulapalli H/O  Palitham",
    "lat": 18.562464178915665,
    "lon": 79.36771825998485
  },
  {
    "partId": 55237,
    "stateCode": "S29",
    "stateName": "Telangana",
    "districtCode": "S2908",
    "districtName": "Peddapalli",
    "acNumber": 25,
    "acName": "Peddapalle",
    "partNumber": 5,
    "partName": "Kasulapalli",
    "lat": 18.562464178915665,
    "lon": 79.36771825998485
  },
  {
    "partId": 55093,
    "stateCode": "S29",
    "stateName": "Telangana",
    "districtCode": "S2908",
    "districtName": "Peddapalli",
    "acNumber": 25,
    "acName": "Peddapalle",
    "partNumber": 6,
    "partName": "Kanagarthi (K)",
    "lat": 18.562464178915665,
    "lon": 79.36771825998485
  },
  {
    "partId": 55238,
    "stateCode": "S29",
    "stateName": "Telangana",
    "districtCode": "S2908",
    "districtName": "Peddapalli",
    "acNumber": 25,
    "acName": "Peddapalle",
    "partNumber": 7,
    "partName": "Kapulapalli",
    "lat": 18.562464178915665,
    "lon": 79.36771825998485
  },
  {
    "partId": 55094,
    "stateCode": "S29",
    "stateName": "Telangana",
    "districtCode": "S2908",
    "districtName": "Peddapalli",
    "acNumber": 25,
    "acName": "Peddapalle",
    "partNumber": 8,
    "partName": "Ragineedu",
    "lat": 18.6826374,
    "lon": 79.3781769
  },
  {
    "partId": 55239,
    "stateCode": "S29",
    "stateName": "Telangana",
    "districtCode": "S2908",
    "districtName": "Peddapalli",
    "acNumber": 25,
    "acName": "Peddapalle",
    "partNumber": 9,
    "partName": "Kishanraopalli H/O. Raginedu",
    "lat": 18.562464178915665,
    "lon": 79.36771825998485
  },
  {
    "partId": 55095,
    "stateCode": "S29",
    "stateName": "Telangana",
    "districtCode": "S2908",
    "districtName": "Peddapalli",
    "acNumber": 25,
    "acName": "Peddapalle",
    "partNumber": 10,
    "partName": "Raginedu",
    "lat": 18.6823244,
    "lon": 79.3748703
  },
  {
    "partId": 55240,
    "stateCode": "S29",
    "stateName": "Telangana",
    "districtCode": "S2908",
    "districtName": "Peddapalli",
    "acNumber": 25,
    "acName": "Peddapalle",
    "partNumber": 11,
    "partName": "Kurmapalli",
    "lat": 18.562464178915665,
    "lon": 79.36771825998485
  },
  {
    "partId": 55096,
    "stateCode": "S29",
    "stateName": "Telangana",
    "districtCode": "S2908",
    "districtName": "Peddapalli",
    "acNumber": 25,
    "acName": "Peddapalle",
    "partNumber": 12,
    "partName": "Appannapet",
    "lat": 18.644872,
    "lon": 79.3854009
  },
  {
    "partId": 55241,
    "stateCode": "S29",
    "stateName": "Telangana",
    "districtCode": "S2908",
    "districtName": "Peddapalli",
    "acNumber": 25,
    "acName": "Peddapalle",
    "partNumber": 13,
    "partName": "Appannapeta",
    "lat": 18.562464178915665,
    "lon": 79.36771825998485
  },
  {
    "partId": 55097,
    "stateCode": "S29",
    "stateName": "Telangana",
    "districtCode": "S2908",
    "districtName": "Peddapalli",
    "acNumber": 25,
    "acName": "Peddapalle",
    "partNumber": 14,
    "partName": "Appanapeta",
    "lat": 18.562464178915665,
    "lon": 79.36771825998485
  },
  {
    "partId": 55242,
    "stateCode": "S29",
    "stateName": "Telangana",
    "districtCode": "S2908",
    "districtName": "Peddapalli",
    "acNumber": 25,
    "acName": "Peddapalle",
    "partNumber": 15,
    "partName": "Appannapeta",
    "lat": 18.562464178915665,
    "lon": 79.36771825998485
  },
  {
    "partId": 55243,
    "stateCode": "S29",
    "stateName": "Telangana",
    "districtCode": "S2908",
    "districtName": "Peddapalli",
    "acNumber": 25,
    "acName": "Peddapalle",
    "partNumber": 16,
    "partName": "Bompelli H/O Appanapet",
    "lat": 18.562464178915665,
    "lon": 79.36771825998485
  },
  {
    "partId": 55244,
    "stateCode": "S29",
    "stateName": "Telangana",
    "districtCode": "S2908",
    "districtName": "Peddapalli",
    "acNumber": 25,
    "acName": "Peddapalle",
    "partNumber": 17,
    "partName": "Bompelli",
    "lat": 18.562464178915665,
    "lon": 79.36771825998485
  },
  {
    "partId": 55098,
    "stateCode": "S29",
    "stateName": "Telangana",
    "districtCode": "S2908",
    "districtName": "Peddapalli",
    "acNumber": 25,
    "acName": "Peddapalle",
    "partNumber": 18,
    "partName": "Merapalli Madira Appannapeta",
    "lat": 18.562464178915665,
    "lon": 79.36771825998485
  },
  {
    "partId": 55099,
    "stateCode": "S29",
    "stateName": "Telangana",
    "districtCode": "S2908",
    "districtName": "Peddapalli",
    "acNumber": 25,
    "acName": "Peddapalle",
    "partNumber": 19,
    "partName": "Brahmanapalli",
    "lat": 18.8035843,
    "lon": 79.3830071
  },
  {
    "partId": 55100,
    "stateCode": "S29",
    "stateName": "Telangana",
    "districtCode": "S2908",
    "districtName": "Peddapalli",
    "acNumber": 25,
    "acName": "Peddapalle",
    "partNumber": 20,
    "partName": "Brahmanapally",
    "lat": 18.562464178915665,
    "lon": 79.36771825998485
  },
  {
    "partId": 55245,
    "stateCode": "S29",
    "stateName": "Telangana",
    "districtCode": "S2908",
    "districtName": "Peddapalli",
    "acNumber": 25,
    "acName": "Peddapalle",
    "partNumber": 21,
    "partName": "Raghavapur",
    "lat": 18.636078,
    "lon": 79.414665
  },
  {
    "partId": 55246,
    "stateCode": "S29",
    "stateName": "Telangana",
    "districtCode": "S2908",
    "districtName": "Peddapalli",
    "acNumber": 25,
    "acName": "Peddapalle",
    "partNumber": 22,
    "partName": "Raghavapur",
    "lat": 18.636078,
    "lon": 79.414665
  },
  {
    "partId": 55247,
    "stateCode": "S29",
    "stateName": "Telangana",
    "districtCode": "S2908",
    "districtName": "Peddapalli",
    "acNumber": 25,
    "acName": "Peddapalle",
    "partNumber": 23,
    "partName": "Raghavapur",
    "lat": 18.636078,
    "lon": 79.414665
  },
  {
    "partId": 55101,
    "stateCode": "S29",
    "stateName": "Telangana",
    "districtCode": "S2908",
    "districtName": "Peddapalli",
    "acNumber": 25,
    "acName": "Peddapalle",
    "partNumber": 24,
    "partName": "Raghavapur",
    "lat": 18.636078,
    "lon": 79.414665
  },
  {
    "partId": 55102,
    "stateCode": "S29",
    "stateName": "Telangana",
    "districtCode": "S2908",
    "districtName": "Peddapalli",
    "acNumber": 25,
    "acName": "Peddapalle",
    "partNumber": 25,
    "partName": "Andugulapalli",
    "lat": 18.562464178915665,
    "lon": 79.36771825998485
  },
  {
    "partId": 55103,
    "stateCode": "S29",
    "stateName": "Telangana",
    "districtCode": "S2908",
    "districtName": "Peddapalli",
    "acNumber": 25,
    "acName": "Peddapalle",
    "partNumber": 26,
    "partName": "Andugulapalli",
    "lat": 18.562464178915665,
    "lon": 79.36771825998485
  },
  {
    "partId": 55248,
    "stateCode": "S29",
    "stateName": "Telangana",
    "districtCode": "S2908",
    "districtName": "Peddapalli",
    "acNumber": 25,
    "acName": "Peddapalle",
    "partNumber": 27,
    "partName": "Devunipalli",
    "lat": 18.5952594,
    "lon": 79.3369027
  },
  {
    "partId": 55104,
    "stateCode": "S29",
    "stateName": "Telangana",
    "districtCode": "S2908",
    "districtName": "Peddapalli",
    "acNumber": 25,
    "acName": "Peddapalle",
    "partNumber": 28,
    "partName": "Rangapur",
    "lat": 18.5915901,
    "lon": 79.3806048
  },
  {
    "partId": 55249,
    "stateCode": "S29",
    "stateName": "Telangana",
    "districtCode": "S2908",
    "districtName": "Peddapalli",
    "acNumber": 25,
    "acName": "Peddapalle",
    "partNumber": 29,
    "partName": "Rangapur",
    "lat": 18.5915901,
    "lon": 79.3806048
  },
  {
    "partId": 55105,
    "stateCode": "S29",
    "stateName": "Telangana",
    "districtCode": "S2908",
    "districtName": "Peddapalli",
    "acNumber": 25,
    "acName": "Peddapalle",
    "partNumber": 30,
    "partName": "Rangapur",
    "lat": 18.5915901,
    "lon": 79.3806048
  },
  {
    "partId": 55250,
    "stateCode": "S29",
    "stateName": "Telangana",
    "districtCode": "S2908",
    "districtName": "Peddapalli",
    "acNumber": 25,
    "acName": "Peddapalle",
    "partNumber": 31,
    "partName": "Sabbitam",
    "lat": 18.562464178915665,
    "lon": 79.36771825998485
  },
  {
    "partId": 55106,
    "stateCode": "S29",
    "stateName": "Telangana",
    "districtCode": "S2908",
    "districtName": "Peddapalli",
    "acNumber": 25,
    "acName": "Peddapalle",
    "partNumber": 32,
    "partName": "Sabbitham",
    "lat": 18.562464178915665,
    "lon": 79.36771825998485
  },
  {
    "partId": 55251,
    "stateCode": "S29",
    "stateName": "Telangana",
    "districtCode": "S2908",
    "districtName": "Peddapalli",
    "acNumber": 25,
    "acName": "Peddapalle",
    "partNumber": 33,
    "partName": "Goureddipeta",
    "lat": 18.562464178915665,
    "lon": 79.36771825998485
  },
  {
    "partId": 55107,
    "stateCode": "S29",
    "stateName": "Telangana",
    "districtCode": "S2908",
    "districtName": "Peddapalli",
    "acNumber": 25,
    "acName": "Peddapalle",
    "partNumber": 34,
    "partName": "Gaureddipeta",
    "lat": 18.562464178915665,
    "lon": 79.36771825998485
  },
  {
    "partId": 55252,
    "stateCode": "S29",
    "stateName": "Telangana",
    "districtCode": "S2908",
    "districtName": "Peddapalli",
    "acNumber": 25,
    "acName": "Peddapalle",
    "partNumber": 35,
    "partName": "Peddapalli",
    "lat": 18.562464178915665,
    "lon": 79.36771825998485
  },
  {
    "partId": 55108,
    "stateCode": "S29",
    "stateName": "Telangana",
    "districtCode": "S2908",
    "districtName": "Peddapalli",
    "acNumber": 25,
    "acName": "Peddapalle",
    "partNumber": 36,
    "partName": "Peddapalli",
    "lat": 18.6177235,
    "lon": 79.3868069
  },
  {
    "partId": 55253,
    "stateCode": "S29",
    "stateName": "Telangana",
    "districtCode": "S2908",
    "districtName": "Peddapalli",
    "acNumber": 25,
    "acName": "Peddapalle",
    "partNumber": 37,
    "partName": "Peddapalli",
    "lat": 18.6177235,
    "lon": 79.3868069
  },
  {
    "partId": 55109,
    "stateCode": "S29",
    "stateName": "Telangana",
    "districtCode": "S2908",
    "districtName": "Peddapalli",
    "acNumber": 25,
    "acName": "Peddapalle",
    "partNumber": 38,
    "partName": "Peddapalli",
    "lat": 18.6177235,
    "lon": 79.3868069
  },
  {
    "partId": 55381,
    "stateCode": "S29",
    "stateName": "Telangana",
    "districtCode": "S2908",
    "districtName": "Peddapalli",
    "acNumber": 25,
    "acName": "Peddapalle",
    "partNumber": 39,
    "partName": "Peddapalli",
    "lat": 18.6177235,
    "lon": 79.3868069
  },
  {
    "partId": 55254,
    "stateCode": "S29",
    "stateName": "Telangana",
    "districtCode": "S2908",
    "districtName": "Peddapalli",
    "acNumber": 25,
    "acName": "Peddapalle",
    "partNumber": 40,
    "partName": "Peddapalli",
    "lat": 18.6177235,
    "lon": 79.3868069
  },
  {
    "partId": 55110,
    "stateCode": "S29",
    "stateName": "Telangana",
    "districtCode": "S2908",
    "districtName": "Peddapalli",
    "acNumber": 25,
    "acName": "Peddapalle",
    "partNumber": 41,
    "partName": "Peddapalli",
    "lat": 18.6177235,
    "lon": 79.3868069
  },
  {
    "partId": 55255,
    "stateCode": "S29",
    "stateName": "Telangana",
    "districtCode": "S2908",
    "districtName": "Peddapalli",
    "acNumber": 25,
    "acName": "Peddapalle",
    "partNumber": 42,
    "partName": "Peddapalli",
    "lat": 18.6177235,
    "lon": 79.3868069
  },
  {
    "partId": 55111,
    "stateCode": "S29",
    "stateName": "Telangana",
    "districtCode": "S2908",
    "districtName": "Peddapalli",
    "acNumber": 25,
    "acName": "Peddapalle",
    "partNumber": 43,
    "partName": "Peddapalli",
    "lat": 18.6177235,
    "lon": 79.3868069
  },
  {
    "partId": 55256,
    "stateCode": "S29",
    "stateName": "Telangana",
    "districtCode": "S2908",
    "districtName": "Peddapalli",
    "acNumber": 25,
    "acName": "Peddapalle",
    "partNumber": 44,
    "partName": "Peddapalli",
    "lat": 18.6177235,
    "lon": 79.3868069
  },
  {
    "partId": 55112,
    "stateCode": "S29",
    "stateName": "Telangana",
    "districtCode": "S2908",
    "districtName": "Peddapalli",
    "acNumber": 25,
    "acName": "Peddapalle",
    "partNumber": 45,
    "partName": "Peddapalli",
    "lat": 18.6177235,
    "lon": 79.3868069
  },
  {
    "partId": 55257,
    "stateCode": "S29",
    "stateName": "Telangana",
    "districtCode": "S2908",
    "districtName": "Peddapalli",
    "acNumber": 25,
    "acName": "Peddapalle",
    "partNumber": 46,
    "partName": "Peddapalli",
    "lat": 18.6177235,
    "lon": 79.3868069
  },
  {
    "partId": 55113,
    "stateCode": "S29",
    "stateName": "Telangana",
    "districtCode": "S2908",
    "districtName": "Peddapalli",
    "acNumber": 25,
    "acName": "Peddapalle",
    "partNumber": 47,
    "partName": "Peddapalli",
    "lat": 18.6177235,
    "lon": 79.3868069
  },
  {
    "partId": 55378,
    "stateCode": "S29",
    "stateName": "Telangana",
    "districtCode": "S2908",
    "districtName": "Peddapalli",
    "acNumber": 25,
    "acName": "Peddapalle",
    "partNumber": 48,
    "partName": "Peddapalli",
    "lat": 18.6177235,
    "lon": 79.3868069
  },
  {
    "partId": 55258,
    "stateCode": "S29",
    "stateName": "Telangana",
    "districtCode": "S2908",
    "districtName": "Peddapalli",
    "acNumber": 25,
    "acName": "Peddapalle",
    "partNumber": 49,
    "partName": "Peddapalli",
    "lat": 18.6177235,
    "lon": 79.3868069
  },