[
  {
    "partId": 33110,
    "stateCode": "S07",
    "stateName": "Haryana",
    "districtCode": "S0716",
    "districtName": "MAHENDRAGARH",
    "acNumber": 68,
    "acName": "ATELI",
    "partNumber": 1,
    "partName": "SYANA",
    "lat": 28.1006591,
    "lon": 76.2535322
  },
  {
    "partId": 33111,
    "stateCode": "S07",
    "stateName": "Haryana",
    "districtCode": "S0716",
    "districtName": "MAHENDRAGARH",
    "acNumber": 68,
    "acName": "ATELI",
    "partNumber": 2,
    "partName": "SYANA",
    "lat": 28.1006591,
    "lon": 76.2535322
  },
  {
    "partId": 33112,
    "stateCode": "S07",
    "stateName": "Haryana",
    "districtCode": "S0716",
    "districtName": "MAHENDRAGARH",
    "acNumber": 68,
    "acName": "ATELI",
    "partNumber": 3,
    "partName": "SYANA",
    "lat": 28.1006591,
    "lon": 76.2535322
  },
  {
    "partId": 33113,
    "stateCode": "S07",
    "stateName": "Haryana",
    "districtCode": "S0716",
    "districtName": "MAHENDRAGARH",
    "acNumber": 68,
    "acName": "ATELI",
    "partNumber": 4,
    "partName": "POTA",
    "lat": 28.4252623,
    "lon": 76.2249524
  },
  {
    "partId": 33114,
    "stateCode": "S07",
    "stateName": "Haryana",
    "districtCode": "S0716",
    "districtName": "MAHENDRAGARH",
    "acNumber": 68,
    "acName": "ATELI",
    "partNumber": 5,
    "partName": "POTA",
    "lat": 28.4252623,
    "lon": 76.2249524
  },
  {
    "partId": 33115,
    "stateCode": "S07",
    "stateName": "Haryana",
    "districtCode": "S0716",
    "districtName": "MAHENDRAGARH",
    "acNumber": 68,
    "acName": "ATELI",
    "partNumber": 6,
    "partName": "POTA",
    "lat": 28.4252623,
    "lon": 76.2249524
  },
  {
    "partId": 33116,
    "stateCode": "S07",
    "stateName": "Haryana",
    "districtCode": "S0716",
    "districtName": "MAHENDRAGARH",
    "acNumber": 68,
    "acName": "ATELI",
    "partNumber": 7,
    "partName": "NAUTANA",
    "lat": 28.4327029,
    "lon": 76.212988
  },
  {
    "partId": 33117,
    "stateCode": "S07",
    "stateName": "Haryana",
    "districtCode": "S0716",
    "districtName": "MAHENDRAGARH",
    "acNumber": 68,
    "acName": "ATELI",
    "partNumber": 8,
    "partName": "NAUTANA",
    "lat": 28.4327029,
    "lon": 76.212988
  },
  {
    "partId": 33118,
    "stateCode": "S07",
    "stateName": "Haryana",
    "districtCode": "S0716",
    "districtName": "MAHENDRAGARH",
    "acNumber": 68,
    "acName": "ATELI",
    "partNumber": 9,
    "partName": "NAUTANA",
    "lat": 28.4327029,
    "lon": 76.212988
  },
  {
    "partId": 33119,
    "stateCode": "S07",
    "stateName": "Haryana",
    "districtCode": "S0716",
    "districtName": "MAHENDRAGARH",
    "acNumber": 68,
    "acName": "ATELI",
    "partNumber": 10,
    "partName": "SEHLANG",
    "lat": 28.411955,
    "lon": 76.221382
  },
  {
    "partId": 33120,
    "stateCode": "S07",
    "stateName": "Haryana",
    "districtCode": "S0716",
    "districtName": "MAHENDRAGARH",
    "acNumber": 68,
    "acName": "ATELI",
    "partNumber": 11,
    "partName": "SEHLANG",
    "lat": 28.411955,
    "lon": 76.221382
  },
  {
    "partId": 33121,
    "stateCode": "S07",
    "stateName": "Haryana",
    "districtCode": "S0716",
    "districtName": "MAHENDRAGARH",
    "acNumber": 68,
    "acName": "ATELI",
    "partNumber": 12,
    "partName": "SEHLANG",
    "lat": 28.411955,
    "lon": 76.221382
  },
  {
    "partId": 33122,
    "stateCode": "S07",
    "stateName": "Haryana",
    "districtCode": "S0716",
    "districtName": "MAHENDRAGARH",
    "acNumber": 68,
    "acName": "ATELI",
    "partNumber": 13,
    "partName": "SEHLANG",
    "lat": 28.411955,
    "lon": 76.221382
  },
  {
    "partId": 33123,
    "stateCode": "S07",
    "stateName": "Haryana",
    "districtCode": "S0716",
    "districtName": "MAHENDRAGARH",
    "acNumber": 68,
    "acName": "ATELI",
    "partNumber": 14,
    "partName": "SEHLANG",
    "lat": 28.411955,
    "lon": 76.221382
  },
  {
    "partId": 33124,
    "stateCode": "S07",
    "stateName": "Haryana",
    "districtCode": "S0716",
    "districtName": "MAHENDRAGARH",
    "acNumber": 68,
    "acName": "ATELI",
    "partNumber": 15,
    "partName": "BAGOT",
    "lat": 28.1006591,
    "lon": 76.2535322
  },
  {
    "partId": 33125,
    "stateCode": "S07",
    "stateName": "Haryana",
    "districtCode": "S0716",
    "districtName": "MAHENDRAGARH",
    "acNumber": 68,
    "acName": "ATELI",
    "partNumber": 16,
    "partName": "BAGOT",
    "lat": 28.1006591,
    "lon": 76.2535322
  },
  {
    "partId": 33126,
    "stateCode": "S07",
    "stateName": "Haryana",
    "districtCode": "S0716",
    "districtName": "MAHENDRAGARH",
    "acNumber": 68,
    "acName": "ATELI",
    "partNumber": 17,
    "partName": "BAGOT",
    "lat": 28.179271281924883,
    "lon": 76.25530147909419
  },
  {
    "partId": 33127,
    "stateCode": "S07",
    "stateName": "Haryana",
    "districtCode": "S0716",
    "districtName": "MAHENDRAGARH",
    "acNumber": 68,
    "acName": "ATELI",
    "partNumber": 18,
    "partName": "BAGOT",
    "lat": 28.1006591,
    "lon": 76.2535322
  },
  {
    "partId": 33128,
    "stateCode": "S07",
    "stateName": "Haryana",
    "districtCode": "S0716",
    "districtName": "MAHENDRAGARH",
    "acNumber": 68,
    "acName": "ATELI",
    "partNumber": 19,
    "partName": "UCHCHAT",
    "lat": 28.1006591,
    "lon": 76.2535322
  },
  {
    "partId": 33129,
    "stateCode": "S07",
    "stateName": "Haryana",
    "districtCode": "S0716",
    "districtName": "MAHENDRAGARH",
    "acNumber": 68,
    "acName": "ATELI",
    "partNumber": 20,
    "partName": "TALWANA",
    "lat": 28.3837234,
    "lon": 76.2266951
  },
  {
    "partId": 33130,
    "stateCode": "S07",
    "stateName": "Haryana",
    "districtCode": "S0716",
    "districtName": "MAHENDRAGARH",
    "acNumber": 68,
    "acName": "ATELI",
    "partNumber": 21,
    "partName": "KHERI",
    "lat": 28.04814,
    "lon": 76.3409084
  },
  {
    "partId": 33131,
    "stateCode": "S07",
    "stateName": "Haryana",
    "districtCode": "S0716",
    "districtName": "MAHENDRAGARH",
    "acNumber": 68,
    "acName": "ATELI",
    "partNumber": 22,
    "partName": "KHERI",
    "lat": 28.04814,
    "lon": 76.3409084
  },
  {
    "partId": 33132,
    "stateCode": "S07",
    "stateName": "Haryana",
    "districtCode": "S0716",
    "districtName": "MAHENDRAGARH",
    "acNumber": 68,
    "acName": "ATELI",
    "partNumber": 23,
    "partName": "KHERI",
    "lat": 28.04814,
    "lon": 76.3409084
  },
  {
    "partId": 33133,
    "stateCode": "S07",
    "stateName": "Haryana",
    "districtCode": "S0716",
    "districtName": "MAHENDRAGARH",
    "acNumber": 68,
    "acName": "ATELI",
    "partNumber": 24,
    "partName": "KHERI",
    "lat": 28.04814,
    "lon": 76.3409084
  },
  {
    "partId": 33134,
    "stateCode": "S07",
    "stateName": "Haryana",
    "districtCode": "S0716",
    "districtName": "MAHENDRAGARH",
    "acNumber": 68,
    "acName": "ATELI",
    "partNumber": 25,
    "partName": "KHERI",
    "lat": 28.04814,
    "lon": 76.3409084
  },
  {
    "partId": 33135,
    "stateCode": "S07",
    "stateName": "Haryana",
    "districtCode": "S0716",
    "districtName": "MAHENDRAGARH",
    "acNumber": 68,
    "acName": "ATELI",
    "partNumber": 26,
    "partName": "JHADLI",
    "lat": 28.1006591,
    "lon": 76.2535322
  },
  {
    "partId": 33136,
    "stateCode": "S07",
    "stateName": "Haryana",
    "districtCode": "S0716",
    "districtName": "MAHENDRAGARH",
    "acNumber": 68,
    "acName": "ATELI",
    "partNumber": 27,
    "partName": "CHHITROLI",
    "lat": 28.3774363,
    "lon": 76.2663238
  },
  {
    "partId": 33137,
    "stateCode": "S07",
    "stateName": "Haryana",
    "districtCode": "S0716",
    "districtName": "MAHENDRAGARH",
    "acNumber": 68,
    "acName": "ATELI",
    "partNumber": 28,
    "partName": "CHHITROLI",
    "lat": 28.3774363,
    "lon": 76.2663238
  },
  {
    "partId": 33138,
    "stateCode": "S07",
    "stateName": "Haryana",
    "districtCode": "S0716",
    "districtName": "MAHENDRAGARH",
    "acNumber": 68,
    "acName": "ATELI",
    "partNumber": 29,
    "partName": "SIHOR",
    "lat": 28.3762448,
    "lon": 76.2867733
  },
  {
    "partId": 33139,
    "stateCode": "S07",
    "stateName": "Haryana",
    "districtCode": "S0716",
    "districtName": "MAHENDRAGARH",
    "acNumber": 68,
    "acName": "ATELI",
    "partNumber": 30,
    "partName": "SIHOR",
    "lat": 28.3762448,
    "lon": 76.2867733
  },
  {
    "partId": 33140,
    "stateCode": "S07",
    "stateName": "Haryana",
    "districtCode": "S0716",
    "districtName": "MAHENDRAGARH",
    "acNumber": 68,
    "acName": "ATELI",
    "partNumber": 31,
    "partName": "SIHOR",
    "lat": 28.3762448,
    "lon": 76.2867733
  },
  {
    "partId": 33141,
    "stateCode": "S07",
    "stateName": "Haryana",
    "districtCode": "S0716",
    "districtName": "MAHENDRAGARH",
    "acNumber": 68,
    "acName": "ATELI",
    "partNumber": 32,
    "partName": "GAHRA",
    "lat": 28.3644275,
    "lon": 76.3140328
  },
  {
    "partId": 33142,
    "stateCode": "S07",
    "stateName": "Haryana",
    "districtCode": "S0716",
    "districtName": "MAHENDRAGARH",
    "acNumber": 68,
    "acName": "ATELI",
    "partNumber": 33,
    "partName": "GAHRA",
    "lat": 28.3644275,
    "lon": 76.3140328
  },
  {
    "partId": 33143,
    "stateCode": "S07",
    "stateName": "Haryana",
    "districtCode": "S0716",
    "districtName": "MAHENDRAGARH",
    "acNumber": 68,
    "acName": "ATELI",
    "partNumber": 34,
    "partName": "KOTIA",
    "lat": 28.3467705,
    "lon": 76.3365657
  },
  {
    "partId": 33144,
    "stateCode": "S07",
    "stateName": "Haryana",
    "districtCode": "S0716",
    "districtName": "MAHENDRAGARH",
    "acNumber": 68,
    "acName": "ATELI",
    "partNumber": 35,
    "partName": "KOTIA",
    "lat": 28.3467705,
    "lon": 76.3365657
  },
  {
    "partId": 33145,
    "stateCode": "S07",
    "stateName": "Haryana",
    "districtCode": "S0716",
    "districtName": "MAHENDRAGARH",
    "acNumber": 68,
    "acName": "ATELI",
    "partNumber": 36,
    "partName": "DHANONDA",
    "lat": 28.1006591,
    "lon": 76.2535322
  },
  {
    "partId": 33146,
    "stateCode": "S07",
    "stateName": "Haryana",
    "districtCode": "S0716",
    "districtName": "MAHENDRAGARH",
    "acNumber": 68,
    "acName": "ATELI",
    "partNumber": 37,
    "partName": "DHANONDA",
    "lat": 28.1006591,
    "lon": 76.2535322
  },
  {
    "partId": 33147,
    "stateCode": "S07",
    "stateName": "Haryana",
    "districtCode": "S0716",
    "districtName": "MAHENDRAGARH",
    "acNumber": 68,
    "acName": "ATELI",
    "partNumber": 38,
    "partName": "DHANONDA",
    "lat": 28.1006591,
    "lon": 76.2535322
  },
  {
    "partId": 33148,
    "stateCode": "S07",
    "stateName": "Haryana",
    "districtCode": "S0716",
    "districtName": "MAHENDRAGARH",
    "acNumber": 68,
    "acName": "ATELI",
    "partNumber": 39,
    "partName": "DHANONDA",
    "lat": 28.1006591,
    "lon": 76.2535322
  },
  {
    "partId": 33149,
    "stateCode": "S07",
    "stateName": "Haryana",
    "districtCode": "S0716",
    "districtName": "MAHENDRAGARH",
    "acNumber": 68,
    "acName": "ATELI",
    "partNumber": 40,
    "partName": "AGHIYAR",
    "lat": 28.3494526,
    "lon": 76.2056108
  },
  {
    "partId": 33150,
    "stateCode": "S07",
    "stateName": "Haryana",
    "districtCode": "S0716",
    "districtName": "MAHENDRAGARH",
    "acNumber": 68,
    "acName": "ATELI",
    "partNumber": 41,
    "partName": "AGHIYAR",
    "lat": 28.3494526,
    "lon": 76.2056108
  },
  {
    "partId": 33151,
    "stateCode": "S07",
    "stateName": "Haryana",
    "districtCode": "S0716",
    "districtName": "MAHENDRAGARH",
    "acNumber": 68,
    "acName": "ATELI",
    "partNumber": 42,
    "partName": "KHARKARABAS",
    "lat": 28.1006591,
    "lon": 76.2535322
  },
  {
    "partId": 33152,
    "stateCode": "S07",
    "stateName": "Haryana",
    "districtCode": "S0716",
    "districtName": "MAHENDRAGARH",
    "acNumber": 68,
    "acName": "ATELI",
    "partNumber": 43,
    "partName": "KHARKARABAS",
    "lat": 28.1006591,
    "lon": 76.2535322
  },
  {
    "partId": 33153,
    "stateCode": "S07",
    "stateName": "Haryana",
    "districtCode": "S0716",
    "districtName": "MAHENDRAGARH",
    "acNumber": 68,
    "acName": "ATELI",
    "partNumber": 44,
    "partName": "PATHERA",
    "lat": 28.3295492,
    "lon": 76.2202527
  },
  {
    "partId": 33154,
    "stateCode": "S07",
    "stateName": "Haryana",
    "districtCode": "S0716",
    "districtName": "MAHENDRAGARH",
    "acNumber": 68,
    "acName": "ATELI",
    "partNumber": 45,
    "partName": "PATHERA",
    "lat": 28.3295492,
    "lon": 76.2202527
  },
  {
    "partId": 33155,
    "stateCode": "S07",
    "stateName": "Haryana",
    "districtCode": "S0716",
    "districtName": "MAHENDRAGARH",
    "acNumber": 68,
    "acName": "ATELI",
    "partNumber": 46,
    "partName": "PATHERA",
    "lat": 28.3295492,
    "lon": 76.2202527
  },
  {
    "partId": 33156,
    "stateCode": "S07",
    "stateName": "Haryana",
    "districtCode": "S0716",
    "districtName": "MAHENDRAGARH",
    "acNumber": 68,
    "acName": "ATELI",
    "partNumber": 47,
    "partName": "PATHERA",
    "lat": 28.3295492,
    "lon": 76.2202527
  },
  {
    "partId": 33157,
    "stateCode": "S07",
    "stateName": "Haryana",
    "districtCode": "S0716",
    "districtName": "MAHENDRAGARH",
    "acNumber": 68,
    "acName": "ATELI",
    "partNumber": 48,
    "partName": "KAIMLA",
    "lat": 28.1006591,
    "lon": 76.2535322
  },
  {
    "partId": 33158,
    "stateCode": "S07",
    "stateName": "Haryana",
    "districtCode": "S0716",
    "districtName": "MAHENDRAGARH",
    "acNumber": 68,
    "acName": "ATELI",
    "partNumber": 49,
    "partName": "UNHANI",
    "lat": 28.3305874,
    "lon": 76.2854579
  },
  {
    "partId": 33159,
    "stateCode": "S07",
    "stateName": "Haryana",
    "districtCode": "S0716",
    "districtName": "MAHENDRAGARH",
    "acNumber": 68,
    "acName": "ATELI",
    "partNumber": 50,
    "partName": "UNHANI",
    "lat": 28.3305874,
    "lon": 76.2854579
  },
  {
    "partId": 33160,
    "stateCode": "S07",
    "stateName": "Haryana",
    "districtCode": "S0716",
    "districtName": "MAHENDRAGARH",
    "acNumber": 68,
    "acName": "ATELI",
    "partNumber": 51,
    "partName": "KARIRA",
    "lat": 28.3353442,
    "lon": 76.3367121
  },
  {
    "partId": 33161,
    "stateCode": "S07",
    "stateName": "Haryana",
    "districtCode": "S0716",
    "districtName": "MAHENDRAGARH",
    "acNumber": 68,
    "acName": "ATELI",
    "partNumber": 52,
    "partName": "KARIRA",
    "lat": 28.3353442,
    "lon": 76.3367121
  },
  {
    "partId": 33162,
    "stateCode": "S07",
    "stateName": "Haryana",
    "districtCode": "S0716",
    "districtName": "MAHENDRAGARH",
    "acNumber": 68,
    "acName": "ATELI",
    "partNumber": 53,
    "partName": "KARIRA",
    "lat": 28.3353442,
    "lon": 76.3367121
  },
  {
    "partId": 33163,
    "stateCode": "S07",
    "stateName": "Haryana",
    "districtCode": "S0716",
    "districtName": "MAHENDRAGARH",
    "acNumber": 68,
    "acName": "ATELI",
    "partNumber": 54,
    "partName": "KANINA",
    "lat": 28.3302472,
    "lon": 76.3091414
  },
  {
    "partId": 33164,
    "stateCode": "S07",
    "stateName": "Haryana",
    "districtCode": "S0716",
    "districtName": "MAHENDRAGARH",
    "acNumber": 68,
    "acName": "ATELI",
    "partNumber": 55,
    "partName": "KANINA",
    "lat": 28.3302472,
    "lon": 76.3091414
  },
  {
    "partId": 33165,
    "stateCode": "S07",
    "stateName": "Haryana",
    "districtCode": "S0716",
    "districtName": "MAHENDRAGARH",
    "acNumber": 68,
    "acName": "ATELI",
    "partNumber": 56,
    "partName": "KANINA",
    "lat": 28.3302472,
    "lon": 76.3091414
  },
  {
    "partId": 33166,
    "stateCode": "S07",
    "stateName": "Haryana",
    "districtCode": "S0716",
    "districtName": "MAHENDRAGARH",
    "acNumber": 68,
    "acName": "ATELI",
    "partNumber": 57,
    "partName": "KANINA",
    "lat": 28.3302472,
    "lon": 76.3091414
  },
  {
    "partId": 33167,
    "stateCode": "S07",
    "stateName": "Haryana",
    "districtCode": "S0716",
    "districtName": "MAHENDRAGARH",
    "acNumber": 68,
    "acName": "ATELI",
    "partNumber": 58,
    "partName": "KANINA",
    "lat": 28.3302472,
    "lon": 76.3091414
  },
  {
    "partId": 33168,
    "stateCode": "S07",
    "stateName": "Haryana",
    "districtCode": "S0716",
    "districtName": "MAHENDRAGARH",
    "acNumber": 68,
    "acName": "ATELI",
    "partNumber": 59,
    "partName": "KANINA",
    "lat": 28.3302472,
    "lon": 76.3091414
  },
  {
    "partId": 33169,
    "stateCode": "S07",
    "stateName": "Haryana",
    "districtCode": "S0716",
    "districtName": "MAHENDRAGARH",
    "acNumber": 68,
    "acName": "ATELI",
    "partNumber": 60,
    "partName": "KANINA",
    "lat": 28.3302472,
    "lon": 76.3091414
  },
  {
    "partId": 33170,
    "stateCode": "S07",
    "stateName": "Haryana",
    "districtCode": "S0716",
    "districtName": "MAHENDRAGARH",
    "acNumber": 68,
    "acName": "ATELI",
    "partNumber": 61,
    "partName": "KANINA",
    "lat": 28.3302472,
    "lon": 76.3091414
  },
  {
    "partId": 33171,
    "stateCode": "S07",
    "stateName": "Haryana",
    "districtCode": "S0716",
    "districtName": "MAHENDRAGARH",
    "acNumber": 68,
    "acName": "ATELI",
    "partNumber": 62,
    "partName": "KANINA",
    "lat": 28.3302472,
    "lon": 76.3091414
  },
  {
    "partId": 33172,
    "stateCode": "S07",
    "stateName": "Haryana",
    "districtCode": "S0716",
    "districtName": "MAHENDRAGARH",
    "acNumber": 68,
    "acName": "ATELI",
    "partNumber": 63,
    "partName": "CHELAWAS",
    "lat": 28.3174063,
    "lon": 76.2872434
  },
  {
    "partId": 33173,
    "stateCode": "S07",
    "stateName": "Haryana",
    "districtCode": "S0716",
    "districtName": "MAHENDRAGARH",
    "acNumber": 68,
    "acName": "ATELI",
    "partNumber": 64,
    "partName": "CHELAWAS",
    "lat": 28.3174063,
    "lon": 76.2872434
  },
  {
    "partId": 33174,
    "stateCode": "S07",
    "stateName": "Haryana",
    "districtCode": "S0716",
    "districtName": "MAHENDRAGARH",
    "acNumber": 68,
    "acName": "ATELI",
    "partNumber": 65,
    "partName": "GUDHA",
    "lat": 28.3120792,
    "lon": 76.2538397
  },
  {
    "partId": 33175,
    "stateCode": "S07",
    "stateName": "Haryana",
    "districtCode": "S0716",
    "districtName": "MAHENDRAGARH",
    "acNumber": 68,
    "acName": "ATELI",
    "partNumber": 66,
    "partName": "GUDHA",
    "lat": 28.3120792,
    "lon": 76.2538397
  },
  {
    "partId": 33176,
    "stateCode": "S07",
    "stateName": "Haryana",
    "districtCode": "S0716",
    "districtName": "MAHENDRAGARH",
    "acNumber": 68,
    "acName": "ATELI",
    "partNumber": 67,
    "partName": "GUDHA",
    "lat": 28.3120792,
    "lon": 76.2538397
  },
  {
    "partId": 33177,
    "stateCode": "S07",
    "stateName": "Haryana",
    "districtCode": "S0716",
    "districtName": "MAHENDRAGARH",
    "acNumber": 68,
    "acName": "ATELI",
    "partNumber": 68,
    "partName": "RASULPUR",
    "lat": 28.2839459,
    "lon": 76.2514623
  },
  {
    "partId": 33178,
    "stateCode": "S07",
    "stateName": "Haryana",
    "districtCode": "S0716",
    "districtName": "MAHENDRAGARH",
    "acNumber": 68,
    "acName": "ATELI",
    "partNumber": 69,
    "partName": "RASULPUR",
    "lat": 28.2839459,
    "lon": 76.2514623
  },
  {
    "partId": 33179,
    "stateCode": "S07",
    "stateName": "Haryana",
    "districtCode": "S0716",
    "districtName": "MAHENDRAGARH",
    "acNumber": 68,
    "acName": "ATELI",
    "partNumber": 70,
    "partName": "MOHAMMADPUR",
    "lat": 28.2867452,
    "lon": 76.2792598
  },
  {
    "partId": 33180,
    "stateCode": "S07",
    "stateName": "Haryana",
    "districtCode": "S0716",
    "districtName": "MAHENDRAGARH",
    "acNumber": 68,
    "acName": "ATELI",
    "partNumber": 71,
    "partName": "KAKRALA",
    "lat": 28.2929294,
    "lon": 76.3109776
  },
  {
    "partId": 33181,
    "stateCode": "S07",
    "stateName": "Haryana",
    "districtCode": "S0716",
    "districtName": "MAHENDRAGARH",
    "acNumber": 68,
    "acName": "ATELI",
    "partNumber": 72,
    "partName": "KAKRALA",
    "lat": 28.2929294,
    "lon": 76.3109776
  },
  {
    "partId": 33182,
    "stateCode": "S07",
    "stateName": "Haryana",
    "districtCode": "S0716",
    "districtName": "MAHENDRAGARH",
    "acNumber": 68,
    "acName": "ATELI",
    "partNumber": 73,
    "partName": "KAKRALA",
    "lat": 28.2929294,
    "lon": 76.3109776
  },
  {
    "partId": 33183,
    "stateCode": "S07",
    "stateName": "Haryana",
    "districtCode": "S0716",
    "districtName": "MAHENDRAGARH",
    "acNumber": 68,
    "acName": "ATELI",
    "partNumber": 74,
    "partName": "BHADAPH",
    "lat": 28.1006591,
    "lon": 76.2535322
  },
  {
    "partId": 33184,
    "stateCode": "S07",
    "stateName": "Haryana",
    "districtCode": "S0716",
    "districtName": "MAHENDRAGARH",
    "acNumber": 68,
    "acName": "ATELI",
    "partNumber": 75,
    "partName": "BHADAPH",
    "lat": 28.1006591,
    "lon": 76.2535322
  },
  {
    "partId": 33185,
    "stateCode": "S07",
    "stateName": "Haryana",
    "districtCode": "S0716",
    "districtName": "MAHENDRAGARH",
    "acNumber": 68,
    "acName": "ATELI",
    "partNumber": 76,
    "partName": "BHADAPH",
    "lat": 28.1006591,
    "lon": 76.2535322
  },
  {
    "partId": 33186,
    "stateCode": "S07",
    "stateName": "Haryana",
    "districtCode": "S0716",
    "districtName": "MAHENDRAGARH",
    "acNumber": 68,
    "acName": "ATELI",
    "partNumber": 77,
    "partName": "KAPURI",
    "lat": 28.1006591,
    "lon": 76.2535322
  },
  {
    "partId": 33187,
    "stateCode": "S07",
    "stateName": "Haryana",
    "districtCode": "S0716",
    "districtName": "MAHENDRAGARH",
    "acNumber": 68,
    "acName": "ATELI",
    "partNumber": 78,
    "partName": "ISRANA",
    "lat": 28.2822417,
    "lon": 76.2965531
  },
  {
    "partId": 33188,
    "stateCode": "S07",
    "stateName": "Haryana",
    "districtCode": "S0716",
    "districtName": "MAHENDRAGARH",
    "acNumber": 68,
    "acName": "ATELI",
    "partNumber": 79,
    "partName": "NANGAL",
    "lat": 28.2822754,
    "lon": 76.2765511
  },
  {
    "partId": 33189,
    "stateCode": "S07",
    "stateName": "Haryana",
    "districtCode": "S0716",
    "districtName": "MAHENDRAGARH",
    "acNumber": 68,
    "acName": "ATELI",
    "partNumber": 80,
    "partName": "NANGAL",
    "lat": 28.2822754,
    "lon": 76.2765511
  },
  {
    "partId": 33190,
    "stateCode": "S07",
    "stateName": "Haryana",
    "districtCode": "S0716",
    "districtName": "MAHENDRAGARH",
    "acNumber": 68,
    "acName": "ATELI",
    "partNumber": 81,
    "partName": "KOKA",
    "lat": 28.2662233,
    "lon": 76.26343
  },
  {
    "partId": 33191,
    "stateCode": "S07",
    "stateName": "Haryana",
    "districtCode": "S0716",
    "districtName": "MAHENDRAGARH",
    "acNumber": 68,
    "acName": "ATELI",
    "partNumber": 82,
    "partName": "DHANA",
    "lat": 28.2581129,
    "lon": 76.3109347
  },
  {
    "partId": 33192,
    "stateCode": "S07",
    "stateName": "Haryana",
    "districtCode": "S0716",
    "districtName": "MAHENDRAGARH",
    "acNumber": 68,
    "acName": "ATELI",
    "partNumber": 83,
    "partName": "DHANA",
    "lat": 28.2581129,
    "lon": 76.3109347
  },
  {
    "partId": 33193,
    "stateCode": "S07",
    "stateName": "Haryana",
    "districtCode": "S0716",
    "districtName": "MAHENDRAGARH",
    "acNumber": 68,
    "acName": "ATELI",
    "partNumber": 84,
    "partName": "PARTAL",
    "lat": 28.260334,
    "lon": 76.2940965
  },
  {
    "partId": 33194,
    "stateCode": "S07",
    "stateName": "Haryana",
    "districtCode": "S0716",
    "districtName": "MAHENDRAGARH",
    "acNumber": 68,
    "acName": "ATELI",
    "partNumber": 85,
    "partName": "PARTAL",
    "lat": 28.260334,
    "lon": 76.2940965
  },
  {
    "partId": 33195,
    "stateCode": "S07",
    "stateName": "Haryana",
    "districtCode": "S0716",
    "districtName": "MAHENDRAGARH",
    "acNumber": 68,
    "acName": "ATELI",
    "partNumber": 86,
    "partName": "RAMBAS",
    "lat": 28.2699201,
    "lon": 76.3156526
  },
  {
    "partId": 33196,
    "stateCode": "S07",
    "stateName": "Haryana",
    "districtCode": "S0716",
    "districtName": "MAHENDRAGARH",
    "acNumber": 68,
    "acName": "ATELI",
    "partNumber": 87,
    "partName": "RAMBAS",
    "lat": 28.2699201,
    "lon": 76.3156526
  },
  {
    "partId": 33197,
    "stateCode": "S07",
    "stateName": "Haryana",
    "districtCode": "S0716",
    "districtName": "MAHENDRAGARH",
    "acNumber": 68,
    "acName": "ATELI",
    "partNumber": 88,
    "partName": "MANPURA",
    "lat": 28.1006591,
    "lon": 76.2535322
  },
  {
    "partId": 33198,
    "stateCode": "S07",
    "stateName": "Haryana",
    "districtCode": "S0716",
    "districtName": "MAHENDRAGARH",
    "acNumber": 68,
    "acName": "ATELI",
    "partNumber": 89,
    "partName": "BHOJAWAS",
    "lat": 28.23537,
    "lon": 76.2984195
  },
  {
    "partId": 33199,
    "stateCode": "S07",
    "stateName": "Haryana",
    "districtCode": "S0716",
    "districtName": "MAHENDRAGARH",
    "acNumber": 68,
    "acName": "ATELI",
    "partNumber": 90,
    "partName": "BHOJAWAS",
    "lat": 28.23537,
    "lon": 76.2984195
  },
  {
    "partId": 33200,
    "stateCode": "S07",
    "stateName": "Haryana",
    "districtCode": "S0716",
    "districtName": "MAHENDRAGARH",
    "acNumber": 68,
    "acName": "ATELI",
    "partNumber": 91,
    "partName": "BHOJAWAS",
    "lat": 28.23537,
    "lon": 76.2984195
  },
  {
    "partId": 33201,
    "stateCode": "S07",
    "stateName": "Haryana",
    "districtCode": "S0716",
    "districtName": "MAHENDRAGARH",
    "acNumber": 68,
    "acName": "ATELI",
    "partNumber": 92,
    "partName": "SUNDRAH",
    "lat": 28.1006591,
    "lon": 76.2535322
  },
  {
    "partId": 33202,
    "stateCode": "S07",
    "stateName": "Haryana",
    "districtCode": "S0716",
    "districtName": "MAHENDRAGARH",
    "acNumber": 68,
    "acName": "ATELI",
    "partNumber": 93,
    "partName": "SUNDRAH",
    "lat": 28.1006591,
    "lon": 76.2535322
  },
  {
    "partId": 33203,
    "stateCode": "S07",
    "stateName": "Haryana",
    "districtCode": "S0716",
    "districtName": "MAHENDRAGARH",
    "acNumber": 68,
    "acName": "ATELI",
    "partNumber": 94,
    "partName": "JHIGAWAN",
    "lat": 28.1006591,
    "lon": 76.2535322
  },
  {
    "partId": 33204,
    "stateCode": "S07",
    "stateName": "Haryana",
    "districtCode": "S0716",
    "districtName": "MAHENDRAGARH",
    "acNumber": 68,
    "acName": "ATELI",
    "partNumber": 95,
    "partName": "BEWAL",
    "lat": 28.2091099,
    "lon": 76.2428429
  },
  {
    "partId": 33205,
    "stateCode": "S07",
    "stateName": "Haryana",
    "districtCode": "S0716",
    "districtName": "MAHENDRAGARH",
    "acNumber": 68,
    "acName": "ATELI",
    "partNumber": 96,
    "partName": "BEWAL",
    "lat": 28.2091099,
    "lon": 76.2428429
  },
  {
    "partId": 33206,
    "stateCode": "S07",
    "stateName": "Haryana",
    "districtCode": "S0716",
    "districtName": "MAHENDRAGARH",
    "acNumber": 68,
    "acName": "ATELI",
    "partNumber": 97,
    "partName": "BEWAL",
    "lat": 28.132697049999997,
    "lon": 76.16974476260464
  },
  {
    "partId": 33207,
    "stateCode": "S07",
    "stateName": "Haryana",
    "districtCode": "S0716",
    "districtName": "MAHENDRAGARH",
    "acNumber": 68,
    "acName": "ATELI",
    "partNumber": 98,
    "partName": "KHAIRANA",
    "lat": 28.179271281924883,
    "lon": 76.25530147909419
  },
  {
    "partId": 33208,
    "stateCode": "S07",
    "stateName": "Haryana",
    "districtCode": "S0716",
    "districtName": "MAHENDRAGARH",
    "acNumber": 68,
    "acName": "ATELI",
    "partNumber": 99,
    "partName": "KHAIRANA",
    "lat": 28.132697049999997,
    "lon": 76.16974476260464
  },
  {
    "partId": 33209,
    "stateCode": "S07",
    "stateName": "Haryana",
    "districtCode": "S0716",
    "districtName": "MAHENDRAGARH",
    "acNumber": 68,
    "acName": "ATELI",
    "partNumber": 100,
    "partName": "GOMLA",
    "lat": 28.132697049999997,
    "lon": 76.16974476260464
  },
  {
    "partId": 33210,
    "stateCode": "S07",
    "stateName": "Haryana",
    "districtCode": "S0716",
    "districtName": "MAHENDRAGARH",
    "acNumber": 68,
    "acName": "ATELI",
    "partNumber": 101,
    "partName": "GOMLA",
    "lat": 28.2177507,
    "lon": 76.3092572
  },
  {
    "partId": 33211,
    "stateCode": "S07",
    "stateName": "Haryana",
    "districtCode": "S0716",
    "districtName": "MAHENDRAGARH",
    "acNumber": 68,
    "acName": "ATELI",
    "partNumber": 102,
    "partName": "MODDI",
    "lat": 28.1006591,
    "lon": 76.2535322
  },
  {
    "partId": 33212,
    "stateCode": "S07",
    "stateName": "Haryana",
    "districtCode": "S0716",
    "districtName": "MAHENDRAGARH",
    "acNumber": 68,
    "acName": "ATELI",
    "partNumber": 103,
    "partName": "MOHLRA",
    "lat": 28.1006591,
    "lon": 76.2535322
  },
  {
    "partId": 33213,
    "stateCode": "S07",
    "stateName": "Haryana",
    "districtCode": "S0716",
    "districtName": "MAHENDRAGARH",
    "acNumber": 68,
    "acName": "ATELI",
    "partNumber": 104,
    "partName": "KHAIRANI",
    "lat": 28.1006591,
    "lon": 76.2535322
  },
  {
    "partId": 33214,
    "stateCode": "S07",
    "stateName": "Haryana",
    "districtCode": "S0716",
    "districtName": "MAHENDRAGARH",
    "acNumber": 68,
    "acName": "ATELI",
    "partNumber": 105,
    "partName": "MUNDIA KHERA",
    "lat": 28.1006591,
    "lon": 76.2535322
  },
  {
    "partId": 33215,
    "stateCode": "S07",
    "stateName": "Haryana",
    "districtCode": "S0716",
    "districtName": "MAHENDRAGARH",
    "acNumber": 68,
    "acName": "ATELI",
    "partNumber": 106,
    "partName": "MUNDIA KHERA",
    "lat": 28.1006591,
    "lon": 76.2535322
  },
  {
    "partId": 33216,
    "stateCode": "S07",
    "stateName": "Haryana",
    "districtCode": "S0716",
    "districtName": "MAHENDRAGARH",
    "acNumber": 68,
    "acName": "ATELI",
    "partNumber": 107,
    "partName": "MUNDIA KHERA",
    "lat": 28.1006591,
    "lon": 76.2535322
  },
  {
    "partId": 33217,
    "stateCode": "S07",
    "stateName": "Haryana",
    "districtCode": "S0716",
    "districtName": "MAHENDRAGARH",
    "acNumber": 68,
    "acName": "ATELI",
    "partNumber": 108,
    "partName": "MUNDIA KHERA",
    "lat": 28.1006591,
    "lon": 76.2535322
  },
  {
    "partId": 33218,
    "stateCode": "S07",
    "stateName": "Haryana",
    "districtCode": "S0716",
    "districtName": "MAHENDRAGARH",
    "acNumber": 68,
    "acName": "ATELI",
    "partNumber": 109,
    "partName": "DONGARA JAT",
    "lat": 28.1006591,
    "lon": 76.2535322
  },
  {
    "partId": 33219,
    "stateCode": "S07",
    "stateName": "Haryana",
    "districtCode": "S0716",
    "districtName": "MAHENDRAGARH",
    "acNumber": 68,
    "acName": "ATELI",
    "partNumber": 110,
    "partName": "DONGARA JAT",
    "lat": 28.1006591,
    "lon": 76.2535322
  },
  {
    "partId": 33220,
    "stateCode": "S07",
    "stateName": "Haryana",
    "districtCode": "S0716",
    "districtName": "MAHENDRAGARH",
    "acNumber": 68,
    "acName": "ATELI",
    "partNumber": 111,
    "partName": "DONGRA AHIR",
    "lat": 28.1880519,
    "lon": 76.2111434
  },
  {
    "partId": 33221,
    "stateCode": "S07",
    "stateName": "Haryana",
    "districtCode": "S0716",
    "districtName": "MAHENDRAGARH",
    "acNumber": 68,
    "acName": "ATELI",
    "partNumber": 112,
    "partName": "DONGRA AHIR",
    "lat": 28.1880519,
    "lon": 76.2111434
  },
  {
    "partId": 33222,
    "stateCode": "S07",
    "stateName": "Haryana",
    "districtCode": "S0716",
    "districtName": "MAHENDRAGARH",
    "acNumber": 68,
    "acName": "ATELI",
    "partNumber": 113,
    "partName": "DONGRA AHIR",
    "lat": 28.1880519,
    "lon": 76.2111434
  },
  {
    "partId": 33223,
    "stateCode": "S07",
    "stateName": "Haryana",
    "districtCode": "S0716",
    "districtName": "MAHENDRAGARH",
    "acNumber": 68,
    "acName": "ATELI",
    "partNumber": 114,
    "partName": "DONGRA AHIR",
    "lat": 28.1880519,
    "lon": 76.2111434
  },
  {
    "partId": 33224,
    "stateCode": "S07",
    "stateName": "Haryana",
    "districtCode": "S0716",
    "districtName": "MAHENDRAGARH",
    "acNumber": 68,
    "acName": "ATELI",
    "partNumber": 115,
    "partName": "KALWARI",
    "lat": 28.1780712,
    "lon": 76.2215554
  },
  {
    "partId": 33225,
    "stateCode": "S07",
    "stateName": "Haryana",
    "districtCode": "S0716",
    "districtName": "MAHENDRAGARH",
    "acNumber": 68,
    "acName": "ATELI",
    "partNumber": 116,
    "partName": "KALWARI",
    "lat": 28.1780712,
    "lon": 76.2215554
  },
  {
    "partId": 33226,
    "stateCode": "S07",
    "stateName": "Haryana",
    "districtCode": "S0716",
    "districtName": "MAHENDRAGARH",
    "acNumber": 68,
    "acName": "ATELI",
    "partNumber": 117,
    "partName": "RATA KALAN",
    "lat": 28.1006591,
    "lon": 76.2535322
  },
  {
    "partId": 33227,
    "stateCode": "S07",
    "stateName": "Haryana",
    "districtCode": "S0716",
    "districtName": "MAHENDRAGARH",
    "acNumber": 68,
    "acName": "ATELI",
    "partNumber": 118,
    "partName": "RATA KALAN",
    "lat": 28.1006591,
    "lon": 76.2535322
  },
  {
    "partId": 33228,
    "stateCode": "S07",
    "stateName": "Haryana",
    "districtCode": "S0716",
    "districtName": "MAHENDRAGARH",
    "acNumber": 68,
    "acName": "ATELI",
    "partNumber": 119,
    "partName": "RATA KHURD",
    "lat": 28.1006591,
    "lon": 76.2535322
  },
  {
    "partId": 33229,
    "stateCode": "S07",
    "stateName": "Haryana",
    "districtCode": "S0716",
    "districtName": "MAHENDRAGARH",
    "acNumber": 68,
    "acName": "ATELI",
    "partNumber": 120,
    "partName": "KHARIWARA",
    "lat": 28.1006591,
    "lon": 76.2535322
  },
  {
    "partId": 33230,
    "stateCode": "S07",
    "stateName": "Haryana",
    "districtCode": "S0716",
    "districtName": "MAHENDRAGARH",
    "acNumber": 68,
    "acName": "ATELI",
    "partNumber": 121,
    "partName": "MOHAMMADPUR",
    "lat": 28.2867452,
    "lon": 76.2792598
  },
  {
    "partId": 33231,
    "stateCode": "S07",
    "stateName": "Haryana",
    "districtCode": "S0716",
    "districtName": "MAHENDRAGARH",
    "acNumber": 68,
    "acName": "ATELI",
    "partNumber": 122,
    "partName": "MOHAMMADPUR",
    "lat": 28.2867452,
    "lon": 76.2792598
  },
  {
    "partId": 33232,
    "stateCode": "S07",
    "stateName": "Haryana",
    "districtCode": "S0716",
    "districtName": "MAHENDRAGARH",
    "acNumber": 68,
    "acName": "ATELI",
    "partNumber": 123,
    "partName": "ATALI",
    "lat": 28.168147,
    "lon": 76.1930526
  },
  {
    "partId": 33233,
    "stateCode": "S07",
    "stateName": "Haryana",
    "districtCode": "S0716",
    "districtName": "MAHENDRAGARH",
    "acNumber": 68,
    "acName": "ATELI",
    "partNumber": 124,
    "partName": "ATALI",
    "lat": 28.168147,
    "lon": 76.1930526
  },
  {
    "partId": 33234,
    "stateCode": "S07",
    "stateName": "Haryana",
    "districtCode": "S0716",
    "districtName": "MAHENDRAGARH",
    "acNumber": 68,
    "acName": "ATELI",
    "partNumber": 125,
    "partName": "SAGARPUR",
    "lat": 28.1364113,
    "lon": 76.1872933
  },
  {
    "partId": 33235,
    "stateCode": "S07",
    "stateName": "Haryana",
    "districtCode": "S0716",
    "districtName": "MAHENDRAGARH",
    "acNumber": 68,
    "acName": "ATELI",
    "partNumber": 126,
    "partName": "SAGARPUR",
    "lat": 28.132697049999997,
    "lon": 76.16974476260464
  },
  {
    "partId": 33236,
    "stateCode": "S07",
    "stateName": "Haryana",
    "districtCode": "S0716",
    "districtName": "MAHENDRAGARH",
    "acNumber": 68,
    "acName": "ATELI",
    "partNumber": 127,
    "partName": "SAGARPUR",
    "lat": 28.1364113,
    "lon": 76.1872933
  },
  {
    "partId": 33237,
    "stateCode": "S07",
    "stateName": "Haryana",
    "districtCode": "S0716",
    "districtName": "MAHENDRAGARH",
    "acNumber": 68,
    "acName": "ATELI",
    "partNumber": 128,
    "partName": "DULOTH-JAAT",
    "lat": 28.1006591,
    "lon": 76.2535322
  },
  {
    "partId": 33238,
    "stateCode": "S07",
    "stateName": "Haryana",
    "districtCode": "S0716",
    "districtName": "MAHENDRAGARH",
    "acNumber": 68,
    "acName": "ATELI",
    "partNumber": 129,
    "partName": "DULOTH-JAAT",
    "lat": 28.132697049999997,
    "lon": 76.16974476260464
  },
  {
    "partId": 33239,
    "stateCode": "S07",
    "stateName": "Haryana",
    "districtCode": "S0716",
    "districtName": "MAHENDRAGARH",
    "acNumber": 68,
    "acName": "ATELI",
    "partNumber": 130,
    "partName": "SILARPUR",
    "lat": 28.1515091,
    "lon": 76.2140718
  },
  {
    "partId": 33240,
    "stateCode": "S07",
    "stateName": "Haryana",
    "districtCode": "S0716",
    "districtName": "MAHENDRAGARH",
    "acNumber": 68,
    "acName": "ATELI",
    "partNumber": 131,
    "partName": "SILARPUR",
    "lat": 28.1515091,
    "lon": 76.2140718
  },
  {
    "partId": 33241,
    "stateCode": "S07",
    "stateName": "Haryana",
    "districtCode": "S0716",
    "districtName": "MAHENDRAGARH",
    "acNumber": 68,
    "acName": "ATELI",
    "partNumber": 132,
    "partName": "SILARPUR",
    "lat": 28.1515091,
    "lon": 76.2140718
  },
  {
    "partId": 33242,
    "stateCode": "S07",
    "stateName": "Haryana",
    "districtCode": "S0716",
    "districtName": "MAHENDRAGARH",
    "acNumber": 68,
    "acName": "ATELI",
    "partNumber": 133,
    "partName": "KATKAI",
    "lat": 28.1445662,
    "lon": 76.227438
  },
  {
    "partId": 33243,
    "stateCode": "S07",
    "stateName": "Haryana",
    "districtCode": "S0716",
    "districtName": "MAHENDRAGARH",
    "acNumber": 68,
    "acName": "ATELI",
    "partNumber": 134,
    "partName": "KATKAI",
    "lat": 28.1445662,
    "lon": 76.227438
  },
  {
    "partId": 33244,
    "stateCode": "S07",
    "stateName": "Haryana",
    "districtCode": "S0716",
    "districtName": "MAHENDRAGARH",
    "acNumber": 68,
    "acName": "ATELI",
    "partNumber": 135,
    "partName": "MAHASAR",
    "lat": 28.1598238,
    "lon": 76.2753332
  },
  {
    "partId": 33245,
    "stateCode": "S07",
    "stateName": "Haryana",
    "districtCode": "S0716",
    "districtName": "MAHENDRAGARH",
    "acNumber": 68,
    "acName": "ATELI",
    "partNumber": 136,
    "partName": "KARIA",
    "lat": 28.1006591,
    "lon": 76.2535322
  },
  {
    "partId": 33246,
    "stateCode": "S07",
    "stateName": "Haryana",
    "districtCode": "S0716",
    "districtName": "MAHENDRAGARH",
    "acNumber": 68,
    "acName": "ATELI",
    "partNumber": 137,
    "partName": "GARHI RUTHAL",
    "lat": 28.1006591,
    "lon": 76.2535322
  },
  {
    "partId": 33247,
    "stateCode": "S07",
    "stateName": "Haryana",
    "districtCode": "S0716",
    "districtName": "MAHENDRAGARH",
    "acNumber": 68,
    "acName": "ATELI",
    "partNumber": 138,
    "partName": "GARHI RUTHAL",
    "lat": 28.1006591,
    "lon": 76.2535322
  },
  {
    "partId": 33248,
    "stateCode": "S07",
    "stateName": "Haryana",
    "districtCode": "S0716",
    "districtName": "MAHENDRAGARH",
    "acNumber": 68,
    "acName": "ATELI",
    "partNumber": 139,
    "partName": "CHANDPURA",
    "lat": 28.1316784,
    "lon": 76.3244808
  },
  {
    "partId": 33249,
    "stateCode": "S07",
    "stateName": "Haryana",
    "districtCode": "S0716",
    "districtName": "MAHENDRAGARH",
    "acNumber": 68,
    "acName": "ATELI",
    "partNumber": 140,
    "partName": "CHANDPURA",
    "lat": 28.1316784,
    "lon": 76.3244808
  },
  {
    "partId": 33250,
    "stateCode": "S07",
    "stateName": "Haryana",
    "districtCode": "S0716",
    "districtName": "MAHENDRAGARH",
    "acNumber": 68,
    "acName": "ATELI",
    "partNumber": 141,
    "partName": "SUJAPUR",
    "lat": 28.1315972,
    "lon": 76.3151398
  },
  {
    "partId": 33251,
    "stateCode": "S07",
    "stateName": "Haryana",
    "districtCode": "S0716",
    "districtName": "MAHENDRAGARH",
    "acNumber": 68,
    "acName": "ATELI",
    "partNumber": 142,
    "partName": "BOCHARIYA",
    "lat": 28.1006591,
    "lon": 76.2535322
  },
  {
    "partId": 33252,
    "stateCode": "S07",
    "stateName": "Haryana",
    "districtCode": "S0716",
    "districtName": "MAHENDRAGARH",
    "acNumber": 68,
    "acName": "ATELI",
    "partNumber": 143,
    "partName": "BOCHARIYA",
    "lat": 28.1006591,
    "lon": 76.2535322
  },
  {
    "partId": 33253,
    "stateCode": "S07",
    "stateName": "Haryana",
    "districtCode": "S0716",
    "districtName": "MAHENDRAGARH",
    "acNumber": 68,
    "acName": "ATELI",
    "partNumber": 144,
    "partName": "HASANPUR",
    "lat": 28.1006591,
    "lon": 76.2535322
  },
  {
    "partId": 33254,
    "stateCode": "S07",
    "stateName": "Haryana",
    "districtCode": "S0716",
    "districtName": "MAHENDRAGARH",
    "acNumber": 68,
    "acName": "ATELI",
    "partNumber": 145,
    "partName": "SALIMPUR",
    "lat": 28.1280059,
    "lon": 76.2766022
  },
  {
    "partId": 33255,
    "stateCode": "S07",
    "stateName": "Haryana",
    "districtCode": "S0716",
    "districtName": "MAHENDRAGARH",
    "acNumber": 68,
    "acName": "ATELI",
    "partNumber": 146,
    "partName": "SALIMPUR",
    "lat": 28.1280059,
    "lon": 76.2766022
  },
  {
    "partId": 33256,
    "stateCode": "S07",
    "stateName": "Haryana",
    "districtCode": "S0716",
    "districtName": "MAHENDRAGARH",
    "acNumber": 68,
    "acName": "ATELI",
    "partNumber": 147,
    "partName": "GUJARWAS",
    "lat": 28.13346,
    "lon": 76.2276658
  },
  {
    "partId": 33257,
    "stateCode": "S07",
    "stateName": "Haryana",
    "districtCode": "S0716",
    "districtName": "MAHENDRAGARH",
    "acNumber": 68,
    "acName": "ATELI",
    "partNumber": 148,
    "partName": "GUJARWAS",
    "lat": 28.13346,
    "lon": 76.2276658
  },
  {
    "partId": 33258,
    "stateCode": "S07",
    "stateName": "Haryana",
    "districtCode": "S0716",
    "districtName": "MAHENDRAGARH",
    "acNumber": 68,
    "acName": "ATELI",
    "partNumber": 149,
    "partName": "BOHRI",
    "lat": 28.1006591,
    "lon": 76.2535322
  },
  {
    "partId": 33259,
    "stateCode": "S07",
    "stateName": "Haryana",
    "districtCode": "S0716",
    "districtName": "MAHENDRAGARH",
    "acNumber": 68,
    "acName": "ATELI",
    "partNumber": 150,
    "partName": "BOHRI",
    "lat": 28.1006591,
    "lon": 76.2535322
  },
  {
    "partId": 33260,
    "stateCode": "S07",
    "stateName": "Haryana",
    "districtCode": "S0716",
    "districtName": "MAHENDRAGARH",
    "acNumber": 68,
    "acName": "ATELI",
    "partNumber": 151,
    "partName": "TIGRA",
    "lat": 28.1125545,
    "lon": 76.2171676
  },
  {
    "partId": 33261,
    "stateCode": "S07",
    "stateName": "Haryana",
    "districtCode": "S0716",
    "districtName": "MAHENDRAGARH",
    "acNumber": 68,
    "acName": "ATELI",
    "partNumber": 152,
    "partName": "TIGRA",
    "lat": 28.1125545,
    "lon": 76.2171676
  },
  {
    "partId": 33262,
    "stateCode": "S07",
    "stateName": "Haryana",
    "districtCode": "S0716",
    "districtName": "MAHENDRAGARH",
    "acNumber": 68,
    "acName": "ATELI",
    "partNumber": 153,
    "partName": "TIGRA",
    "lat": 28.1125545,
    "lon": 76.2171676
  },
  {
    "partId": 33263,
    "stateCode": "S07",
    "stateName": "Haryana",
    "districtCode": "S0716",
    "districtName": "MAHENDRAGARH",
    "acNumber": 68,
    "acName": "ATELI",
    "partNumber": 154,
    "partName": "CHHAPRA SALIMPUR",
    "lat": 28.0891996,
    "lon": 76.1674849
  },
  {
    "partId": 33264,
    "stateCode": "S07",
    "stateName": "Haryana",
    "districtCode": "S0716",
    "districtName": "MAHENDRAGARH",
    "acNumber": 68,
    "acName": "ATELI",
    "partNumber": 155,
    "partName": "SURANI",
    "lat": 28.0829884,
    "lon": 76.1767799
  },
  {
    "partId": 33265,
    "stateCode": "S07",
    "stateName": "Haryana",
    "districtCode": "S0716",
    "districtName": "MAHENDRAGARH",
    "acNumber": 68,
    "acName": "ATELI",
    "partNumber": 156,
    "partName": "MIRJAPUR",
    "lat": 28.1006591,
    "lon": 76.2535322
  },
  {
    "partId": 33266,
    "stateCode": "S07",
    "stateName": "Haryana",
    "districtCode": "S0716",
    "districtName": "MAHENDRAGARH",
    "acNumber": 68,
    "acName": "ATELI",
    "partNumber": 157,
    "partName": "MIRJAPUR",
    "lat": 28.1006591,
    "lon": 76.2535322
  },
  {
    "partId": 33267,
    "stateCode": "S07",
    "stateName": "Haryana",
    "districtCode": "S0716",
    "districtName": "MAHENDRAGARH",
    "acNumber": 68,
    "acName": "ATELI",
    "partNumber": 158,
    "partName": "MIRJAPUR",
    "lat": 28.1006591,
    "lon": 76.2535322
  },
  {
    "partId": 33268,
    "stateCode": "S07",
    "stateName": "Haryana",
    "districtCode": "S0716",
    "districtName": "MAHENDRAGARH",
    "acNumber": 68,
    "acName": "ATELI",
    "partNumber": 159,
    "partName": "BACHHOD",
    "lat": 28.074319199999998,
    "lon": 76.20504535441506
  },
  {
    "partId": 33269,
    "stateCode": "S07",
    "stateName": "Haryana",
    "districtCode": "S0716",
    "districtName": "MAHENDRAGARH",
    "acNumber": 68,
    "acName": "ATELI",
    "partNumber": 160,
    "partName": "BACHHOD",
    "lat": 28.074319199999998,
    "lon": 76.20504535441506
  },
  {
    "partId": 33270,
    "stateCode": "S07",
    "stateName": "Haryana",
    "districtCode": "S0716",
    "districtName": "MAHENDRAGARH",
    "acNumber": 68,
    "acName": "ATELI",
    "partNumber": 161,
    "partName": "KHOR",
    "lat": 28.1040958,
    "lon": 76.2309716
  },
  {
    "partId": 33271,
    "stateCode": "S07",
    "stateName": "Haryana",
    "districtCode": "S0716",
    "districtName": "MAHENDRAGARH",
    "acNumber": 68,
    "acName": "ATELI",
    "partNumber": 162,
    "partName": "KHOR",
    "lat": 28.1040958,
    "lon": 76.2309716
  },
  {
    "partId": 33272,
    "stateCode": "S07",
    "stateName": "Haryana",
    "districtCode": "S0716",
    "districtName": "MAHENDRAGARH",
    "acNumber": 68,
    "acName": "ATELI",
    "partNumber": 163,
    "partName": "KHOR",
    "lat": 28.1040958,
    "lon": 76.2309716
  },
  {
    "partId": 33273,
    "stateCode": "S07",
    "stateName": "Haryana",
    "districtCode": "S0716",
    "districtName": "MAHENDRAGARH",
    "acNumber": 68,
    "acName": "ATELI",
    "partNumber": 164,
    "partName": "DHANUNDA",
    "lat": 28.1006591,
    "lon": 76.2535322
  },
  {
    "partId": 33274,
    "stateCode": "S07",
    "stateName": "Haryana",
    "districtCode": "S0716",
    "districtName": "MAHENDRAGARH",
    "acNumber": 68,
    "acName": "ATELI",
    "partNumber": 165,
    "partName": "UNINDA",
    "lat": 28.1006591,
    "lon": 76.2535322
  },
  {
    "partId": 33275,
    "stateCode": "S07",
    "stateName": "Haryana",
    "districtCode": "S0716",
    "districtName": "MAHENDRAGARH",
    "acNumber": 68,
    "acName": "ATELI",
    "partNumber": 166,
    "partName": "UNINDA",
    "lat": 28.1006591,
    "lon": 76.2535322
  },
  {
    "partId": 33276,
    "stateCode": "S07",
    "stateName": "Haryana",
    "districtCode": "S0716",
    "districtName": "MAHENDRAGARH",
    "acNumber": 68,
    "acName": "ATELI",
    "partNumber": 167,
    "partName": "BEGPUR",
    "lat": 28.1049509,
    "lon": 76.2799878
  },
  {
    "partId": 33277,
    "stateCode": "S07",
    "stateName": "Haryana",
    "districtCode": "S0716",
    "districtName": "MAHENDRAGARH",
    "acNumber": 68,
    "acName": "ATELI",
    "partNumber": 168,
    "partName": "BEGPUR",
    "lat": 28.1049509,
    "lon": 76.2799878
  },
  {
    "partId": 33278,
    "stateCode": "S07",
    "stateName": "Haryana",
    "districtCode": "S0716",
    "districtName": "MAHENDRAGARH",
    "acNumber": 68,
    "acName": "ATELI",
    "partNumber": 169,
    "partName": "BAZAR",
    "lat": 28.0386622,
    "lon": 76.1041622
  },
  {
    "partId": 33279,
    "stateCode": "S07",
    "stateName": "Haryana",
    "districtCode": "S0716",
    "districtName": "MAHENDRAGARH",
    "acNumber": 68,
    "acName": "ATELI",
    "partNumber": 170,
    "partName": "BAZAR",
    "lat": 28.0386622,
    "lon": 76.1041622
  },
  {
    "partId": 33280,
    "stateCode": "S07",
    "stateName": "Haryana",
    "districtCode": "S0716",
    "districtName": "MAHENDRAGARH",
    "acNumber": 68,
    "acName": "ATELI",
    "partNumber": 171,
    "partName": "GANIYAR",
    "lat": 28.1006591,
    "lon": 76.2535322
  },
  {
    "partId": 33281,
    "stateCode": "S07",
    "stateName": "Haryana",
    "districtCode": "S0716",
    "districtName": "MAHENDRAGARH",
    "acNumber": 68,
    "acName": "ATELI",
    "partNumber": 172,
    "partName": "GANIYAR",
    "lat": 28.1006591,
    "lon": 76.2535322
  },
  {
    "partId": 33282,
    "stateCode": "S07",
    "stateName": "Haryana",
    "districtCode": "S0716",
    "districtName": "MAHENDRAGARH",
    "acNumber": 68,
    "acName": "ATELI",
    "partNumber": 173,
    "partName": "GANIYAR",
    "lat": 28.1006591,
    "lon": 76.2535322
  },
  {
    "partId": 33283,
    "stateCode": "S07",
    "stateName": "Haryana",
    "districtCode": "S0716",
    "districtName": "MAHENDRAGARH",
    "acNumber": 68,
    "acName": "ATELI",
    "partNumber": 174,
    "partName": "ATELI",
    "lat": 28.1006591,
    "lon": 76.2535322
  },
  {
    "partId": 33284,
    "stateCode": "S07",
    "stateName": "Haryana",
    "districtCode": "S0716",
    "districtName": "MAHENDRAGARH",
    "acNumber": 68,
    "acName": "ATELI",
    "partNumber": 175,
    "partName": "ATELI",
    "lat": 28.1006591,
    "lon": 76.2535322
  },
  {
    "partId": 33285,
    "stateCode": "S07",
    "stateName": "Haryana",
    "districtCode": "S0716",
    "districtName": "MAHENDRAGARH",
    "acNumber": 68,
    "acName": "ATELI",
    "partNumber": 176,
    "partName": "ATELI MANDI",
    "lat": 28.1036988,
    "lon": 76.2581823
  },
  {
    "partId": 33286,
    "stateCode": "S07",
    "stateName": "Haryana",
    "districtCode": "S0716",
    "districtName": "MAHENDRAGARH",
    "acNumber": 68,
    "acName": "ATELI",
    "partNumber": 177,
    "partName": "ATELI MANDI",
    "lat": 28.1036988,
    "lon": 76.2581823
  },
  {
    "partId": 33287,
    "stateCode": "S07",
    "stateName": "Haryana",
    "districtCode": "S0716",
    "districtName": "MAHENDRAGARH",
    "acNumber": 68,
    "acName": "ATELI",
    "partNumber": 178,
    "partName": "ATELI MANDI",
    "lat": 28.1036988,
    "lon": 76.2581823
  },
  {
    "partId": 33288,
    "stateCode": "S07",
    "stateName": "Haryana",
    "districtCode": "S0716",
    "districtName": "MAHENDRAGARH",
    "acNumber": 68,
    "acName": "ATELI",
    "partNumber": 179,
    "partName": "ATELI MANDI",
    "lat": 28.1036988,
    "lon": 76.2581823
  },
  {
    "partId": 33289,
    "stateCode": "S07",
    "stateName": "Haryana",
    "districtCode": "S0716",
    "districtName": "MAHENDRAGARH",
    "acNumber": 68,
    "acName": "ATELI",
    "partNumber": 180,
    "partName": "ATELI MANDI",
    "lat": 28.1036988,
    "lon": 76.2581823
  },
  {
    "partId": 33290,
    "stateCode": "S07",
    "stateName": "Haryana",
    "districtCode": "S0716",
    "districtName": "MAHENDRAGARH",
    "acNumber": 68,
    "acName": "ATELI",
    "partNumber": 181,
    "partName": "TOBRA",
    "lat": 28.0970035,
    "lon": 76.2399172
  },
  {
    "partId": 33291,
    "stateCode": "S07",
    "stateName": "Haryana",
    "districtCode": "S0716",
    "districtName": "MAHENDRAGARH",
    "acNumber": 68,
    "acName": "ATELI",
    "partNumber": 182,
    "partName": "FATEHPUR",
    "lat": 28.1006591,
    "lon": 76.2535322
  },
  {
    "partId": 33292,
    "stateCode": "S07",
    "stateName": "Haryana",
    "districtCode": "S0716",
    "districtName": "MAHENDRAGARH",
    "acNumber": 68,
    "acName": "ATELI",
    "partNumber": 183,
    "partName": "BHILWARA",
    "lat": 28.0795918,
    "lon": 76.2165066
  },
  {
    "partId": 33293,
    "stateCode": "S07",
    "stateName": "Haryana",
    "districtCode": "S0716",
    "districtName": "MAHENDRAGARH",
    "acNumber": 68,
    "acName": "ATELI",
    "partNumber": 184,
    "partName": "BHILWARA",
    "lat": 28.0795918,
    "lon": 76.2165066
  },
  {
    "partId": 33294,
    "stateCode": "S07",
    "stateName": "Haryana",
    "districtCode": "S0716",
    "districtName": "MAHENDRAGARH",
    "acNumber": 68,
    "acName": "ATELI",
    "partNumber": 185,
    "partName": "SARAI BAHADUR NAGAR",
    "lat": 28.1006591,
    "lon": 76.2535322
  },
  {
    "partId": 33295,
    "stateCode": "S07",
    "stateName": "Haryana",
    "districtCode": "S0716",
    "districtName": "MAHENDRAGARH",
    "acNumber": 68,
    "acName": "ATELI",
    "partNumber": 186,
    "partName": "TAJPUR",
    "lat": 28.0864223,
    "lon": 76.2312192
  },
  {
    "partId": 33296,
    "stateCode": "S07",
    "stateName": "Haryana",
    "districtCode": "S0716",
    "districtName": "MAHENDRAGARH",
    "acNumber": 68,
    "acName": "ATELI",
    "partNumber": 187,
    "partName": "TAJPUR",
    "lat": 28.0864223,
    "lon": 76.2312192
  },
  {
    "partId": 33297,
    "stateCode": "S07",
    "stateName": "Haryana",
    "districtCode": "S0716",
    "districtName": "MAHENDRAGARH",
    "acNumber": 68,
    "acName": "ATELI",
    "partNumber": 188,
    "partName": "TAJPUR",
    "lat": 28.0864223,
    "lon": 76.2312192
  },
  {
    "partId": 33298,
    "stateCode": "S07",
    "stateName": "Haryana",
    "districtCode": "S0716",
    "districtName": "MAHENDRAGARH",
    "acNumber": 68,
    "acName": "ATELI",
    "partNumber": 189,
    "partName": "NANGAL",
    "lat": 28.2822754,
    "lon": 76.2765511
  },
  {
    "partId": 33299,
    "stateCode": "S07",
    "stateName": "Haryana",
    "districtCode": "S0716",
    "districtName": "MAHENDRAGARH",
    "acNumber": 68,
    "acName": "ATELI",
    "partNumber": 190,
    "partName": "NANGAL",
    "lat": 28.2822754,
    "lon": 76.2765511
  },
  {
    "partId": 33300,
    "stateCode": "S07",
    "stateName": "Haryana",
    "districtCode": "S0716",
    "districtName": "MAHENDRAGARH",
    "acNumber": 68,
    "acName": "ATELI",
    "partNumber": 191,
    "partName": "SAIDPUR",
    "lat": 28.0933219,
    "lon": 76.2675273
  },
  {
    "partId": 33301,
    "stateCode": "S07",
    "stateName": "Haryana",
    "districtCode": "S0716",
    "districtName": "MAHENDRAGARH",
    "acNumber": 68,
    "acName": "ATELI",
    "partNumber": 192,
    "partName": "SAIDPUR",
    "lat": 28.0933219,
    "lon": 76.2675273
  },
  {
    "partId": 33302,
    "stateCode": "S07",
    "stateName": "Haryana",
    "districtCode": "S0716",
    "districtName": "MAHENDRAGARH",
    "acNumber": 68,
    "acName": "ATELI",
    "partNumber": 193,
    "partName": "SAIDPUR",
    "lat": 28.0933219,
    "lon": 76.2675273
  },
  {
    "partId": 33303,
    "stateCode": "S07",
    "stateName": "Haryana",
    "districtCode": "S0716",
    "districtName": "MAHENDRAGARH",
    "acNumber": 68,
    "acName": "ATELI",
    "partNumber": 194,
    "partName": "RAMPURA",
    "lat": 28.1380283,
    "lon": 76.1240673
  },
  {
    "partId": 33304,
    "stateCode": "S07",
    "stateName": "Haryana",
    "districtCode": "S0716",
    "districtName": "MAHENDRAGARH",
    "acNumber": 68,
    "acName": "ATELI",
    "partNumber": 195,
    "partName": "RAMPURA",
    "lat": 28.1380283,
    "lon": 76.1240673
  },
  {
    "partId": 33305,
    "stateCode": "S07",
    "stateName": "Haryana",
    "districtCode": "S0716",
    "districtName": "MAHENDRAGARH",
    "acNumber": 68,
    "acName": "ATELI",
    "partNumber": 196,
    "partName": "BIHALI",
    "lat": 28.0786609,
    "lon": 76.2884905
  },
  {
    "partId": 33306,
    "stateCode": "S07",
    "stateName": "Haryana",
    "districtCode": "S0716",
    "districtName": "MAHENDRAGARH",
    "acNumber": 68,
    "acName": "ATELI",
    "partNumber": 197,
    "partName": "BIHALI",
    "lat": 28.0786609,
    "lon": 76.2884905
  },
  {
    "partId": 33307,
    "stateCode": "S07",
    "stateName": "Haryana",
    "districtCode": "S0716",
    "districtName": "MAHENDRAGARH",
    "acNumber": 68,
    "acName": "ATELI",
    "partNumber": 198,
    "partName": "BIHALI",
    "lat": 28.132697049999997,
    "lon": 76.16974476260464
  },
  {
    "partId": 33308,
    "stateCode": "S07",
    "stateName": "Haryana",
    "districtCode": "S0716",
    "districtName": "MAHENDRAGARH",
    "acNumber": 68,
    "acName": "ATELI",
    "partNumber": 199,
    "partName": "BIHALI",
    "lat": 28.0786609,
    "lon": 76.2884905
  },
  {
    "partId": 33309,
    "stateCode": "S07",
    "stateName": "Haryana",
    "districtCode": "S0716",
    "districtName": "MAHENDRAGARH",
    "acNumber": 68,
    "acName": "ATELI",
    "partNumber": 200,
    "partName": "NEERPUR",
    "lat": 28.1006591,
    "lon": 76.2535322
  },
  {
    "partId": 33310,
    "stateCode": "S07",
    "stateName": "Haryana",
    "districtCode": "S0716",
    "districtName": "MAHENDRAGARH",
    "acNumber": 68,
    "acName": "ATELI",
    "partNumber": 201,
    "partName": "PRITHVIPURA",
    "lat": 28.1006591,
    "lon": 76.2535322
  },
  {
    "partId": 33311,
    "stateCode": "S07",
    "stateName": "Haryana",
    "districtCode": "S0716",
    "districtName": "MAHENDRAGARH",
    "acNumber": 68,
    "acName": "ATELI",
    "partNumber": 202,
    "partName": "PRITHVIPURA",
    "lat": 28.1006591,
    "lon": 76.2535322
  },
  {
    "partId": 33312,
    "stateCode": "S07",
    "stateName": "Haryana",
    "districtCode": "S0716",
    "districtName": "MAHENDRAGARH",
    "acNumber": 68,
    "acName": "ATELI",
    "partNumber": 203,
    "partName": "RAJPURA",
    "lat": 28.1006591,
    "lon": 76.2535322
  },
  {
    "partId": 33313,
    "stateCode": "S07",
    "stateName": "Haryana",
    "districtCode": "S0716",
    "districtName": "MAHENDRAGARH",
    "acNumber": 68,
    "acName": "ATELI",
    "partNumber": 204,
    "partName": "RAJPURA",
    "lat": 28.1006591,
    "lon": 76.2535322
  },
  {
    "partId": 33314,
    "stateCode": "S07",
    "stateName": "Haryana",
    "districtCode": "S0716",
    "districtName": "MAHENDRAGARH",
    "acNumber": 68,
    "acName": "ATELI",
    "partNumber": 205,
    "partName": "KUNJPURA",
    "lat": 28.0533046,
    "lon": 76.2129311
  },
  {
    "partId": 33315,
    "stateCode": "S07",
    "stateName": "Haryana",
    "districtCode": "S0716",
    "districtName": "MAHENDRAGARH",
    "acNumber": 68,
    "acName": "ATELI",
    "partNumber": 206,
    "partName": "KUNJPURA",
    "lat": 28.0533046,
    "lon": 76.2129311
  },
  {
    "partId": 33316,
    "stateCode": "S07",
    "stateName": "Haryana",
    "districtCode": "S0716",
    "districtName": "MAHENDRAGARH",
    "acNumber": 68,
    "acName": "ATELI",
    "partNumber": 207,
    "partName": "KANTI",
    "lat": 28.0480875,
    "lon": 76.3065111
  },
  {
    "partId": 33317,
    "stateCode": "S07",
    "stateName": "Haryana",
    "districtCode": "S0716",
    "districtName": "MAHENDRAGARH",
    "acNumber": 68,
    "acName": "ATELI",
    "partNumber": 208,
    "partName": "KANTI",
    "lat": 28.132697049999997,
    "lon": 76.16974476260464
  },
  {
    "partId": 33318,
    "stateCode": "S07",
    "stateName": "Haryana",
    "districtCode": "S0716",
    "districtName": "MAHENDRAGARH",
    "acNumber": 68,
    "acName": "ATELI",
    "partNumber": 209,
    "partName": "KANTI",
    "lat": 28.0480875,
    "lon": 76.3065111
  },
  {
    "partId": 33319,
    "stateCode": "S07",
    "stateName": "Haryana",
    "districtCode": "S0716",
    "districtName": "MAHENDRAGARH",
    "acNumber": 68,
    "acName": "ATELI",
    "partNumber": 210,
    "partName": "KANTI",
    "lat": 28.0480875,
    "lon": 76.3065111
  },
  {
    "partId": 33320,
    "stateCode": "S07",
    "stateName": "Haryana",
    "districtCode": "S0716",
    "districtName": "MAHENDRAGARH",
    "acNumber": 68,
    "acName": "ATELI",
    "partNumber": 211,
    "partName": "NAWADI",
    "lat": 28.1006591,
    "lon": 76.2535322
  },
  {
    "partId": 33321,
    "stateCode": "S07",
    "stateName": "Haryana",
    "districtCode": "S0716",
    "districtName": "MAHENDRAGARH",
    "acNumber": 68,
    "acName": "ATELI",
    "partNumber": 212,
    "partName": "NAWADI",
    "lat": 28.1006591,
    "lon": 76.2535322
  },
  {
    "partId": 33322,
    "stateCode": "S07",
    "stateName": "Haryana",
    "districtCode": "S0716",
    "districtName": "MAHENDRAGARH",
    "acNumber": 68,
    "acName": "ATELI",
    "partNumber": 213,
    "partName": "KHERI",
    "lat": 28.04814,
    "lon": 76.3409084
  },
  {
    "partId": 33323,
    "stateCode": "S07",
    "stateName": "Haryana",
    "districtCode": "S0716",
    "districtName": "MAHENDRAGARH",
    "acNumber": 68,
    "acName": "ATELI",
    "partNumber": 214,
    "partName": "KHERI",
    "lat": 28.04814,
    "lon": 76.3409084
  },
  {
    "partId": 33324,
    "stateCode": "S07",
    "stateName": "Haryana",
    "districtCode": "S0716",
    "districtName": "MAHENDRAGARH",
    "acNumber": 68,
    "acName": "ATELI",
    "partNumber": 215,
    "partName": "KHERI",
    "lat": 28.04814,
    "lon": 76.3409084
  },
  {
    "partId": 22221,
    "stateCode": "S07",
    "stateName": "Haryana",
    "districtCode": "S0716",
    "districtName": "MAHENDRAGARH",
    "acNumber": 69,
    "acName": "MAHENDRAGARH",
    "partNumber": 1,
    "partName": "SHYAMPURA",
    "lat": 28.4266925,
    "lon": 75.9417468
  },
  {
    "partId": 22222,
    "stateCode": "S07",
    "stateName": "Haryana",
    "districtCode": "S0716",
    "districtName": "MAHENDRAGARH",
    "acNumber": 69,
    "acName": "MAHENDRAGARH",
    "partNumber": 2,
    "partName": "SHYAMPURA",
    "lat": 28.4266925,
    "lon": 75.9417468
  },
  {
    "partId": 25844,
    "stateCode": "S07",
    "stateName": "Haryana",
    "districtCode": "S0716",
    "districtName": "MAHENDRAGARH",
    "acNumber": 69,
    "acName": "MAHENDRAGARH",
    "partNumber": 3,
    "partName": "SHYAMPURA",
    "lat": 28.4266925,
    "lon": 75.9417468
  },
  {
    "partId": 22223,
    "stateCode": "S07",
    "stateName": "Haryana",
    "districtCode": "S0716",
    "districtName": "MAHENDRAGARH",
    "acNumber": 69,
    "acName": "MAHENDRAGARH",
    "partNumber": 4,
    "partName": "JARWA",
    "lat": 28.4018227,
    "lon": 75.9578061
  },
  {
    "partId": 25845,
    "stateCode": "S07",
    "stateName": "Haryana",
    "districtCode": "S0716",
    "districtName": "MAHENDRAGARH",
    "acNumber": 69,
    "acName": "MAHENDRAGARH",
    "partNumber": 5,
    "partName": "JARWA",
    "lat": 28.4018227,
    "lon": 75.9578061
  },
  {
    "partId": 22224,
    "stateCode": "S07",
    "stateName": "Haryana",
    "districtCode": "S0716",
    "districtName": "MAHENDRAGARH",
    "acNumber": 69,
    "acName": "MAHENDRAGARH",
    "partNumber": 6,
    "partName": "BASARI",
    "lat": 28.25,
    "lon": 76.166667
  },
  {
    "partId": 22225,
    "stateCode": "S07",
    "stateName": "Haryana",
    "districtCode": "S0716",
    "districtName": "MAHENDRAGARH",
    "acNumber": 69,
    "acName": "MAHENDRAGARH",
    "partNumber": 7,
    "partName": "SOHRI",
    "lat": 28.25,
    "lon": 76.166667
  },
  {
    "partId": 25846,
    "stateCode": "S07",
    "stateName": "Haryana",
    "districtCode": "S0716",
    "districtName": "MAHENDRAGARH",
    "acNumber": 69,
    "acName": "MAHENDRAGARH",
    "partNumber": 8,
    "partName": "SATNALI",
    "lat": 28.3759455,
    "lon": 75.9642761
  },
  {
    "partId": 22226,
    "stateCode": "S07",
    "stateName": "Haryana",
    "districtCode": "S0716",
    "districtName": "MAHENDRAGARH",
    "acNumber": 69,
    "acName": "MAHENDRAGARH",
    "partNumber": 9,
    "partName": "SATNALI",
    "lat": 28.3759455,
    "lon": 75.9642761
  },
  {
    "partId": 25847,
    "stateCode": "S07",
    "stateName": "Haryana",
    "districtCode": "S0716",
    "districtName": "MAHENDRAGARH",
    "acNumber": 69,
    "acName": "MAHENDRAGARH",
    "partNumber": 10,
    "partName": "SATNALI",
    "lat": 28.3759455,
    "lon": 75.9642761
  },
  {
    "partId": 25848,
    "stateCode": "S07",
    "stateName": "Haryana",
    "districtCode": "S0716",
    "districtName": "MAHENDRAGARH",
    "acNumber": 69,
    "acName": "MAHENDRAGARH",
    "partNumber": 11,
    "partName": "SATNALI",
    "lat": 28.3759455,
    "lon": 75.9642761
  },
  {
    "partId": 22227,
    "stateCode": "S07",
    "stateName": "Haryana",
    "districtCode": "S0716",
    "districtName": "MAHENDRAGARH",
    "acNumber": 69,
    "acName": "MAHENDRAGARH",
    "partNumber": 12,
    "partName": "SATNALI",
    "lat": 28.3759455,
    "lon": 75.9642761
  },
  {
    "partId": 25849,
    "stateCode": "S07",
    "stateName": "Haryana",
    "districtCode": "S0716",
    "districtName": "MAHENDRAGARH",
    "acNumber": 69,
    "acName": "MAHENDRAGARH",
    "partNumber": 13,
    "partName": "SATNALI",
    "lat": 28.3759455,
    "lon": 75.9642761
  },
  {
    "partId": 22228,
    "stateCode": "S07",
    "stateName": "Haryana",
    "districtCode": "S0716",
    "districtName": "MAHENDRAGARH",
    "acNumber": 69,
    "acName": "MAHENDRAGARH",
    "partNumber": 14,
    "partName": "SATNALI",
    "lat": 28.3759455,
    "lon": 75.9642761
  },
  {
    "partId": 22229,
    "stateCode": "S07",
    "stateName": "Haryana",
    "districtCode": "S0716",
    "districtName": "MAHENDRAGARH",
    "acNumber": 69,
    "acName": "MAHENDRAGARH",
    "partNumber": 15,
    "partName": "PATHRWA",
    "lat": 28.25,
    "lon": 76.166667
  },
  {
    "partId": 25850,
    "stateCode": "S07",
    "stateName": "Haryana",
    "districtCode": "S0716",
    "districtName": "MAHENDRAGARH",
    "acNumber": 69,
    "acName": "MAHENDRAGARH",
    "partNumber": 16,
    "partName": "DHANI KUMHARAN",
    "lat": 28.25,
    "lon": 76.166667
  },
  {
    "partId": 22230,
    "stateCode": "S07",
    "stateName": "Haryana",
    "districtCode": "S0716",
    "districtName": "MAHENDRAGARH",
    "acNumber": 69,
    "acName": "MAHENDRAGARH",
    "partNumber": 17,
    "partName": "PATHRWA",
    "lat": 28.25,
    "lon": 76.166667
  },
  {
    "partId": 25851,
    "stateCode": "S07",
    "stateName": "Haryana",
    "districtCode": "S0716",
    "districtName": "MAHENDRAGARH",
    "acNumber": 69,
    "acName": "MAHENDRAGARH",
    "partNumber": 18,
    "partName": "PATHRWA",
    "lat": 28.25,
    "lon": 76.166667
  },
  {
    "partId": 25852,
    "stateCode": "S07",
    "stateName": "Haryana",
    "districtCode": "S0716",
    "districtName": "MAHENDRAGARH",
    "acNumber": 69,
    "acName": "MAHENDRAGARH",
    "partNumber": 19,
    "partName": "NANGLA",
    "lat": 28.3768088,
    "lon": 75.9085471
  },
  {
    "partId": 22231,
    "stateCode": "S07",
    "stateName": "Haryana",
    "districtCode": "S0716",
    "districtName": "MAHENDRAGARH",
    "acNumber": 69,
    "acName": "MAHENDRAGARH",
    "partNumber": 20,
    "partName": "BAS",
    "lat": 28.0639901,
    "lon": 76.3056052
  },
  {
    "partId": 25853,
    "stateCode": "S07",
    "stateName": "Haryana",
    "districtCode": "S0716",
    "districtName": "MAHENDRAGARH",
    "acNumber": 69,
    "acName": "MAHENDRAGARH",
    "partNumber": 21,
    "partName": "BAS",
    "lat": 28.0639901,
    "lon": 76.3056052
  },
  {
    "partId": 22232,
    "stateCode": "S07",
    "stateName": "Haryana",
    "districtCode": "S0716",
    "districtName": "MAHENDRAGARH",
    "acNumber": 69,
    "acName": "MAHENDRAGARH",
    "partNumber": 22,
    "partName": "BIRSINGH BAS",
    "lat": 28.25,
    "lon": 76.166667
  },
  {
    "partId": 23039,
    "stateCode": "S07",
    "stateName": "Haryana",
    "districtCode": "S0716",
    "districtName": "MAHENDRAGARH",
    "acNumber": 69,
    "acName": "MAHENDRAGARH",
    "partNumber": 23,
    "partName": "NAWAN",
    "lat": 28.25,
    "lon": 76.166667
  },
  {
    "partId": 24540,
    "stateCode": "S07",
    "stateName": "Haryana",
    "districtCode": "S0716",
    "districtName": "MAHENDRAGARH",
    "acNumber": 69,
    "acName": "MAHENDRAGARH",
    "partNumber": 24,
    "partName": "NAWAN",
    "lat": 28.25,
    "lon": 76.166667
  },
  {
    "partId": 23040,
    "stateCode": "S07",
    "stateName": "Haryana",
    "districtCode": "S0716",
    "districtName": "MAHENDRAGARH",
    "acNumber": 69,
    "acName": "MAHENDRAGARH",
    "partNumber": 25,
    "partName": "NAWAN",
    "lat": 28.25,
    "lon": 76.166667
  },
  {
    "partId": 24541,
    "stateCode": "S07",
    "stateName": "Haryana",
    "districtCode": "S0716",
    "districtName": "MAHENDRAGARH",
    "acNumber": 69,
    "acName": "MAHENDRAGARH",
    "partNumber": 26,
    "partName": "NANGAL MALA",
    "lat": 28.3721975,
    "lon": 76.069352
  },
  {
    "partId": 24952,
    "stateCode": "S07",
    "stateName": "Haryana",
    "districtCode": "S0716",
    "districtName": "MAHENDRAGARH",
    "acNumber": 69,
    "acName": "MAHENDRAGARH",
    "partNumber": 27,
    "partName": "KHUDANA",
    "lat": 28.4066647,
    "lon": 76.118943
  },
  {
    "partId": 23041,
    "stateCode": "S07",
    "stateName": "Haryana",
    "districtCode": "S0716",
    "districtName": "MAHENDRAGARH",
    "acNumber": 69,
    "acName": "MAHENDRAGARH",
    "partNumber": 28,
    "partName": "KHUDANA",
    "lat": 28.4066647,
    "lon": 76.118943
  },
  {
    "partId": 24953,
    "stateCode": "S07",
    "stateName": "Haryana",
    "districtCode": "S0716",
    "districtName": "MAHENDRAGARH",
    "acNumber": 69,
    "acName": "MAHENDRAGARH",
    "partNumber": 29,
    "partName": "KHUDANA",
    "lat": 28.4066647,
    "lon": 76.118943
  },
  {
    "partId": 23042,
    "stateCode": "S07",
    "stateName": "Haryana",
    "districtCode": "S0716",
    "districtName": "MAHENDRAGARH",
    "acNumber": 69,
    "acName": "MAHENDRAGARH",
    "partNumber": 30,
    "partName": "KHUDANA",
    "lat": 28.4066647,
    "lon": 76.118943
  },
  {
    "partId": 23043,
    "stateCode": "S07",
    "stateName": "Haryana",
    "districtCode": "S0716",
    "districtName": "MAHENDRAGARH",
    "acNumber": 69,
    "acName": "MAHENDRAGARH",
    "partNumber": 31,
    "partName": "KHUDANA",
    "lat": 28.4066647,
    "lon": 76.118943
  },
  {
    "partId": 24954,
    "stateCode": "S07",
    "stateName": "Haryana",
    "districtCode": "S0716",
    "districtName": "MAHENDRAGARH",
    "acNumber": 69,
    "acName": "MAHENDRAGARH",
    "partNumber": 32,
    "partName": "KHUDANA",
    "lat": 28.132697049999997,
    "lon": 76.16974476260464
  },
  {
    "partId": 23044,
    "stateCode": "S07",
    "stateName": "Haryana",
    "districtCode": "S0716",
    "districtName": "MAHENDRAGARH",
    "acNumber": 69,
    "acName": "MAHENDRAGARH",
    "partNumber": 33,
    "partName": "GARHI",
    "lat": 28.1611433,
    "lon": 76.2641403
  },
  {
    "partId": 23769,
    "stateCode": "S07",
    "stateName": "Haryana",
    "districtCode": "S0716",
    "districtName": "MAHENDRAGARH",
    "acNumber": 69,
    "acName": "MAHENDRAGARH",
    "partNumber": 34,
    "partName": "GARHI",
    "lat": 28.1611433,
    "lon": 76.2641403
  },
  {
    "partId": 26221,
    "stateCode": "S07",
    "stateName": "Haryana",
    "districtCode": "S0716",
    "districtName": "MAHENDRAGARH",
    "acNumber": 69,
    "acName": "MAHENDRAGARH",
    "partNumber": 35,
    "partName": "KHARKHARA (AKODA)",
    "lat": 28.25,
    "lon": 76.166667
  },
  {
    "partId": 25609,
    "stateCode": "S07",
    "stateName": "Haryana",
    "districtCode": "S0716",
    "districtName": "MAHENDRAGARH",
    "acNumber": 69,
    "acName": "MAHENDRAGARH",
    "partNumber": 36,
    "partName": "KHARKHARA (AKODA)",
    "lat": 28.25,
    "lon": 76.166667
  },
  {
    "partId": 26222,
    "stateCode": "S07",
    "stateName": "Haryana",
    "districtCode": "S0716",
    "districtName": "MAHENDRAGARH",
    "acNumber": 69,
    "acName": "MAHENDRAGARH",
    "partNumber": 37,
    "partName": "KHARKHARA (AKODA)",
    "lat": 28.25,
    "lon": 76.166667
  },
  {
    "partId": 25610,
    "stateCode": "S07",
    "stateName": "Haryana",
    "districtCode": "S0716",
    "districtName": "MAHENDRAGARH",
    "acNumber": 69,
    "acName": "MAHENDRAGARH",
    "partNumber": 38,
    "partName": "BASAI",
    "lat": 28.4087318,
    "lon": 76.1738869
  },
  {
    "partId": 25611,
    "stateCode": "S07",
    "stateName": "Haryana",
    "districtCode": "S0716",
    "districtName": "MAHENDRAGARH",
    "acNumber": 69,
    "acName": "MAHENDRAGARH",
    "partNumber": 39,
    "partName": "BASAI",
    "lat": 28.4087318,
    "lon": 76.1738869
  },
  {
    "partId": 26223,
    "stateCode": "S07",
    "stateName": "Haryana",
    "districtCode": "S0716",
    "districtName": "MAHENDRAGARH",
    "acNumber": 69,
    "acName": "MAHENDRAGARH",
    "partNumber": 40,
    "partName": "BASAI",
    "lat": 28.4087318,
    "lon": 76.1738869
  },
  {
    "partId": 25612,
    "stateCode": "S07",
    "stateName": "Haryana",
    "districtCode": "S0716",
    "districtName": "MAHENDRAGARH",
    "acNumber": 69,
    "acName": "MAHENDRAGARH",
    "partNumber": 41,
    "partName": "BASAI",
    "lat": 28.4087318,
    "lon": 76.1738869
  },
  {
    "partId": 26224,
    "stateCode": "S07",
    "stateName": "Haryana",
    "districtCode": "S0716",
    "districtName": "MAHENDRAGARH",
    "acNumber": 69,
    "acName": "MAHENDRAGARH",
    "partNumber": 42,
    "partName": "BASAI",
    "lat": 28.4087318,
    "lon": 76.1738869
  },
  {
    "partId": 26225,
    "stateCode": "S07",
    "stateName": "Haryana",
    "districtCode": "S0716",
    "districtName": "MAHENDRAGARH",
    "acNumber": 69,
    "acName": "MAHENDRAGARH",
    "partNumber": 43,
    "partName": "BAWANA",
    "lat": 28.3721694,
    "lon": 76.1850179
  },
  {
    "partId": 25613,
    "stateCode": "S07",
    "stateName": "Haryana",
    "districtCode": "S0716",
    "districtName": "MAHENDRAGARH",
    "acNumber": 69,
    "acName": "MAHENDRAGARH",
    "partNumber": 44,
    "partName": "BAWANA",
    "lat": 28.3721694,
    "lon": 76.1850179
  },
  {
    "partId": 26226,
    "stateCode": "S07",
    "stateName": "Haryana",
    "districtCode": "S0716",
    "districtName": "MAHENDRAGARH",
    "acNumber": 69,
    "acName": "MAHENDRAGARH",
    "partNumber": 45,
    "partName": "BHURJAT",
    "lat": 28.25,
    "lon": 76.166667
  },
  {
    "partId": 25614,
    "stateCode": "S07",
    "stateName": "Haryana",
    "districtCode": "S0716",
    "districtName": "MAHENDRAGARH",
    "acNumber": 69,
    "acName": "MAHENDRAGARH",
    "partNumber": 46,
    "partName": "AADALPUR",
    "lat": 28.25,
    "lon": 76.166667
  },
  {
    "partId": 25615,
    "stateCode": "S07",
    "stateName": "Haryana",
    "districtCode": "S0716",
    "districtName": "MAHENDRAGARH",
    "acNumber": 69,
    "acName": "MAHENDRAGARH",
    "partNumber": 47,
    "partName": "DHIGROTA",
    "lat": 28.25,
    "lon": 76.166667
  },
  {
    "partId": 26227,
    "stateCode": "S07",
    "stateName": "Haryana",
    "districtCode": "S0716",
    "districtName": "MAHENDRAGARH",
    "acNumber": 69,
    "acName": "MAHENDRAGARH",
    "partNumber": 48,
    "partName": "DHIGROTA",
    "lat": 28.25,
    "lon": 76.166667
  },
  {
    "partId": 20134,
    "stateCode": "S07",
    "stateName": "Haryana",
    "districtCode": "S0716",
    "districtName": "MAHENDRAGARH",
    "acNumber": 69,
    "acName": "MAHENDRAGARH",
    "partNumber": 49,
    "partName": "DHIGROTA",
    "lat": 28.25,
    "lon": 76.166667
  },
  {
    "partId": 21410,
    "stateCode": "S07",
    "stateName": "Haryana",
    "districtCode": "S0716",
    "districtName": "MAHENDRAGARH",
    "acNumber": 69,
    "acName": "MAHENDRAGARH",
    "partNumber": 50,
    "partName": "SURETI JAKHAR",
    "lat": 28.25,
    "lon": 76.166667
  },
  {
    "partId": 21467,
    "stateCode": "S07",
    "stateName": "Haryana",
    "districtCode": "S0716",
    "districtName": "MAHENDRAGARH",
    "acNumber": 69,
    "acName": "MAHENDRAGARH",
    "partNumber": 51,
    "partName": "SURETI JAKHAR",
    "lat": 28.25,
    "lon": 76.166667
  },
  {
    "partId": 20794,
    "stateCode": "S07",
    "stateName": "Haryana",
    "districtCode": "S0716",
    "districtName": "MAHENDRAGARH",
    "acNumber": 69,
    "acName": "MAHENDRAGARH",
    "partNumber": 52,
    "partName": "SURETI MODIYAN",
    "lat": 28.25,
    "lon": 76.166667
  },
  {
    "partId": 21468,
    "stateCode": "S07",
    "stateName": "Haryana",
    "districtCode": "S0716",
    "districtName": "MAHENDRAGARH",
    "acNumber": 69,
    "acName": "MAHENDRAGARH",
    "partNumber": 53,
    "partName": "DHANA",
    "lat": 28.2581129,
    "lon": 76.3109347
  },
  {
    "partId": 20795,
    "stateCode": "S07",
    "stateName": "Haryana",
    "districtCode": "S0716",
    "districtName": "MAHENDRAGARH",
    "acNumber": 69,
    "acName": "MAHENDRAGARH",
    "partNumber": 54,
    "partName": "SURETI PILANIA",
    "lat": 28.132697049999997,
    "lon": 76.16974476260464
  },
  {
    "partId": 21469,
    "stateCode": "S07",
    "stateName": "Haryana",
    "districtCode": "S0716",
    "districtName": "MAHENDRAGARH",
    "acNumber": 69,
    "acName": "MAHENDRAGARH",
    "partNumber": 55,
    "partName": "SURETI PILANIA",
    "lat": 28.25,
    "lon": 76.166667
  },
  {
    "partId": 21470,
    "stateCode": "S07",
    "stateName": "Haryana",
    "districtCode": "S0716",
    "districtName": "MAHENDRAGARH",
    "acNumber": 69,
    "acName": "MAHENDRAGARH",
    "partNumber": 56,
    "partName": "BARDA",
    "lat": 28.25,
    "lon": 76.166667
  },
  {
    "partId": 20796,
    "stateCode": "S07",
    "stateName": "Haryana",
    "districtCode": "S0716",
    "districtName": "MAHENDRAGARH",
    "acNumber": 69,
    "acName": "MAHENDRAGARH",
    "partNumber": 57,
    "partName": "BARDA",
    "lat": 28.25,
    "lon": 76.166667
  },
  {
    "partId": 21471,
    "stateCode": "S07",
    "stateName": "Haryana",
    "districtCode": "S0716",
    "districtName": "MAHENDRAGARH",
    "acNumber": 69,
    "acName": "MAHENDRAGARH",
    "partNumber": 58,
    "partName": "BARDA",
    "lat": 28.25,
    "lon": 76.166667
  },
  {
    "partId": 20797,
    "stateCode": "S07",
    "stateName": "Haryana",
    "districtCode": "S0716",
    "districtName": "MAHENDRAGARH",
    "acNumber": 69,
    "acName": "MAHENDRAGARH",
    "partNumber": 59,
    "partName": "MANDOLA",
    "lat": 28.3397862,
    "lon": 76.0775699
  },
  {
    "partId": 20798,
    "stateCode": "S07",
    "stateName": "Haryana",
    "districtCode": "S0716",
    "districtName": "MAHENDRAGARH",
    "acNumber": 69,
    "acName": "MAHENDRAGARH",
    "partNumber": 60,
    "partName": "MANDOLA",
    "lat": 28.3397862,
    "lon": 76.0775699
  },
  {
    "partId": 21472,
    "stateCode": "S07",
    "stateName": "Haryana",
    "districtCode": "S0716",
    "districtName": "MAHENDRAGARH",
    "acNumber": 69,
    "acName": "MAHENDRAGARH",
    "partNumber": 61,
    "partName": "DHOLI",
    "lat": 28.3513155,
    "lon": 76.1198738
  },
  {
    "partId": 20799,
    "stateCode": "S07",
    "stateName": "Haryana",
    "districtCode": "S0716",
    "districtName": "MAHENDRAGARH",
    "acNumber": 69,
    "acName": "MAHENDRAGARH",
    "partNumber": 62,
    "partName": "JAAT",
    "lat": 28.25,
    "lon": 76.166667
  },
  {
    "partId": 21473,
    "stateCode": "S07",
    "stateName": "Haryana",
    "districtCode": "S0716",
    "districtName": "MAHENDRAGARH",
    "acNumber": 69,
    "acName": "MAHENDRAGARH",
    "partNumber": 63,
    "partName": "JAAT",
    "lat": 28.25,
    "lon": 76.166667
  },
  {
    "partId": 21474,
    "stateCode": "S07",
    "stateName": "Haryana",
    "districtCode": "S0716",
    "districtName": "MAHENDRAGARH",
    "acNumber": 69,
    "acName": "MAHENDRAGARH",
    "partNumber": 64,
    "partName": "JAAT",
    "lat": 28.25,
    "lon": 76.166667
  },
  {
    "partId": 25492,
    "stateCode": "S07",
    "stateName": "Haryana",
    "districtCode": "S0716",
    "districtName": "MAHENDRAGARH",
    "acNumber": 69,
    "acName": "MAHENDRAGARH",
    "partNumber": 65,
    "partName": "MALRA SARAI",
    "lat": 28.25,
    "lon": 76.166667
  },
  {
    "partId": 25368,
    "stateCode": "S07",
    "stateName": "Haryana",
    "districtCode": "S0716",
    "districtName": "MAHENDRAGARH",
    "acNumber": 69,
    "acName": "MAHENDRAGARH",
    "partNumber": 66,
    "partName": "MALRA SARAI",
    "lat": 28.25,
    "lon": 76.166667
  },
  {
    "partId": 20934,
    "stateCode": "S07",
    "stateName": "Haryana",
    "districtCode": "S0716",
    "districtName": "MAHENDRAGARH",
    "acNumber": 69,
    "acName": "MAHENDRAGARH",
    "partNumber": 67,
    "partName": "MALRA BASS",
    "lat": 28.132697049999997,
    "lon": 76.16974476260464
  },
  {
    "partId": 20427,
    "stateCode": "S07",
    "stateName": "Haryana",
    "districtCode": "S0716",
    "districtName": "MAHENDRAGARH",
    "acNumber": 69,
    "acName": "MAHENDRAGARH",
    "partNumber": 68,
    "partName": "MALRA(BAAS)",
    "lat": 28.25,
    "lon": 76.166667
  },
  {
    "partId": 25369,
    "stateCode": "S07",
    "stateName": "Haryana",
    "districtCode": "S0716",
    "districtName": "MAHENDRAGARH",
    "acNumber": 69,
    "acName": "MAHENDRAGARH",
    "partNumber": 69,
    "partName": "LAVAN",
    "lat": 28.25,
    "lon": 76.166667
  },
  {
    "partId": 20428,
    "stateCode": "S07",
    "stateName": "Haryana",
    "districtCode": "S0716",
    "districtName": "MAHENDRAGARH",
    "acNumber": 69,
    "acName": "MAHENDRAGARH",
    "partNumber": 70,
    "partName": "LAVAN",
    "lat": 28.25,
    "lon": 76.166667
  },
  {
    "partId": 25370,
    "stateCode": "S07",
    "stateName": "Haryana",
    "districtCode": "S0716",
    "districtName": "MAHENDRAGARH",
    "acNumber": 69,
    "acName": "MAHENDRAGARH",
    "partNumber": 71,
    "partName": "PALI",
    "lat": 28.3381737,
    "lon": 76.1363406
  },
  {
    "partId": 25371,
    "stateCode": "S07",
    "stateName": "Haryana",
    "districtCode": "S0716",
    "districtName": "MAHENDRAGARH",
    "acNumber": 69,
    "acName": "MAHENDRAGARH",
    "partNumber": 72,
    "partName": "PALI",
    "lat": 28.3381737,
    "lon": 76.1363406
  },
  {
    "partId": 20429,
    "stateCode": "S07",
    "stateName": "Haryana",
    "districtCode": "S0716",
    "districtName": "MAHENDRAGARH",
    "acNumber": 69,
    "acName": "MAHENDRAGARH",
    "partNumber": 73,
    "partName": "PALI",
    "lat": 28.25,
    "lon": 76.166667
  },
  {
    "partId": 25372,
    "stateCode": "S07",
    "stateName": "Haryana",
    "districtCode": "S0716",
    "districtName": "MAHENDRAGARH",
    "acNumber": 69,
    "acName": "MAHENDRAGARH",
    "partNumber": 74,
    "partName": "PALI",
    "lat": 28.3381737,
    "lon": 76.1363406
  },
  {
    "partId": 20929,
    "stateCode": "S07",
    "stateName": "Haryana",
    "districtCode": "S0716",
    "districtName": "MAHENDRAGARH",
    "acNumber": 69,
    "acName": "MAHENDRAGARH",
    "partNumber": 75,
    "partName": "PALI",
    "lat": 28.3381737,
    "lon": 76.1363406
  },
  {
    "partId": 20393,
    "stateCode": "S07",
    "stateName": "Haryana",
    "districtCode": "S0716",
    "districtName": "MAHENDRAGARH",
    "acNumber": 69,
    "acName": "MAHENDRAGARH",
    "partNumber": 76,
    "partName": "JAIRPUR",
    "lat": 28.25,
    "lon": 76.166667
  },
  {
    "partId": 23491,
    "stateCode": "S07",
    "stateName": "Haryana",
    "districtCode": "S0716",
    "districtName": "MAHENDRAGARH",
    "acNumber": 69,
    "acName": "MAHENDRAGARH",
    "partNumber": 77,
    "partName": "USHMAPUR",
    "lat": 28.25,
    "lon": 76.166667
  },
  {
    "partId": 20394,
    "stateCode": "S07",
    "stateName": "Haryana",
    "districtCode": "S0716",
    "districtName": "MAHENDRAGARH",
    "acNumber": 69,
    "acName": "MAHENDRAGARH",
    "partNumber": 78,
    "partName": "MADYOGARH",
    "lat": 28.25,
    "lon": 76.166667
  },
  {
    "partId": 23492,
    "stateCode": "S07",
    "stateName": "Haryana",
    "districtCode": "S0716",
    "districtName": "MAHENDRAGARH",
    "acNumber": 69,
    "acName": "MAHENDRAGARH",
    "partNumber": 79,
    "partName": "MADYOGARH",
    "lat": 28.25,
    "lon": 76.166667
  },
  {
    "partId": 23493,
    "stateCode": "S07",
    "stateName": "Haryana",
    "districtCode": "S0716",
    "districtName": "MAHENDRAGARH",
    "acNumber": 69,
    "acName": "MAHENDRAGARH",
    "partNumber": 80,
    "partName": "DHALANWAS",
    "lat": 28.25,
    "lon": 76.166667
  },
  {
    "partId": 20395,
    "stateCode": "S07",
    "stateName": "Haryana",
    "districtCode": "S0716",
    "districtName": "MAHENDRAGARH",
    "acNumber": 69,
    "acName": "MAHENDRAGARH",
    "partNumber": 81,
    "partName": "DHALANWAS",
    "lat": 28.25,
    "lon": 76.166667
  },
  {
    "partId": 23494,
    "stateCode": "S07",
    "stateName": "Haryana",
    "districtCode": "S0716",
    "districtName": "MAHENDRAGARH",
    "acNumber": 69,
    "acName": "MAHENDRAGARH",
    "partNumber": 82,
    "partName": "GADARWAS",
    "lat": 28.25,
    "lon": 76.166667
  },
  {
    "partId": 20396,
    "stateCode": "S07",
    "stateName": "Haryana",
    "districtCode": "S0716",
    "districtName": "MAHENDRAGARH",
    "acNumber": 69,
    "acName": "MAHENDRAGARH",
    "partNumber": 83,
    "partName": "DHALANWAS",
    "lat": 28.25,
    "lon": 76.166667
  },
  {
    "partId": 25663,
    "stateCode": "S07",
    "stateName": "Haryana",
    "districtCode": "S0716",
    "districtName": "MAHENDRAGARH",
    "acNumber": 69,
    "acName": "MAHENDRAGARH",
    "partNumber": 84,
    "partName": "RAJAWAS",
    "lat": 28.3058958,
    "lon": 76.0605305
  },
  {
    "partId": 25639,
    "stateCode": "S07",
    "stateName": "Haryana",
    "districtCode": "S0716",
    "districtName": "MAHENDRAGARH",
    "acNumber": 69,
    "acName": "MAHENDRAGARH",
    "partNumber": 85,
    "partName": "RAJAWAS",
    "lat": 28.3058958,
    "lon": 76.0605305
  },
  {
    "partId": 20383,
    "stateCode": "S07",
    "stateName": "Haryana",
    "districtCode": "S0716",
    "districtName": "MAHENDRAGARH",
    "acNumber": 69,
    "acName": "MAHENDRAGARH",
    "partNumber": 86,
    "partName": "RAJAWAS",
    "lat": 28.3058958,
    "lon": 76.0605305
  },
  {
    "partId": 25640,
    "stateCode": "S07",
    "stateName": "Haryana",
    "districtCode": "S0716",
    "districtName": "MAHENDRAGARH",
    "acNumber": 69,
    "acName": "MAHENDRAGARH",
    "partNumber": 87,
    "partName": "RATHIWAS",
    "lat": 28.2913889,
    "lon": 76.08507
  },
  {
    "partId": 25641,
    "stateCode": "S07",
    "stateName": "Haryana",
    "districtCode": "S0716",
    "districtName": "MAHENDRAGARH",
    "acNumber": 69,
    "acName": "MAHENDRAGARH",
    "partNumber": 88,
    "partName": "PALARI PANIHAR",
    "lat": 28.132697049999997,
    "lon": 76.16974476260464
  },
  {
    "partId": 20384,
    "stateCode": "S07",
    "stateName": "Haryana",
    "districtCode": "S0716",
    "districtName": "MAHENDRAGARH",
    "acNumber": 69,
    "acName": "MAHENDRAGARH",
    "partNumber": 89,
    "partName": "PALARI PANIHAR",
    "lat": 28.25,
    "lon": 76.166667
  },
  {
    "partId": 23066,
    "stateCode": "S07",
    "stateName": "Haryana",
    "districtCode": "S0716",
    "districtName": "MAHENDRAGARH",
    "acNumber": 69,
    "acName": "MAHENDRAGARH",
    "partNumber": 90,
    "partName": "PALARI PANIHAR",
    "lat": 28.25,
    "lon": 76.166667
  },
  {
    "partId": 20385,
    "stateCode": "S07",
    "stateName": "Haryana",
    "districtCode": "S0716",
    "districtName": "MAHENDRAGARH",
    "acNumber": 69,
    "acName": "MAHENDRAGARH",
    "partNumber": 91,
    "partName": "BHAGDANA",
    "lat": 28.25,
    "lon": 76.166667
  },
  {
    "partId": 20386,
    "stateCode": "S07",
    "stateName": "Haryana",
    "districtCode": "S0716",
    "districtName": "MAHENDRAGARH",
    "acNumber": 69,
    "acName": "MAHENDRAGARH",
    "partNumber": 92,
    "partName": "BHAGDANA",
    "lat": 28.25,
    "lon": 76.166667
  },
  {
    "partId": 23067,
    "stateCode": "S07",
    "stateName": "Haryana",
    "districtCode": "S0716",
    "districtName": "MAHENDRAGARH",
    "acNumber": 69,
    "acName": "MAHENDRAGARH",
    "partNumber": 93,
    "partName": "JHOOK",
    "lat": 28.25,
    "lon": 76.166667
  },
  {
    "partId": 20387,
    "stateCode": "S07",
    "stateName": "Haryana",
    "districtCode": "S0716",
    "districtName": "MAHENDRAGARH",
    "acNumber": 69,
    "acName": "MAHENDRAGARH",
    "partNumber": 94,
    "partName": "JHOOK",
    "lat": 28.25,
    "lon": 76.166667
  },
  {
    "partId": 23068,
    "stateCode": "S07",
    "stateName": "Haryana",
    "districtCode": "S0716",
    "districtName": "MAHENDRAGARH",
    "acNumber": 69,
    "acName": "MAHENDRAGARH",
    "partNumber": 95,
    "partName": "JHAGROLI",
    "lat": 28.25,
    "lon": 76.166667
  },
  {
    "partId": 23069,
    "stateCode": "S07",
    "stateName": "Haryana",
    "districtCode": "S0716",
    "districtName": "MAHENDRAGARH",
    "acNumber": 69,
    "acName": "MAHENDRAGARH",
    "partNumber": 96,
    "partName": "JHAGROLI",
    "lat": 28.25,
    "lon": 76.166667
  },
  {
    "partId": 20388,
    "stateCode": "S07",
    "stateName": "Haryana",
    "districtCode": "S0716",
    "districtName": "MAHENDRAGARH",
    "acNumber": 69,
    "acName": "MAHENDRAGARH",
    "partNumber": 97,
    "partName": "JHAGROLI",
    "lat": 28.25,
    "lon": 76.166667
  },
  {
    "partId": 23070,
    "stateCode": "S07",
    "stateName": "Haryana",
    "districtCode": "S0716",
    "districtName": "MAHENDRAGARH",
    "acNumber": 69,
    "acName": "MAHENDRAGARH",
    "partNumber": 98,
    "partName": "MAJRA KALAN",
    "lat": 28.3092144,
    "lon": 76.1664015
  },
  {
    "partId": 20389,
    "stateCode": "S07",
    "stateName": "Haryana",
    "districtCode": "S0716",
    "districtName": "MAHENDRAGARH",
    "acNumber": 69,
    "acName": "MAHENDRAGARH",
    "partNumber": 99,
    "partName": "MAJRA KALAN",
    "lat": 28.3092144,
    "lon": 76.1664015
  },
  {
    "partId": 20390,
    "stateCode": "S07",
    "stateName": "Haryana",
    "districtCode": "S0716",
    "districtName": "MAHENDRAGARH",
    "acNumber": 69,
    "acName": "MAHENDRAGARH",
    "partNumber": 100,
    "partName": "SISOTH",
    "lat": 28.25,
    "lon": 76.166667
  },
  {
    "partId": 23489,
    "stateCode": "S07",
    "stateName": "Haryana",
    "districtCode": "S0716",
    "districtName": "MAHENDRAGARH",
    "acNumber": 69,
    "acName": "MAHENDRAGARH",
    "partNumber": 101,
    "partName": "SISOTH",
    "lat": 28.25,
    "lon": 76.166667
  },
  {
    "partId": 20391,
    "stateCode": "S07",
    "stateName": "Haryana",
    "districtCode": "S0716",
    "districtName": "MAHENDRAGARH",
    "acNumber": 69,
    "acName": "MAHENDRAGARH",
    "partNumber": 102,
    "partName": "RIWASA",
    "lat": 28.2823594,
    "lon": 76.1368865
  },
  {
    "partId": 23490,
    "stateCode": "S07",
    "stateName": "Haryana",
    "districtCode": "S0716",
    "districtName": "MAHENDRAGARH",
    "acNumber": 69,
    "acName": "MAHENDRAGARH",
    "partNumber": 103,
    "partName": "RIWASA",
    "lat": 28.2823594,
    "lon": 76.1368865
  },
  {
    "partId": 20392,
    "stateCode": "S07",
    "stateName": "Haryana",
    "districtCode": "S0716",
    "districtName": "MAHENDRAGARH",
    "acNumber": 69,
    "acName": "MAHENDRAGARH",
    "partNumber": 104,
    "partName": "RIWASA",
    "lat": 28.132697049999997,
    "lon": 76.16974476260464
  },
  {
    "partId": 22435,
    "stateCode": "S07",
    "stateName": "Haryana",
    "districtCode": "S0716",
    "districtName": "MAHENDRAGARH",
    "acNumber": 69,
    "acName": "MAHENDRAGARH",
    "partNumber": 105,
    "partName": "KURAHAWATA",
    "lat": 28.25,
    "lon": 76.166667
  },
  {
    "partId": 20778,
    "stateCode": "S07",
    "stateName": "Haryana",
    "districtCode": "S0716",
    "districtName": "MAHENDRAGARH",
    "acNumber": 69,
    "acName": "MAHENDRAGARH",
    "partNumber": 106,
    "partName": "KURAHAWATA",
    "lat": 28.25,
    "lon": 76.166667
  },
  {
    "partId": 26134,
    "stateCode": "S07",
    "stateName": "Haryana",
    "districtCode": "S0716",
    "districtName": "MAHENDRAGARH",
    "acNumber": 69,
    "acName": "MAHENDRAGARH",
    "partNumber": 107,
    "partName": "KURAHWATA",
    "lat": 28.25,
    "lon": 76.166667
  },
  {
    "partId": 20779,
    "stateCode": "S07",
    "stateName": "Haryana",
    "districtCode": "S0716",
    "districtName": "MAHENDRAGARH",
    "acNumber": 69,
    "acName": "MAHENDRAGARH",
    "partNumber": 108,
    "partName": "BALANA",
    "lat": 28.2793735,
    "lon": 76.061691
  },
  {
    "partId": 20780,
    "stateCode": "S07",
    "stateName": "Haryana",
    "districtCode": "S0716",
    "districtName": "MAHENDRAGARH",
    "acNumber": 69,
    "acName": "MAHENDRAGARH",
    "partNumber": 109,
    "partName": "BALANA",
    "lat": 28.2793735,
    "lon": 76.061691
  },
  {
    "partId": 26135,
    "stateCode": "S07",
    "stateName": "Haryana",
    "districtCode": "S0716",
    "districtName": "MAHENDRAGARH",
    "acNumber": 69,
    "acName": "MAHENDRAGARH",
    "partNumber": 110,
    "partName": "KHATODRA",
    "lat": 28.25,
    "lon": 76.166667
  },
  {
    "partId": 20781,
    "stateCode": "S07",
    "stateName": "Haryana",
    "districtCode": "S0716",
    "districtName": "MAHENDRAGARH",
    "acNumber": 69,
    "acName": "MAHENDRAGARH",
    "partNumber": 111,
    "partName": "KHATODRA",
    "lat": 28.25,
    "lon": 76.166667
  },
  {
    "partId": 26136,
    "stateCode": "S07",
    "stateName": "Haryana",
    "districtCode": "S0716",
    "districtName": "MAHENDRAGARH",
    "acNumber": 69,
    "acName": "MAHENDRAGARH",
    "partNumber": 112,
    "partName": "KHATOD",
    "lat": 28.2671329,
    "lon": 76.1094735
  },
  {
    "partId": 26137,
    "stateCode": "S07",
    "stateName": "Haryana",
    "districtCode": "S0716",
    "districtName": "MAHENDRAGARH",
    "acNumber": 69,
    "acName": "MAHENDRAGARH",
    "partNumber": 113,
    "partName": "KHATOD",
    "lat": 28.2671329,
    "lon": 76.1094735
  },
  {
    "partId": 25870,
    "stateCode": "S07",
    "stateName": "Haryana",
    "districtCode": "S0716",
    "districtName": "MAHENDRAGARH",
    "acNumber": 69,
    "acName": "MAHENDRAGARH",
    "partNumber": 114,
    "partName": "MAHENDERGARH",
    "lat": 28.2726226,
    "lon": 76.1493925
  },
  {
    "partId": 21047,
    "stateCode": "S07",
    "stateName": "Haryana",
    "districtCode": "S0716",
    "districtName": "MAHENDRAGARH",
    "acNumber": 69,
    "acName": "MAHENDRAGARH",
    "partNumber": 115,
    "partName": "MAHENDERGARH",
    "lat": 28.2726226,
    "lon": 76.1493925
  },
  {
    "partId": 25871,
    "stateCode": "S07",
    "stateName": "Haryana",
    "districtCode": "S0716",
    "districtName": "MAHENDRAGARH",
    "acNumber": 69,
    "acName": "MAHENDRAGARH",
    "partNumber": 116,
    "partName": "MAHENDERGARH",
    "lat": 28.2726226,
    "lon": 76.1493925
  },
  {
    "partId": 25872,
    "stateCode": "S07",
    "stateName": "Haryana",
    "districtCode": "S0716",
    "districtName": "MAHENDRAGARH",
    "acNumber": 69,
    "acName": "MAHENDRAGARH",
    "partNumber": 117,
    "partName": "MAHENDERGARH",
    "lat": 28.2726226,
    "lon": 76.1493925
  },
  {
    "partId": 21048,
    "stateCode": "S07",
    "stateName": "Haryana",
    "districtCode": "S0716",
    "districtName": "MAHENDRAGARH",
    "acNumber": 69,
    "acName": "MAHENDRAGARH",
    "partNumber": 118,
    "partName": "MAHENDERGARH",
    "lat": 28.2726226,
    "lon": 76.1493925
  },
  {
    "partId": 23770,
    "stateCode": "S07",
    "stateName": "Haryana",
    "districtCode": "S0716",
    "districtName": "MAHENDRAGARH",
    "acNumber": 69,
    "acName": "MAHENDRAGARH",
    "partNumber": 119,
    "partName": "MAHENDERGARH",
    "lat": 28.2726226,
    "lon": 76.1493925
  },
  {
    "partId": 24267,
    "stateCode": "S07",
    "stateName": "Haryana",
    "districtCode": "S0716",
    "districtName": "MAHENDRAGARH",
    "acNumber": 69,
    "acName": "MAHENDRAGARH",
    "partNumber": 120,
    "partName": "MAHENDERGARH",
    "lat": 28.2726226,
    "lon": 76.1493925
  },
  {
    "partId": 24268,
    "stateCode": "S07",
    "stateName": "Haryana",
    "districtCode": "S0716",
    "districtName": "MAHENDRAGARH",
    "acNumber": 69,
    "acName": "MAHENDRAGARH",
    "partNumber": 121,
    "partName": "MAHENDERGARH",
    "lat": 28.132697049999997,
    "lon": 76.16974476260464
  },
  {
    "partId": 26210,
    "stateCode": "S07",
    "stateName": "Haryana",
    "districtCode": "S0716",
    "districtName": "MAHENDRAGARH",
    "acNumber": 69,
    "acName": "MAHENDRAGARH",
    "partNumber": 122,
    "partName": "MAHENDERGARH",
    "lat": 28.2726226,
    "lon": 76.1493925
  },
  {
    "partId": 24269,
    "stateCode": "S07",
    "stateName": "Haryana",
    "districtCode": "S0716",
    "districtName": "MAHENDRAGARH",
    "acNumber": 69,
    "acName": "MAHENDRAGARH",
    "partNumber": 123,
    "partName": "MAHENDERGARH",
    "lat": 28.2726226,
    "lon": 76.1493925
  },
  {
    "partId": 26211,
    "stateCode": "S07",
    "stateName": "Haryana",
    "districtCode": "S0716",
    "districtName": "MAHENDRAGARH",
    "acNumber": 69,
    "acName": "MAHENDRAGARH",
    "partNumber": 124,
    "partName": "MAHENDERGARH",
    "lat": 28.2726226,
    "lon": 76.1493925
  },
  {
    "partId": 26212,
    "stateCode": "S07",
    "stateName": "Haryana",
    "districtCode": "S0716",
    "districtName": "MAHENDRAGARH",
    "acNumber": 69,
    "acName": "MAHENDRAGARH",
    "partNumber": 125,
    "partName": "MAHENDERGARH",
    "lat": 28.2726226,
    "lon": 76.1493925
  },
  {
    "partId": 24270,
    "stateCode": "S07",
    "stateName": "Haryana",
    "districtCode": "S0716",
    "districtName": "MAHENDRAGARH",
    "acNumber": 69,
    "acName": "MAHENDRAGARH",
    "partNumber": 126,
    "partName": "MAHENDERGARH",
    "lat": 28.2726226,
    "lon": 76.1493925
  },
  {
    "partId": 26213,
    "stateCode": "S07",
    "stateName": "Haryana",
    "districtCode": "S0716",
    "districtName": "MAHENDRAGARH",
    "acNumber": 69,
    "acName": "MAHENDRAGARH",
    "partNumber": 127,
    "partName": "MAHENDERGARH",
    "lat": 28.2726226,
    "lon": 76.1493925
  },
  {
    "partId": 25601,
    "stateCode": "S07",
    "stateName": "Haryana",
    "districtCode": "S0716",
    "districtName": "MAHENDRAGARH",
    "acNumber": 69,
    "acName": "MAHENDRAGARH",
    "partNumber": 128,
    "partName": "MAHENDERGARH",
    "lat": 28.2726226,
    "lon": 76.1493925
  },
  {
    "partId": 25602,
    "stateCode": "S07",
    "stateName": "Haryana",
    "districtCode": "S0716",
    "districtName": "MAHENDRAGARH",
    "acNumber": 69,
    "acName": "MAHENDRAGARH",
    "partNumber": 129,
    "partName": "MAHENDERGARH",
    "lat": 28.2726226,
    "lon": 76.1493925
  },
  {
    "partId": 26214,
    "stateCode": "S07",
    "stateName": "Haryana",
    "districtCode": "S0716",
    "districtName": "MAHENDRAGARH",
    "acNumber": 69,
    "acName": "MAHENDRAGARH",
    "partNumber": 130,
    "partName": "MAHENDERGARH",
    "lat": 28.2726226,
    "lon": 76.1493925
  },
  {
    "partId": 25603,
    "stateCode": "S07",
    "stateName": "Haryana",
    "districtCode": "S0716",
    "districtName": "MAHENDRAGARH",
    "acNumber": 69,
    "acName": "MAHENDRAGARH",
    "partNumber": 131,
    "partName": "MAHENDERGARH",
    "lat": 28.2726226,
    "lon": 76.1493925
  },
  {
    "partId": 26215,
    "stateCode": "S07",
    "stateName": "Haryana",
    "districtCode": "S0716",
    "districtName": "MAHENDRAGARH",
    "acNumber": 69,
    "acName": "MAHENDRAGARH",
    "partNumber": 132,
    "partName": "MAHENDERGARH",
    "lat": 28.2726226,
    "lon": 76.1493925
  },
  {
    "partId": 26216,
    "stateCode": "S07",
    "stateName": "Haryana",
    "districtCode": "S0716",
    "districtName": "MAHENDRAGARH",
    "acNumber": 69,
    "acName": "MAHENDRAGARH",
    "partNumber": 133,
    "partName": "MAJRA KHURD",
    "lat": 28.2820233,
    "lon": 76.1587412
  },