[
  {
    "partId": 43325,
    "stateCode": "S26",
    "stateName": "Chhattisgarh",
    "districtCode": "S2669",
    "districtName": "KONDAGAON",
    "acNumber": 82,
    "acName": "Keshkal",
    "partNumber": 1,
    "partName": "KOOPAGONDI",
    "lat": 20.083284,
    "lon": 81.589058
  },
  {
    "partId": 43326,
    "stateCode": "S26",
    "stateName": "Chhattisgarh",
    "districtCode": "S2669",
    "districtName": "KONDAGAON",
    "acNumber": 82,
    "acName": "Keshkal",
    "partNumber": 2,
    "partName": "KHALEMURVEND",
    "lat": 20.1512133,
    "lon": 81.5301349
  },
  {
    "partId": 43469,
    "stateCode": "S26",
    "stateName": "Chhattisgarh",
    "districtCode": "S2669",
    "districtName": "KONDAGAON",
    "acNumber": 82,
    "acName": "Keshkal",
    "partNumber": 3,
    "partName": "MURNAR",
    "lat": 20.134246,
    "lon": 81.5408642
  },
  {
    "partId": 43577,
    "stateCode": "S26",
    "stateName": "Chhattisgarh",
    "districtCode": "S2669",
    "districtName": "KONDAGAON",
    "acNumber": 82,
    "acName": "Keshkal",
    "partNumber": 4,
    "partName": "KUKDADAH",
    "lat": 20.1622795,
    "lon": 81.4910741
  },
  {
    "partId": 43476,
    "stateCode": "S26",
    "stateName": "Chhattisgarh",
    "districtCode": "S2669",
    "districtName": "KONDAGAON",
    "acNumber": 82,
    "acName": "Keshkal",
    "partNumber": 5,
    "partName": "DHONDERAPAL",
    "lat": 20.083284,
    "lon": 81.589058
  },
  {
    "partId": 43335,
    "stateCode": "S26",
    "stateName": "Chhattisgarh",
    "districtCode": "S2669",
    "districtName": "KONDAGAON",
    "acNumber": 82,
    "acName": "Keshkal",
    "partNumber": 6,
    "partName": "HONEHED",
    "lat": 20.083284,
    "lon": 81.589058
  },
  {
    "partId": 43336,
    "stateCode": "S26",
    "stateName": "Chhattisgarh",
    "districtCode": "S2669",
    "districtName": "KONDAGAON",
    "acNumber": 82,
    "acName": "Keshkal",
    "partNumber": 7,
    "partName": "RAVBEDA",
    "lat": 20.083284,
    "lon": 81.589058
  },
  {
    "partId": 43612,
    "stateCode": "S26",
    "stateName": "Chhattisgarh",
    "districtCode": "S2669",
    "districtName": "KONDAGAON",
    "acNumber": 82,
    "acName": "Keshkal",
    "partNumber": 8,
    "partName": "BEDMAMARI",
    "lat": 20.059207,
    "lon": 81.4710302
  },
  {
    "partId": 43477,
    "stateCode": "S26",
    "stateName": "Chhattisgarh",
    "districtCode": "S2669",
    "districtName": "KONDAGAON",
    "acNumber": 82,
    "acName": "Keshkal",
    "partNumber": 9,
    "partName": "TUTARI",
    "lat": 20.0403546,
    "lon": 81.5349041
  },
  {
    "partId": 43324,
    "stateCode": "S26",
    "stateName": "Chhattisgarh",
    "districtCode": "S2669",
    "districtName": "KONDAGAON",
    "acNumber": 82,
    "acName": "Keshkal",
    "partNumber": 10,
    "partName": "KUE",
    "lat": 20.083284,
    "lon": 81.589058
  },
  {
    "partId": 43478,
    "stateCode": "S26",
    "stateName": "Chhattisgarh",
    "districtCode": "S2669",
    "districtName": "KONDAGAON",
    "acNumber": 82,
    "acName": "Keshkal",
    "partNumber": 11,
    "partName": "BHANDARPAL",
    "lat": 20.0930124,
    "lon": 81.4174831
  },
  {
    "partId": 43334,
    "stateCode": "S26",
    "stateName": "Chhattisgarh",
    "districtCode": "S2669",
    "districtName": "KONDAGAON",
    "acNumber": 82,
    "acName": "Keshkal",
    "partNumber": 12,
    "partName": "GARHDHANORA",
    "lat": 20.083284,
    "lon": 81.589058
  },
  {
    "partId": 43598,
    "stateCode": "S26",
    "stateName": "Chhattisgarh",
    "districtCode": "S2669",
    "districtName": "KONDAGAON",
    "acNumber": 82,
    "acName": "Keshkal",
    "partNumber": 13,
    "partName": "GADHSILIYARA",
    "lat": 20.083284,
    "lon": 81.589058
  },
  {
    "partId": 43359,
    "stateCode": "S26",
    "stateName": "Chhattisgarh",
    "districtCode": "S2669",
    "districtName": "KONDAGAON",
    "acNumber": 82,
    "acName": "Keshkal",
    "partNumber": 14,
    "partName": "BATRALI",
    "lat": 20.083284,
    "lon": 81.589058
  },
  {
    "partId": 43358,
    "stateCode": "S26",
    "stateName": "Chhattisgarh",
    "districtCode": "S2669",
    "districtName": "KONDAGAON",
    "acNumber": 82,
    "acName": "Keshkal",
    "partNumber": 15,
    "partName": "BORGAON - 1",
    "lat": 20.0313458,
    "lon": 81.583307
  },
  {
    "partId": 43479,
    "stateCode": "S26",
    "stateName": "Chhattisgarh",
    "districtCode": "S2669",
    "districtName": "KONDAGAON",
    "acNumber": 82,
    "acName": "Keshkal",
    "partNumber": 16,
    "partName": "BORGAON - 2",
    "lat": 20.0313458,
    "lon": 81.583307
  },
  {
    "partId": 43329,
    "stateCode": "S26",
    "stateName": "Chhattisgarh",
    "districtCode": "S2669",
    "districtName": "KONDAGAON",
    "acNumber": 82,
    "acName": "Keshkal",
    "partNumber": 17,
    "partName": "SURDONGAR - 1",
    "lat": 20.096536,
    "lon": 81.5915182
  },
  {
    "partId": 43480,
    "stateCode": "S26",
    "stateName": "Chhattisgarh",
    "districtCode": "S2669",
    "districtName": "KONDAGAON",
    "acNumber": 82,
    "acName": "Keshkal",
    "partNumber": 18,
    "partName": "SURDONGAR - 2",
    "lat": 20.096536,
    "lon": 81.5915182
  },
  {
    "partId": 43330,
    "stateCode": "S26",
    "stateName": "Chhattisgarh",
    "districtCode": "S2669",
    "districtName": "KONDAGAON",
    "acNumber": 82,
    "acName": "Keshkal",
    "partNumber": 19,
    "partName": "SURDONGAR - 3",
    "lat": 20.096536,
    "lon": 81.5915182
  },
  {
    "partId": 43327,
    "stateCode": "S26",
    "stateName": "Chhattisgarh",
    "districtCode": "S2669",
    "districtName": "KONDAGAON",
    "acNumber": 82,
    "acName": "Keshkal",
    "partNumber": 20,
    "partName": "SALEBHAT",
    "lat": 19.9917328,
    "lon": 81.6619176
  },
  {
    "partId": 43599,
    "stateCode": "S26",
    "stateName": "Chhattisgarh",
    "districtCode": "S2669",
    "districtName": "KONDAGAON",
    "acNumber": 82,
    "acName": "Keshkal",
    "partNumber": 21,
    "partName": "HARVEL",
    "lat": 20.083284,
    "lon": 81.589058
  },
  {
    "partId": 43328,
    "stateCode": "S26",
    "stateName": "Chhattisgarh",
    "districtCode": "S2669",
    "districtName": "KONDAGAON",
    "acNumber": 82,
    "acName": "Keshkal",
    "partNumber": 22,
    "partName": "CHIPREL",
    "lat": 20.1491449,
    "lon": 81.5842138
  },
  {
    "partId": 43331,
    "stateCode": "S26",
    "stateName": "Chhattisgarh",
    "districtCode": "S2669",
    "districtName": "KONDAGAON",
    "acNumber": 82,
    "acName": "Keshkal",
    "partNumber": 23,
    "partName": "GAURGAON",
    "lat": 20.083284,
    "lon": 81.589058
  },
  {
    "partId": 43593,
    "stateCode": "S26",
    "stateName": "Chhattisgarh",
    "districtCode": "S2669",
    "districtName": "KONDAGAON",
    "acNumber": 82,
    "acName": "Keshkal",
    "partNumber": 24,
    "partName": "CHIKHALADIH",
    "lat": 19.9285667,
    "lon": 81.6551509
  },
  {
    "partId": 43332,
    "stateCode": "S26",
    "stateName": "Chhattisgarh",
    "districtCode": "S2669",
    "districtName": "KONDAGAON",
    "acNumber": 82,
    "acName": "Keshkal",
    "partNumber": 25,
    "partName": "KESHKAL - 1",
    "lat": 20.083284,
    "lon": 81.589058
  },
  {
    "partId": 43481,
    "stateCode": "S26",
    "stateName": "Chhattisgarh",
    "districtCode": "S2669",
    "districtName": "KONDAGAON",
    "acNumber": 82,
    "acName": "Keshkal",
    "partNumber": 26,
    "partName": "KESHKAL - 2",
    "lat": 20.083284,
    "lon": 81.589058
  },
  {
    "partId": 43333,
    "stateCode": "S26",
    "stateName": "Chhattisgarh",
    "districtCode": "S2669",
    "districtName": "KONDAGAON",
    "acNumber": 82,
    "acName": "Keshkal",
    "partNumber": 27,
    "partName": "KESHKAL - 3",
    "lat": 20.083284,
    "lon": 81.589058
  },
  {
    "partId": 43482,
    "stateCode": "S26",
    "stateName": "Chhattisgarh",
    "districtCode": "S2669",
    "districtName": "KONDAGAON",
    "acNumber": 82,
    "acName": "Keshkal",
    "partNumber": 28,
    "partName": "KESHKAL - 4",
    "lat": 20.083284,
    "lon": 81.589058
  },
  {
    "partId": 43357,
    "stateCode": "S26",
    "stateName": "Chhattisgarh",
    "districtCode": "S2669",
    "districtName": "KONDAGAON",
    "acNumber": 82,
    "acName": "Keshkal",
    "partNumber": 29,
    "partName": "JAMGAON",
    "lat": 20.0701347,
    "lon": 81.6054871
  },
  {
    "partId": 43356,
    "stateCode": "S26",
    "stateName": "Chhattisgarh",
    "districtCode": "S2669",
    "districtName": "KONDAGAON",
    "acNumber": 82,
    "acName": "Keshkal",
    "partNumber": 30,
    "partName": "NIRACHHINDLI",
    "lat": 20.083284,
    "lon": 81.589058
  },
  {
    "partId": 43613,
    "stateCode": "S26",
    "stateName": "Chhattisgarh",
    "districtCode": "S2669",
    "districtName": "KONDAGAON",
    "acNumber": 82,
    "acName": "Keshkal",
    "partNumber": 31,
    "partName": "KACHHARPARA (NIRACHHINDLI)",
    "lat": 20.083284,
    "lon": 81.589058
  },
  {
    "partId": 43483,
    "stateCode": "S26",
    "stateName": "Chhattisgarh",
    "districtCode": "S2669",
    "districtName": "KONDAGAON",
    "acNumber": 82,
    "acName": "Keshkal",
    "partNumber": 32,
    "partName": "NARNA",
    "lat": 20.0222831,
    "lon": 81.601601
  },
  {
    "partId": 43361,
    "stateCode": "S26",
    "stateName": "Chhattisgarh",
    "districtCode": "S2669",
    "districtName": "KONDAGAON",
    "acNumber": 82,
    "acName": "Keshkal",
    "partNumber": 33,
    "partName": "KODOBHAT",
    "lat": 20.0720625,
    "lon": 81.6215471
  },
  {
    "partId": 43484,
    "stateCode": "S26",
    "stateName": "Chhattisgarh",
    "districtCode": "S2669",
    "districtName": "KONDAGAON",
    "acNumber": 82,
    "acName": "Keshkal",
    "partNumber": 34,
    "partName": "MANJHICHERRA",
    "lat": 20.0549775,
    "lon": 81.6610749
  },
  {
    "partId": 43360,
    "stateCode": "S26",
    "stateName": "Chhattisgarh",
    "districtCode": "S2669",
    "districtName": "KONDAGAON",
    "acNumber": 82,
    "acName": "Keshkal",
    "partNumber": 35,
    "partName": "KOHKAMETA",
    "lat": 20.0744457,
    "lon": 81.6371513
  },
  {
    "partId": 43485,
    "stateCode": "S26",
    "stateName": "Chhattisgarh",
    "districtCode": "S2669",
    "districtName": "KONDAGAON",
    "acNumber": 82,
    "acName": "Keshkal",
    "partNumber": 36,
    "partName": "SIDAWAND",
    "lat": 20.066743,
    "lon": 81.6723791
  },
  {
    "partId": 43362,
    "stateCode": "S26",
    "stateName": "Chhattisgarh",
    "districtCode": "S2669",
    "districtName": "KONDAGAON",
    "acNumber": 82,
    "acName": "Keshkal",
    "partNumber": 37,
    "partName": "KORGAON - 1",
    "lat": 20.0534531,
    "lon": 81.6995155
  },
  {
    "partId": 43578,
    "stateCode": "S26",
    "stateName": "Chhattisgarh",
    "districtCode": "S2669",
    "districtName": "KONDAGAON",
    "acNumber": 82,
    "acName": "Keshkal",
    "partNumber": 38,
    "partName": "KORGAON - 2",
    "lat": 20.0534531,
    "lon": 81.6995155
  },
  {
    "partId": 43363,
    "stateCode": "S26",
    "stateName": "Chhattisgarh",
    "districtCode": "S2669",
    "districtName": "KONDAGAON",
    "acNumber": 82,
    "acName": "Keshkal",
    "partNumber": 39,
    "partName": "KORGAON - 3",
    "lat": 20.0534531,
    "lon": 81.6995155
  },
  {
    "partId": 43364,
    "stateCode": "S26",
    "stateName": "Chhattisgarh",
    "districtCode": "S2669",
    "districtName": "KONDAGAON",
    "acNumber": 82,
    "acName": "Keshkal",
    "partNumber": 40,
    "partName": "KORHOBEDA",
    "lat": 20.064231,
    "lon": 81.7207044
  },
  {
    "partId": 43486,
    "stateCode": "S26",
    "stateName": "Chhattisgarh",
    "districtCode": "S2669",
    "districtName": "KONDAGAON",
    "acNumber": 82,
    "acName": "Keshkal",
    "partNumber": 41,
    "partName": "KONGERA",
    "lat": 20.053463,
    "lon": 81.7298644
  },
  {
    "partId": 43487,
    "stateCode": "S26",
    "stateName": "Chhattisgarh",
    "districtCode": "S2669",
    "districtName": "KONDAGAON",
    "acNumber": 82,
    "acName": "Keshkal",
    "partNumber": 42,
    "partName": "NALAJHAR",
    "lat": 20.13408,
    "lon": 81.6475779
  },
  {
    "partId": 43365,
    "stateCode": "S26",
    "stateName": "Chhattisgarh",
    "districtCode": "S2669",
    "districtName": "KONDAGAON",
    "acNumber": 82,
    "acName": "Keshkal",
    "partNumber": 43,
    "partName": "VISHRAMPURI(A) - 1",
    "lat": 20.0855052,
    "lon": 81.7698839
  },
  {
    "partId": 43488,
    "stateCode": "S26",
    "stateName": "Chhattisgarh",
    "districtCode": "S2669",
    "districtName": "KONDAGAON",
    "acNumber": 82,
    "acName": "Keshkal",
    "partNumber": 44,
    "partName": "BIRAPARA-1",
    "lat": 20.0679758,
    "lon": 81.7636063
  },
  {
    "partId": 43366,
    "stateCode": "S26",
    "stateName": "Chhattisgarh",
    "districtCode": "S2669",
    "districtName": "KONDAGAON",
    "acNumber": 82,
    "acName": "Keshkal",
    "partNumber": 45,
    "partName": "VISHRAMPURI(A) - 2",
    "lat": 20.0855052,
    "lon": 81.7698839
  },
  {
    "partId": 43615,
    "stateCode": "S26",
    "stateName": "Chhattisgarh",
    "districtCode": "S2669",
    "districtName": "KONDAGAON",
    "acNumber": 82,
    "acName": "Keshkal",
    "partNumber": 46,
    "partName": "HALBAPARA",
    "lat": 19.9354595,
    "lon": 81.6925859
  },
  {
    "partId": 43489,
    "stateCode": "S26",
    "stateName": "Chhattisgarh",
    "districtCode": "S2669",
    "districtName": "KONDAGAON",
    "acNumber": 82,
    "acName": "Keshkal",
    "partNumber": 47,
    "partName": "JIRRAPARA",
    "lat": 20.083284,
    "lon": 81.589058
  },
  {
    "partId": 43367,
    "stateCode": "S26",
    "stateName": "Chhattisgarh",
    "districtCode": "S2669",
    "districtName": "KONDAGAON",
    "acNumber": 82,
    "acName": "Keshkal",
    "partNumber": 48,
    "partName": "KHARGAON",
    "lat": 20.0985816,
    "lon": 81.7439685
  },
  {
    "partId": 43490,
    "stateCode": "S26",
    "stateName": "Chhattisgarh",
    "districtCode": "S2669",
    "districtName": "KONDAGAON",
    "acNumber": 82,
    "acName": "Keshkal",
    "partNumber": 49,
    "partName": "AAMAGUHAN",
    "lat": 20.083284,
    "lon": 81.589058
  },
  {
    "partId": 43491,
    "stateCode": "S26",
    "stateName": "Chhattisgarh",
    "districtCode": "S2669",
    "districtName": "KONDAGAON",
    "acNumber": 82,
    "acName": "Keshkal",
    "partNumber": 50,
    "partName": "BAIJANPURI",
    "lat": 20.1069537,
    "lon": 81.6949191
  },
  {
    "partId": 43368,
    "stateCode": "S26",
    "stateName": "Chhattisgarh",
    "districtCode": "S2669",
    "districtName": "KONDAGAON",
    "acNumber": 82,
    "acName": "Keshkal",
    "partNumber": 51,
    "partName": "FARSADIHI",
    "lat": 20.083284,
    "lon": 81.589058
  },
  {
    "partId": 43492,
    "stateCode": "S26",
    "stateName": "Chhattisgarh",
    "districtCode": "S2669",
    "districtName": "KONDAGAON",
    "acNumber": 82,
    "acName": "Keshkal",
    "partNumber": 52,
    "partName": "BIRAPARA-2",
    "lat": 20.0679758,
    "lon": 81.7636063
  },
  {
    "partId": 43369,
    "stateCode": "S26",
    "stateName": "Chhattisgarh",
    "districtCode": "S2669",
    "districtName": "KONDAGAON",
    "acNumber": 82,
    "acName": "Keshkal",
    "partNumber": 53,
    "partName": "VISHRAMPURI(B)",
    "lat": 20.0855052,
    "lon": 81.7698839
  },
  {
    "partId": 43370,
    "stateCode": "S26",
    "stateName": "Chhattisgarh",
    "districtCode": "S2669",
    "districtName": "KONDAGAON",
    "acNumber": 82,
    "acName": "Keshkal",
    "partNumber": 54,
    "partName": "VISHRAMPURI(A) - 3",
    "lat": 20.0855052,
    "lon": 81.7698839
  },
  {
    "partId": 43493,
    "stateCode": "S26",
    "stateName": "Chhattisgarh",
    "districtCode": "S2669",
    "districtName": "KONDAGAON",
    "acNumber": 82,
    "acName": "Keshkal",
    "partNumber": 55,
    "partName": "VISHRAMPURI(A) - 4",
    "lat": 20.0855052,
    "lon": 81.7698839
  },
  {
    "partId": 43371,
    "stateCode": "S26",
    "stateName": "Chhattisgarh",
    "districtCode": "S2669",
    "districtName": "KONDAGAON",
    "acNumber": 82,
    "acName": "Keshkal",
    "partNumber": 56,
    "partName": "KHALARI - 1",
    "lat": 20.117352,
    "lon": 81.7728708
  },
  {
    "partId": 43579,
    "stateCode": "S26",
    "stateName": "Chhattisgarh",
    "districtCode": "S2669",
    "districtName": "KONDAGAON",
    "acNumber": 82,
    "acName": "Keshkal",
    "partNumber": 57,
    "partName": "KHALARI - 2",
    "lat": 20.117352,
    "lon": 81.7728708
  },
  {
    "partId": 43372,
    "stateCode": "S26",
    "stateName": "Chhattisgarh",
    "districtCode": "S2669",
    "districtName": "KONDAGAON",
    "acNumber": 82,
    "acName": "Keshkal",
    "partNumber": 58,
    "partName": "KOSMI",
    "lat": 20.1249627,
    "lon": 81.7937426
  },
  {
    "partId": 43580,
    "stateCode": "S26",
    "stateName": "Chhattisgarh",
    "districtCode": "S2669",
    "districtName": "KONDAGAON",
    "acNumber": 82,
    "acName": "Keshkal",
    "partNumber": 59,
    "partName": "GOVINDPUR",
    "lat": 20.1400024,
    "lon": 81.8094862
  },
  {
    "partId": 43373,
    "stateCode": "S26",
    "stateName": "Chhattisgarh",
    "districtCode": "S2669",
    "districtName": "KONDAGAON",
    "acNumber": 82,
    "acName": "Keshkal",
    "partNumber": 60,
    "partName": "SARGIPAL",
    "lat": 20.112843,
    "lon": 81.7890752
  },
  {
    "partId": 43494,
    "stateCode": "S26",
    "stateName": "Chhattisgarh",
    "districtCode": "S2669",
    "districtName": "KONDAGAON",
    "acNumber": 82,
    "acName": "Keshkal",
    "partNumber": 61,
    "partName": "BASTAR BUDRA",
    "lat": 20.083284,
    "lon": 81.589058
  },
  {
    "partId": 43374,
    "stateCode": "S26",
    "stateName": "Chhattisgarh",
    "districtCode": "S2669",
    "districtName": "KONDAGAON",
    "acNumber": 82,
    "acName": "Keshkal",
    "partNumber": 62,
    "partName": "HATMA",
    "lat": 20.0978129,
    "lon": 81.8170979
  },
  {
    "partId": 43495,
    "stateCode": "S26",
    "stateName": "Chhattisgarh",
    "districtCode": "S2669",
    "districtName": "KONDAGAON",
    "acNumber": 82,
    "acName": "Keshkal",
    "partNumber": 63,
    "partName": "PITECHUA",
    "lat": 20.083284,
    "lon": 81.589058
  },
  {
    "partId": 43376,
    "stateCode": "S26",
    "stateName": "Chhattisgarh",
    "districtCode": "S2669",
    "districtName": "KONDAGAON",
    "acNumber": 82,
    "acName": "Keshkal",
    "partNumber": 64,
    "partName": "CHHOTE MALGAON",
    "lat": 20.083284,
    "lon": 81.589058
  },
  {
    "partId": 43614,
    "stateCode": "S26",
    "stateName": "Chhattisgarh",
    "districtCode": "S2669",
    "districtName": "KONDAGAON",
    "acNumber": 82,
    "acName": "Keshkal",
    "partNumber": 65,
    "partName": "MANIKPUR",
    "lat": 20.018577722545455,
    "lon": 81.60517916072727
  },
  {
    "partId": 43375,
    "stateCode": "S26",
    "stateName": "Chhattisgarh",
    "districtCode": "S2669",
    "districtName": "KONDAGAON",
    "acNumber": 82,
    "acName": "Keshkal",
    "partNumber": 66,
    "partName": "KONDKERA - 1",
    "lat": 20.083284,
    "lon": 81.589058
  },
  {
    "partId": 43584,
    "stateCode": "S26",
    "stateName": "Chhattisgarh",
    "districtCode": "S2669",
    "districtName": "KONDAGAON",
    "acNumber": 82,
    "acName": "Keshkal",
    "partNumber": 67,
    "partName": "KONDKERA - 2",
    "lat": 20.083284,
    "lon": 81.589058
  },
  {
    "partId": 43377,
    "stateCode": "S26",
    "stateName": "Chhattisgarh",
    "districtCode": "S2669",
    "districtName": "KONDAGAON",
    "acNumber": 82,
    "acName": "Keshkal",
    "partNumber": 68,
    "partName": "PENDRAVAN",
    "lat": 20.083284,
    "lon": 81.589058
  },
  {
    "partId": 43496,
    "stateCode": "S26",
    "stateName": "Chhattisgarh",
    "districtCode": "S2669",
    "districtName": "KONDAGAON",
    "acNumber": 82,
    "acName": "Keshkal",
    "partNumber": 69,
    "partName": "MACHLI",
    "lat": 20.083284,
    "lon": 81.589058
  },
  {
    "partId": 43380,
    "stateCode": "S26",
    "stateName": "Chhattisgarh",
    "districtCode": "S2669",
    "districtName": "KONDAGAON",
    "acNumber": 82,
    "acName": "Keshkal",
    "partNumber": 70,
    "partName": "HONAWANDI",
    "lat": 20.083284,
    "lon": 81.589058
  },
  {
    "partId": 43497,
    "stateCode": "S26",
    "stateName": "Chhattisgarh",
    "districtCode": "S2669",
    "districtName": "KONDAGAON",
    "acNumber": 82,
    "acName": "Keshkal",
    "partNumber": 71,
    "partName": "MAINPUR",
    "lat": 19.7359776,
    "lon": 81.3849825
  },
  {
    "partId": 43383,
    "stateCode": "S26",
    "stateName": "Chhattisgarh",
    "districtCode": "S2669",
    "districtName": "KONDAGAON",
    "acNumber": 82,
    "acName": "Keshkal",
    "partNumber": 72,
    "partName": "SALNA - 1",
    "lat": 20.0551302,
    "lon": 81.8533472
  },
  {
    "partId": 43498,
    "stateCode": "S26",
    "stateName": "Chhattisgarh",
    "districtCode": "S2669",
    "districtName": "KONDAGAON",
    "acNumber": 82,
    "acName": "Keshkal",
    "partNumber": 73,
    "partName": "SALNA - 2",
    "lat": 20.0551302,
    "lon": 81.8533472
  },
  {
    "partId": 43381,
    "stateCode": "S26",
    "stateName": "Chhattisgarh",
    "districtCode": "S2669",
    "districtName": "KONDAGAON",
    "acNumber": 82,
    "acName": "Keshkal",
    "partNumber": 74,
    "partName": "UDIDGAON",
    "lat": 20.0431812,
    "lon": 81.8331803
  },
  {
    "partId": 43382,
    "stateCode": "S26",
    "stateName": "Chhattisgarh",
    "districtCode": "S2669",
    "districtName": "KONDAGAON",
    "acNumber": 82,
    "acName": "Keshkal",
    "partNumber": 75,
    "partName": "PALNA",
    "lat": 20.0332229,
    "lon": 81.8539535
  },
  {
    "partId": 43499,
    "stateCode": "S26",
    "stateName": "Chhattisgarh",
    "districtCode": "S2669",
    "districtName": "KONDAGAON",
    "acNumber": 82,
    "acName": "Keshkal",
    "partNumber": 76,
    "partName": "CHICHADI",
    "lat": 19.8905807,
    "lon": 81.640812
  },
  {
    "partId": 43379,
    "stateCode": "S26",
    "stateName": "Chhattisgarh",
    "districtCode": "S2669",
    "districtName": "KONDAGAON",
    "acNumber": 82,
    "acName": "Keshkal",
    "partNumber": 77,
    "partName": "PAROND",
    "lat": 20.0307489,
    "lon": 81.7919862
  },
  {
    "partId": 43378,
    "stateCode": "S26",
    "stateName": "Chhattisgarh",
    "districtCode": "S2669",
    "districtName": "KONDAGAON",
    "acNumber": 82,
    "acName": "Keshkal",
    "partNumber": 78,
    "partName": "BADAGAON",
    "lat": 19.9409024,
    "lon": 81.3839171
  },
  {
    "partId": 43500,
    "stateCode": "S26",
    "stateName": "Chhattisgarh",
    "districtCode": "S2669",
    "districtName": "KONDAGAON",
    "acNumber": 82,
    "acName": "Keshkal",
    "partNumber": 79,
    "partName": "KURUBHAT",
    "lat": 20.083284,
    "lon": 81.589058
  },
  {
    "partId": 43386,
    "stateCode": "S26",
    "stateName": "Chhattisgarh",
    "districtCode": "S2669",
    "districtName": "KONDAGAON",
    "acNumber": 82,
    "acName": "Keshkal",
    "partNumber": 80,
    "partName": "KHAJRAVAND",
    "lat": 20.083284,
    "lon": 81.589058
  },
  {
    "partId": 43501,
    "stateCode": "S26",
    "stateName": "Chhattisgarh",
    "districtCode": "S2669",
    "districtName": "KONDAGAON",
    "acNumber": 82,
    "acName": "Keshkal",
    "partNumber": 81,
    "partName": "SONPUR",
    "lat": 20.037245,
    "lon": 81.7539523
  },
  {
    "partId": 43390,
    "stateCode": "S26",
    "stateName": "Chhattisgarh",
    "districtCode": "S2669",
    "districtName": "KONDAGAON",
    "acNumber": 82,
    "acName": "Keshkal",
    "partNumber": 82,
    "partName": "KALGAON",
    "lat": 20.0217015,
    "lon": 81.7235063
  },
  {
    "partId": 43389,
    "stateCode": "S26",
    "stateName": "Chhattisgarh",
    "districtCode": "S2669",
    "districtName": "KONDAGAON",
    "acNumber": 82,
    "acName": "Keshkal",
    "partNumber": 83,
    "partName": "TENVSA - 1",
    "lat": 20.083284,
    "lon": 81.589058
  },
  {
    "partId": 43600,
    "stateCode": "S26",
    "stateName": "Chhattisgarh",
    "districtCode": "S2669",
    "districtName": "KONDAGAON",
    "acNumber": 82,
    "acName": "Keshkal",
    "partNumber": 84,
    "partName": "TENVSA - 2",
    "lat": 20.083284,
    "lon": 81.589058
  },
  {
    "partId": 43391,
    "stateCode": "S26",
    "stateName": "Chhattisgarh",
    "districtCode": "S2669",
    "districtName": "KONDAGAON",
    "acNumber": 82,
    "acName": "Keshkal",
    "partNumber": 85,
    "partName": "JARANDI",
    "lat": 20.0358599,
    "lon": 81.6798006
  },
  {
    "partId": 43393,
    "stateCode": "S26",
    "stateName": "Chhattisgarh",
    "districtCode": "S2669",
    "districtName": "KONDAGAON",
    "acNumber": 82,
    "acName": "Keshkal",
    "partNumber": 86,
    "partName": "ADENGA",
    "lat": 20.0440235,
    "lon": 81.6341098
  },
  {
    "partId": 43394,
    "stateCode": "S26",
    "stateName": "Chhattisgarh",
    "districtCode": "S2669",
    "districtName": "KONDAGAON",
    "acNumber": 82,
    "acName": "Keshkal",
    "partNumber": 87,
    "partName": "PRADHANCHERRA",
    "lat": 20.083284,
    "lon": 81.589058
  },
  {
    "partId": 43502,
    "stateCode": "S26",
    "stateName": "Chhattisgarh",
    "districtCode": "S2669",
    "districtName": "KONDAGAON",
    "acNumber": 82,
    "acName": "Keshkal",
    "partNumber": 88,
    "partName": "ETEKONADI",
    "lat": 20.083284,
    "lon": 81.589058
  },
  {
    "partId": 43396,
    "stateCode": "S26",
    "stateName": "Chhattisgarh",
    "districtCode": "S2669",
    "districtName": "KONDAGAON",
    "acNumber": 82,
    "acName": "Keshkal",
    "partNumber": 89,
    "partName": "DOHLAPARA",
    "lat": 20.0242336,
    "lon": 81.6477007
  },
  {
    "partId": 43569,
    "stateCode": "S26",
    "stateName": "Chhattisgarh",
    "districtCode": "S2669",
    "districtName": "KONDAGAON",
    "acNumber": 82,
    "acName": "Keshkal",
    "partNumber": 90,
    "partName": "BANDAPARA",
    "lat": 20.083284,
    "lon": 81.589058
  },
  {
    "partId": 43503,
    "stateCode": "S26",
    "stateName": "Chhattisgarh",
    "districtCode": "S2669",
    "districtName": "KONDAGAON",
    "acNumber": 82,
    "acName": "Keshkal",
    "partNumber": 91,
    "partName": "BAYALPUR",
    "lat": 20.083284,
    "lon": 81.589058
  },
  {
    "partId": 43353,
    "stateCode": "S26",
    "stateName": "Chhattisgarh",
    "districtCode": "S2669",
    "districtName": "KONDAGAON",
    "acNumber": 82,
    "acName": "Keshkal",
    "partNumber": 92,
    "partName": "BANDHAPARA",
    "lat": 19.9977216,
    "lon": 81.7068052
  },
  {
    "partId": 43354,
    "stateCode": "S26",
    "stateName": "Chhattisgarh",
    "districtCode": "S2669",
    "districtName": "KONDAGAON",
    "acNumber": 82,
    "acName": "Keshkal",
    "partNumber": 93,
    "partName": "SINGANPUR",
    "lat": 20.0191779,
    "lon": 81.5879409
  },
  {
    "partId": 43355,
    "stateCode": "S26",
    "stateName": "Chhattisgarh",
    "districtCode": "S2669",
    "districtName": "KONDAGAON",
    "acNumber": 82,
    "acName": "Keshkal",
    "partNumber": 94,
    "partName": "GARKA",
    "lat": 20.083284,
    "lon": 81.589058
  },
  {
    "partId": 43504,
    "stateCode": "S26",
    "stateName": "Chhattisgarh",
    "districtCode": "S2669",
    "districtName": "KONDAGAON",
    "acNumber": 82,
    "acName": "Keshkal",
    "partNumber": 95,
    "partName": "TATIRAS",
    "lat": 20.018577722545455,
    "lon": 81.60517916072727
  },
  {
    "partId": 43608,
    "stateCode": "S26",
    "stateName": "Chhattisgarh",
    "districtCode": "S2669",
    "districtName": "KONDAGAON",
    "acNumber": 82,
    "acName": "Keshkal",
    "partNumber": 96,
    "partName": "GULBAPARA",
    "lat": 20.083284,
    "lon": 81.589058
  },
  {
    "partId": 43352,
    "stateCode": "S26",
    "stateName": "Chhattisgarh",
    "districtCode": "S2669",
    "districtName": "KONDAGAON",
    "acNumber": 82,
    "acName": "Keshkal",
    "partNumber": 97,
    "partName": "AANVRI  - 1",
    "lat": 20.018577722545455,
    "lon": 81.60517916072727
  },
  {
    "partId": 43594,
    "stateCode": "S26",
    "stateName": "Chhattisgarh",
    "districtCode": "S2669",
    "districtName": "KONDAGAON",
    "acNumber": 82,
    "acName": "Keshkal",
    "partNumber": 98,
    "partName": "AANVRI - 2",
    "lat": 20.018577722545455,
    "lon": 81.60517916072727
  },
  {
    "partId": 43349,
    "stateCode": "S26",
    "stateName": "Chhattisgarh",
    "districtCode": "S2669",
    "districtName": "KONDAGAON",
    "acNumber": 82,
    "acName": "Keshkal",
    "partNumber": 99,
    "partName": "KORKOTI",
    "lat": 20.083284,
    "lon": 81.589058
  },
  {
    "partId": 43505,
    "stateCode": "S26",
    "stateName": "Chhattisgarh",
    "districtCode": "S2669",
    "districtName": "KONDAGAON",
    "acNumber": 82,
    "acName": "Keshkal",
    "partNumber": 100,
    "partName": "BADWAR",
    "lat": 20.083284,
    "lon": 81.589058
  },
  {
    "partId": 43347,
    "stateCode": "S26",
    "stateName": "Chhattisgarh",
    "districtCode": "S2669",
    "districtName": "KONDAGAON",
    "acNumber": 82,
    "acName": "Keshkal",
    "partNumber": 101,
    "partName": "DHANORA - 1",
    "lat": 19.9883937,
    "lon": 81.4623944
  },
  {
    "partId": 43585,
    "stateCode": "S26",
    "stateName": "Chhattisgarh",
    "districtCode": "S2669",
    "districtName": "KONDAGAON",
    "acNumber": 82,
    "acName": "Keshkal",
    "partNumber": 102,
    "partName": "DHANORA - 2",
    "lat": 19.9883937,
    "lon": 81.4623944
  },
  {
    "partId": 43348,
    "stateCode": "S26",
    "stateName": "Chhattisgarh",
    "districtCode": "S2669",
    "districtName": "KONDAGAON",
    "acNumber": 82,
    "acName": "Keshkal",
    "partNumber": 103,
    "partName": "DHANORA - 3",
    "lat": 19.9883937,
    "lon": 81.4623944
  },
  {
    "partId": 43470,
    "stateCode": "S26",
    "stateName": "Chhattisgarh",
    "districtCode": "S2669",
    "districtName": "KONDAGAON",
    "acNumber": 82,
    "acName": "Keshkal",
    "partNumber": 104,
    "partName": "BADEKHAULI",
    "lat": 20.083284,
    "lon": 81.589058
  },
  {
    "partId": 43506,
    "stateCode": "S26",
    "stateName": "Chhattisgarh",
    "districtCode": "S2669",
    "districtName": "KONDAGAON",
    "acNumber": 82,
    "acName": "Keshkal",
    "partNumber": 105,
    "partName": "TIMADI",
    "lat": 20.083284,
    "lon": 81.589058
  },
  {
    "partId": 43507,
    "stateCode": "S26",
    "stateName": "Chhattisgarh",
    "districtCode": "S2669",
    "districtName": "KONDAGAON",
    "acNumber": 82,
    "acName": "Keshkal",
    "partNumber": 106,
    "partName": "KARMARI",
    "lat": 20.0059224,
    "lon": 81.4328833
  },
  {
    "partId": 43337,
    "stateCode": "S26",
    "stateName": "Chhattisgarh",
    "districtCode": "S2669",
    "districtName": "KONDAGAON",
    "acNumber": 82,
    "acName": "Keshkal",
    "partNumber": 107,
    "partName": "TODASI - 1",
    "lat": 20.0196109,
    "lon": 81.3778494
  },
  {
    "partId": 43601,
    "stateCode": "S26",
    "stateName": "Chhattisgarh",
    "districtCode": "S2669",
    "districtName": "KONDAGAON",
    "acNumber": 82,
    "acName": "Keshkal",
    "partNumber": 108,
    "partName": "TODASI - 2",
    "lat": 20.0196109,
    "lon": 81.3778494
  },
  {
    "partId": 43508,
    "stateCode": "S26",
    "stateName": "Chhattisgarh",
    "districtCode": "S2669",
    "districtName": "KONDAGAON",
    "acNumber": 82,
    "acName": "Keshkal",
    "partNumber": 109,
    "partName": "PADDE",
    "lat": 20.0319146,
    "lon": 81.395551
  },
  {
    "partId": 43338,
    "stateCode": "S26",
    "stateName": "Chhattisgarh",
    "districtCode": "S2669",
    "districtName": "KONDAGAON",
    "acNumber": 82,
    "acName": "Keshkal",
    "partNumber": 110,
    "partName": "IRAGAON",
    "lat": 20.083284,
    "lon": 81.589058
  },
  {
    "partId": 43339,
    "stateCode": "S26",
    "stateName": "Chhattisgarh",
    "districtCode": "S2669",
    "districtName": "KONDAGAON",
    "acNumber": 82,
    "acName": "Keshkal",
    "partNumber": 111,
    "partName": "KAVAGAON",
    "lat": 20.083284,
    "lon": 81.589058
  },
  {
    "partId": 43340,
    "stateCode": "S26",
    "stateName": "Chhattisgarh",
    "districtCode": "S2669",
    "districtName": "KONDAGAON",
    "acNumber": 82,
    "acName": "Keshkal",
    "partNumber": 112,
    "partName": "BUIKI JUGANAR",
    "lat": 20.083284,
    "lon": 81.589058
  },
  {
    "partId": 43509,
    "stateCode": "S26",
    "stateName": "Chhattisgarh",
    "districtCode": "S2669",
    "districtName": "KONDAGAON",
    "acNumber": 82,
    "acName": "Keshkal",
    "partNumber": 113,
    "partName": "DUNDABEDMA",
    "lat": 19.9949102,
    "lon": 81.3429292
  },
  {
    "partId": 43342,
    "stateCode": "S26",
    "stateName": "Chhattisgarh",
    "districtCode": "S2669",
    "districtName": "KONDAGAON",
    "acNumber": 82,
    "acName": "Keshkal",
    "partNumber": 114,
    "partName": "BINJHE",
    "lat": 19.9702211,
    "lon": 81.3824774
  },
  {
    "partId": 43341,
    "stateCode": "S26",
    "stateName": "Chhattisgarh",
    "districtCode": "S2669",
    "districtName": "KONDAGAON",
    "acNumber": 82,
    "acName": "Keshkal",
    "partNumber": 115,
    "partName": "KANAGAON",
    "lat": 20.018577722545455,
    "lon": 81.60517916072727
  },
  {
    "partId": 43343,
    "stateCode": "S26",
    "stateName": "Chhattisgarh",
    "districtCode": "S2669",
    "districtName": "KONDAGAON",
    "acNumber": 82,
    "acName": "Keshkal",
    "partNumber": 116,
    "partName": "HATCHAPAI",
    "lat": 19.9059186,
    "lon": 81.3935585
  },
  {
    "partId": 43510,
    "stateCode": "S26",
    "stateName": "Chhattisgarh",
    "districtCode": "S2669",
    "districtName": "KONDAGAON",
    "acNumber": 82,
    "acName": "Keshkal",
    "partNumber": 117,
    "partName": "TURKI",
    "lat": 19.926404,
    "lon": 81.3845299
  },
  {
    "partId": 43602,
    "stateCode": "S26",
    "stateName": "Chhattisgarh",
    "districtCode": "S2669",
    "districtName": "KONDAGAON",
    "acNumber": 82,
    "acName": "Keshkal",
    "partNumber": 118,
    "partName": "KONDAPAKHNA",
    "lat": 20.083284,
    "lon": 81.589058
  },
  {
    "partId": 43511,
    "stateCode": "S26",
    "stateName": "Chhattisgarh",
    "districtCode": "S2669",
    "districtName": "KONDAGAON",
    "acNumber": 82,
    "acName": "Keshkal",
    "partNumber": 119,
    "partName": "BADEODAGAON",
    "lat": 19.9409938,
    "lon": 81.4087904
  },
  {
    "partId": 43512,
    "stateCode": "S26",
    "stateName": "Chhattisgarh",
    "districtCode": "S2669",
    "districtName": "KONDAGAON",
    "acNumber": 82,
    "acName": "Keshkal",
    "partNumber": 120,
    "partName": "BADAGAON",
    "lat": 19.9409024,
    "lon": 81.3839171
  },
  {
    "partId": 43405,
    "stateCode": "S26",
    "stateName": "Chhattisgarh",
    "districtCode": "S2669",
    "districtName": "KONDAGAON",
    "acNumber": 82,
    "acName": "Keshkal",
    "partNumber": 121,
    "partName": "BARDA",
    "lat": 20.018577722545455,
    "lon": 81.60517916072727
  },
  {
    "partId": 43404,
    "stateCode": "S26",
    "stateName": "Chhattisgarh",
    "districtCode": "S2669",
    "districtName": "KONDAGAON",
    "acNumber": 82,
    "acName": "Keshkal",
    "partNumber": 122,
    "partName": "KONGUD - 1",
    "lat": 20.083284,
    "lon": 81.589058
  },
  {
    "partId": 43513,
    "stateCode": "S26",
    "stateName": "Chhattisgarh",
    "districtCode": "S2669",
    "districtName": "KONDAGAON",
    "acNumber": 82,
    "acName": "Keshkal",
    "partNumber": 123,
    "partName": "KONGUD - 2",
    "lat": 20.083284,
    "lon": 81.589058
  },
  {
    "partId": 43345,
    "stateCode": "S26",
    "stateName": "Chhattisgarh",
    "districtCode": "S2669",
    "districtName": "KONDAGAON",
    "acNumber": 82,
    "acName": "Keshkal",
    "partNumber": 124,
    "partName": "CHANIYAGAON",
    "lat": 20.083284,
    "lon": 81.589058
  },
  {
    "partId": 43514,
    "stateCode": "S26",
    "stateName": "Chhattisgarh",
    "districtCode": "S2669",
    "districtName": "KONDAGAON",
    "acNumber": 82,
    "acName": "Keshkal",
    "partNumber": 125,
    "partName": "BOKRABEDA",
    "lat": 20.083284,
    "lon": 81.589058
  },
  {
    "partId": 43603,
    "stateCode": "S26",
    "stateName": "Chhattisgarh",
    "districtCode": "S2669",
    "districtName": "KONDAGAON",
    "acNumber": 82,
    "acName": "Keshkal",
    "partNumber": 126,
    "partName": "GAWADI",
    "lat": 19.9262423,
    "lon": 81.4685976
  },
  {
    "partId": 43344,
    "stateCode": "S26",
    "stateName": "Chhattisgarh",
    "districtCode": "S2669",
    "districtName": "KONDAGAON",
    "acNumber": 82,
    "acName": "Keshkal",
    "partNumber": 127,
    "partName": "FUNDER",
    "lat": 20.083284,
    "lon": 81.589058
  },
  {
    "partId": 43515,
    "stateCode": "S26",
    "stateName": "Chhattisgarh",
    "districtCode": "S2669",
    "districtName": "KONDAGAON",
    "acNumber": 82,
    "acName": "Keshkal",
    "partNumber": 128,
    "partName": "BELGAON",
    "lat": 19.9963762,
    "lon": 81.4429166
  },
  {
    "partId": 43346,
    "stateCode": "S26",
    "stateName": "Chhattisgarh",
    "districtCode": "S2669",
    "districtName": "KONDAGAON",
    "acNumber": 82,
    "acName": "Keshkal",
    "partNumber": 129,
    "partName": "KARARMETA",
    "lat": 19.9598541,
    "lon": 81.4628745
  },
  {
    "partId": 43350,
    "stateCode": "S26",
    "stateName": "Chhattisgarh",
    "districtCode": "S2669",
    "districtName": "KONDAGAON",
    "acNumber": 82,
    "acName": "Keshkal",
    "partNumber": 130,
    "partName": "BANIYAGAON",
    "lat": 19.979247,
    "lon": 81.4917296
  },
  {
    "partId": 43516,
    "stateCode": "S26",
    "stateName": "Chhattisgarh",
    "districtCode": "S2669",
    "districtName": "KONDAGAON",
    "acNumber": 82,
    "acName": "Keshkal",
    "partNumber": 131,
    "partName": "SAWALA",
    "lat": 20.018577722545455,
    "lon": 81.60517916072727
  },
  {
    "partId": 43351,
    "stateCode": "S26",
    "stateName": "Chhattisgarh",
    "districtCode": "S2669",
    "districtName": "KONDAGAON",
    "acNumber": 82,
    "acName": "Keshkal",
    "partNumber": 132,
    "partName": "SILATI",
    "lat": 19.96197,
    "lon": 81.5083981
  },
  {
    "partId": 43517,
    "stateCode": "S26",
    "stateName": "Chhattisgarh",
    "districtCode": "S2669",
    "districtName": "KONDAGAON",
    "acNumber": 82,
    "acName": "Keshkal",
    "partNumber": 133,
    "partName": "BHATGAON",
    "lat": 19.9659705,
    "lon": 81.4719904
  },
  {
    "partId": 43402,
    "stateCode": "S26",
    "stateName": "Chhattisgarh",
    "districtCode": "S2669",
    "districtName": "KONDAGAON",
    "acNumber": 82,
    "acName": "Keshkal",
    "partNumber": 134,
    "partName": "DEVGAON",
    "lat": 20.083284,
    "lon": 81.589058
  },
  {
    "partId": 43518,
    "stateCode": "S26",
    "stateName": "Chhattisgarh",
    "districtCode": "S2669",
    "districtName": "KONDAGAON",
    "acNumber": 82,
    "acName": "Keshkal",
    "partNumber": 135,
    "partName": "JAMGAON",
    "lat": 20.0701347,
    "lon": 81.6054871
  },
  {
    "partId": 43407,
    "stateCode": "S26",
    "stateName": "Chhattisgarh",
    "districtCode": "S2669",
    "districtName": "KONDAGAON",
    "acNumber": 82,
    "acName": "Keshkal",
    "partNumber": 136,
    "partName": "NAVAGARH",
    "lat": 20.083284,
    "lon": 81.589058
  },
  {
    "partId": 43519,
    "stateCode": "S26",
    "stateName": "Chhattisgarh",
    "districtCode": "S2669",
    "districtName": "KONDAGAON",
    "acNumber": 82,
    "acName": "Keshkal",
    "partNumber": 137,
    "partName": "NAYANAR",
    "lat": 19.913484,
    "lon": 81.5703578
  },
  {
    "partId": 43408,
    "stateCode": "S26",
    "stateName": "Chhattisgarh",
    "districtCode": "S2669",
    "districtName": "KONDAGAON",
    "acNumber": 82,
    "acName": "Keshkal",
    "partNumber": 138,
    "partName": "KHETARPAL",
    "lat": 19.9533138,
    "lon": 81.5477254
  },
  {
    "partId": 43570,
    "stateCode": "S26",
    "stateName": "Chhattisgarh",
    "districtCode": "S2669",
    "districtName": "KONDAGAON",
    "acNumber": 82,
    "acName": "Keshkal",
    "partNumber": 139,
    "partName": "HARWAKODO",
    "lat": 20.083284,
    "lon": 81.589058
  },
  {
    "partId": 43399,
    "stateCode": "S26",
    "stateName": "Chhattisgarh",
    "districtCode": "S2669",
    "districtName": "KONDAGAON",
    "acNumber": 82,
    "acName": "Keshkal",
    "partNumber": 140,
    "partName": "DUMARPADAR",
    "lat": 20.083284,
    "lon": 81.589058
  },
  {
    "partId": 43571,
    "stateCode": "S26",
    "stateName": "Chhattisgarh",
    "districtCode": "S2669",
    "districtName": "KONDAGAON",
    "acNumber": 82,
    "acName": "Keshkal",
    "partNumber": 141,
    "partName": "BAKANBHATA",
    "lat": 19.9869015,
    "lon": 81.5588327
  },
  {
    "partId": 43400,
    "stateCode": "S26",
    "stateName": "Chhattisgarh",
    "districtCode": "S2669",
    "districtName": "KONDAGAON",
    "acNumber": 82,
    "acName": "Keshkal",
    "partNumber": 142,
    "partName": "ARANDI",
    "lat": 20.083284,
    "lon": 81.589058
  },
  {
    "partId": 43398,
    "stateCode": "S26",
    "stateName": "Chhattisgarh",
    "districtCode": "S2669",
    "districtName": "KONDAGAON",
    "acNumber": 82,
    "acName": "Keshkal",
    "partNumber": 143,
    "partName": "BEDMA",
    "lat": 19.983488,
    "lon": 81.6097136
  },
  {
    "partId": 43572,
    "stateCode": "S26",
    "stateName": "Chhattisgarh",
    "districtCode": "S2669",
    "districtName": "KONDAGAON",
    "acNumber": 82,
    "acName": "Keshkal",
    "partNumber": 144,
    "partName": "AADANBEDA",
    "lat": 20.018577722545455,
    "lon": 81.60517916072727
  },
  {
    "partId": 43395,
    "stateCode": "S26",
    "stateName": "Chhattisgarh",
    "districtCode": "S2669",
    "districtName": "KONDAGAON",
    "acNumber": 82,
    "acName": "Keshkal",
    "partNumber": 145,
    "partName": "TOSKAPAL - 1",
    "lat": 19.9960916,
    "lon": 81.6406084
  },
  {
    "partId": 43604,
    "stateCode": "S26",
    "stateName": "Chhattisgarh",
    "districtCode": "S2669",
    "districtName": "KONDAGAON",
    "acNumber": 82,
    "acName": "Keshkal",
    "partNumber": 146,
    "partName": "TOSKAPAL - 2 TARAIBEDAPARA",
    "lat": 20.018577722545455,
    "lon": 81.60517916072727
  },
  {
    "partId": 43392,
    "stateCode": "S26",
    "stateName": "Chhattisgarh",
    "districtCode": "S2669",
    "districtName": "KONDAGAON",
    "acNumber": 82,
    "acName": "Keshkal",
    "partNumber": 147,
    "partName": "GARAVANDI - 1",
    "lat": 20.083284,
    "lon": 81.589058
  },
  {
    "partId": 43616,
    "stateCode": "S26",
    "stateName": "Chhattisgarh",
    "districtCode": "S2669",
    "districtName": "KONDAGAON",
    "acNumber": 82,
    "acName": "Keshkal",
    "partNumber": 148,
    "partName": "GARAVANDI - 2",
    "lat": 20.083284,
    "lon": 81.589058
  },
  {
    "partId": 43520,
    "stateCode": "S26",
    "stateName": "Chhattisgarh",
    "districtCode": "S2669",
    "districtName": "KONDAGAON",
    "acNumber": 82,
    "acName": "Keshkal",
    "partNumber": 149,
    "partName": "HALIYA",
    "lat": 20.018577722545455,
    "lon": 81.60517916072727
  },
  {
    "partId": 43397,
    "stateCode": "S26",
    "stateName": "Chhattisgarh",
    "districtCode": "S2669",
    "districtName": "KONDAGAON",
    "acNumber": 82,
    "acName": "Keshkal",
    "partNumber": 150,
    "partName": "SIKAGAON",
    "lat": 19.9781748,
    "lon": 81.6539337
  },
  {
    "partId": 43521,
    "stateCode": "S26",
    "stateName": "Chhattisgarh",
    "districtCode": "S2669",
    "districtName": "KONDAGAON",
    "acNumber": 82,
    "acName": "Keshkal",
    "partNumber": 151,
    "partName": "SALEBHAT",
    "lat": 19.9917328,
    "lon": 81.6619176
  },
  {
    "partId": 43416,
    "stateCode": "S26",
    "stateName": "Chhattisgarh",
    "districtCode": "S2669",
    "districtName": "KONDAGAON",
    "acNumber": 82,
    "acName": "Keshkal",
    "partNumber": 152,
    "partName": "CHHOTERAJPUR - 1",
    "lat": 19.9491302,
    "lon": 81.7012456
  },
  {
    "partId": 43586,
    "stateCode": "S26",
    "stateName": "Chhattisgarh",
    "districtCode": "S2669",
    "districtName": "KONDAGAON",
    "acNumber": 82,
    "acName": "Keshkal",
    "partNumber": 153,
    "partName": "CHHOTERAJPUR - 2",
    "lat": 19.9491302,
    "lon": 81.7012456
  },
  {
    "partId": 43522,
    "stateCode": "S26",
    "stateName": "Chhattisgarh",
    "districtCode": "S2669",
    "districtName": "KONDAGAON",
    "acNumber": 82,
    "acName": "Keshkal",
    "partNumber": 154,
    "partName": "PADOKI",
    "lat": 20.018577722545455,
    "lon": 81.60517916072727
  },
  {
    "partId": 43387,
    "stateCode": "S26",
    "stateName": "Chhattisgarh",
    "districtCode": "S2669",
    "districtName": "KONDAGAON",
    "acNumber": 82,
    "acName": "Keshkal",
    "partNumber": 155,
    "partName": "BADERAJPUR - 1",
    "lat": 19.961712,
    "lon": 81.7251277
  },
  {
    "partId": 43523,
    "stateCode": "S26",
    "stateName": "Chhattisgarh",
    "districtCode": "S2669",
    "districtName": "KONDAGAON",
    "acNumber": 82,
    "acName": "Keshkal",
    "partNumber": 156,
    "partName": "BADERAJPUR - 2",
    "lat": 19.961712,
    "lon": 81.7251277
  },
  {
    "partId": 43587,
    "stateCode": "S26",
    "stateName": "Chhattisgarh",
    "districtCode": "S2669",
    "districtName": "KONDAGAON",
    "acNumber": 82,
    "acName": "Keshkal",
    "partNumber": 157,
    "partName": "BADERAJPUR  - 3",
    "lat": 20.083284,
    "lon": 81.589058
  },
  {
    "partId": 43388,
    "stateCode": "S26",
    "stateName": "Chhattisgarh",
    "districtCode": "S2669",
    "districtName": "KONDAGAON",
    "acNumber": 82,
    "acName": "Keshkal",
    "partNumber": 158,
    "partName": "BADERAJPUR - 4",
    "lat": 19.961712,
    "lon": 81.7251277
  },
  {
    "partId": 43417,
    "stateCode": "S26",
    "stateName": "Chhattisgarh",
    "districtCode": "S2669",
    "districtName": "KONDAGAON",
    "acNumber": 82,
    "acName": "Keshkal",
    "partNumber": 159,
    "partName": "AMGAON",
    "lat": 19.832274,
    "lon": 81.4581466
  },
  {
    "partId": 43385,
    "stateCode": "S26",
    "stateName": "Chhattisgarh",
    "districtCode": "S2669",
    "districtName": "KONDAGAON",
    "acNumber": 82,
    "acName": "Keshkal",
    "partNumber": 160,
    "partName": "LIHAGAON - 1",
    "lat": 20.0139146,
    "lon": 81.802858
  },
  {
    "partId": 43524,
    "stateCode": "S26",
    "stateName": "Chhattisgarh",
    "districtCode": "S2669",
    "districtName": "KONDAGAON",
    "acNumber": 82,
    "acName": "Keshkal",
    "partNumber": 161,
    "partName": "LIHAGAON - 2",
    "lat": 20.0139146,
    "lon": 81.802858
  },
  {
    "partId": 43384,
    "stateCode": "S26",
    "stateName": "Chhattisgarh",
    "districtCode": "S2669",
    "districtName": "KONDAGAON",
    "acNumber": 82,
    "acName": "Keshkal",
    "partNumber": 162,
    "partName": "MARANGPURI - 1",
    "lat": 20.011705,
    "lon": 81.8577672
  },
  {
    "partId": 43525,
    "stateCode": "S26",
    "stateName": "Chhattisgarh",
    "districtCode": "S2669",
    "districtName": "KONDAGAON",
    "acNumber": 82,
    "acName": "Keshkal",
    "partNumber": 163,
    "partName": "MARANGPURI - 2",
    "lat": 20.011705,
    "lon": 81.8577672
  },
  {
    "partId": 43420,
    "stateCode": "S26",
    "stateName": "Chhattisgarh",
    "districtCode": "S2669",
    "districtName": "KONDAGAON",
    "acNumber": 82,
    "acName": "Keshkal",
    "partNumber": 164,
    "partName": "BANSKOT - 1",
    "lat": 20.018577722545455,
    "lon": 81.60517916072727
  },
  {
    "partId": 43421,
    "stateCode": "S26",
    "stateName": "Chhattisgarh",
    "districtCode": "S2669",
    "districtName": "KONDAGAON",
    "acNumber": 82,
    "acName": "Keshkal",
    "partNumber": 165,
    "partName": "BANSKOT - 2",
    "lat": 20.083284,
    "lon": 81.589058
  },
  {
    "partId": 43422,
    "stateCode": "S26",
    "stateName": "Chhattisgarh",
    "districtCode": "S2669",
    "districtName": "KONDAGAON",
    "acNumber": 82,
    "acName": "Keshkal",
    "partNumber": 166,
    "partName": "BANSKOT - 3",
    "lat": 20.083284,
    "lon": 81.589058
  },
  {
    "partId": 43423,
    "stateCode": "S26",
    "stateName": "Chhattisgarh",
    "districtCode": "S2669",
    "districtName": "KONDAGAON",
    "acNumber": 82,
    "acName": "Keshkal",
    "partNumber": 167,
    "partName": "TITIRVAND - 1",
    "lat": 20.083284,
    "lon": 81.589058
  },
  {
    "partId": 43526,
    "stateCode": "S26",
    "stateName": "Chhattisgarh",
    "districtCode": "S2669",
    "districtName": "KONDAGAON",
    "acNumber": 82,
    "acName": "Keshkal",
    "partNumber": 168,
    "partName": "TITIRVAND - 2",
    "lat": 20.018577722545455,
    "lon": 81.60517916072727
  },
  {
    "partId": 43527,
    "stateCode": "S26",
    "stateName": "Chhattisgarh",
    "districtCode": "S2669",
    "districtName": "KONDAGAON",
    "acNumber": 82,
    "acName": "Keshkal",
    "partNumber": 169,
    "partName": "HALDA",
    "lat": 19.9366716,
    "lon": 81.8520846
  },
  {
    "partId": 43453,
    "stateCode": "S26",
    "stateName": "Chhattisgarh",
    "districtCode": "S2669",
    "districtName": "KONDAGAON",
    "acNumber": 82,
    "acName": "Keshkal",
    "partNumber": 170,
    "partName": "KULDADIHI",
    "lat": 20.083284,
    "lon": 81.589058
  },
  {
    "partId": 43424,
    "stateCode": "S26",
    "stateName": "Chhattisgarh",
    "districtCode": "S2669",
    "districtName": "KONDAGAON",
    "acNumber": 82,
    "acName": "Keshkal",
    "partNumber": 171,
    "partName": "GAMHRI - 1",
    "lat": 20.083284,
    "lon": 81.589058
  },
  {
    "partId": 43425,
    "stateCode": "S26",
    "stateName": "Chhattisgarh",
    "districtCode": "S2669",
    "districtName": "KONDAGAON",
    "acNumber": 82,
    "acName": "Keshkal",
    "partNumber": 172,
    "partName": "KARAMRI",
    "lat": 20.083284,
    "lon": 81.589058
  },
  {
    "partId": 43528,
    "stateCode": "S26",
    "stateName": "Chhattisgarh",
    "districtCode": "S2669",
    "districtName": "KONDAGAON",
    "acNumber": 82,
    "acName": "Keshkal",
    "partNumber": 173,
    "partName": "JODEKERA",
    "lat": 19.8940416,
    "lon": 81.7976026
  },
  {
    "partId": 43529,
    "stateCode": "S26",
    "stateName": "Chhattisgarh",
    "districtCode": "S2669",
    "districtName": "KONDAGAON",
    "acNumber": 82,
    "acName": "Keshkal",
    "partNumber": 174,
    "partName": "GAMHARI - 2",
    "lat": 19.8925197,
    "lon": 81.8559174
  },
  {
    "partId": 43452,
    "stateCode": "S26",
    "stateName": "Chhattisgarh",
    "districtCode": "S2669",
    "districtName": "KONDAGAON",
    "acNumber": 82,
    "acName": "Keshkal",
    "partNumber": 175,
    "partName": "BADBATTAR - 1",
    "lat": 19.9002573,
    "lon": 81.792973
  },
  {
    "partId": 43530,
    "stateCode": "S26",
    "stateName": "Chhattisgarh",
    "districtCode": "S2669",
    "districtName": "KONDAGAON",
    "acNumber": 82,
    "acName": "Keshkal",
    "partNumber": 176,
    "partName": "BADBATTAR - 2",
    "lat": 19.9002573,
    "lon": 81.792973
  },
  {
    "partId": 43531,
    "stateCode": "S26",
    "stateName": "Chhattisgarh",
    "districtCode": "S2669",
    "districtName": "KONDAGAON",
    "acNumber": 82,
    "acName": "Keshkal",
    "partNumber": 177,
    "partName": "PIDHAPAL",
    "lat": 19.9173532,
    "lon": 81.790825
  },
  {
    "partId": 43322,
    "stateCode": "S26",
    "stateName": "Chhattisgarh",
    "districtCode": "S2669",
    "districtName": "KONDAGAON",
    "acNumber": 82,
    "acName": "Keshkal",
    "partNumber": 178,
    "partName": "DHODHRA",
    "lat": 20.083284,
    "lon": 81.589058
  },
  {
    "partId": 43426,
    "stateCode": "S26",
    "stateName": "Chhattisgarh",
    "districtCode": "S2669",
    "districtName": "KONDAGAON",
    "acNumber": 82,
    "acName": "Keshkal",
    "partNumber": 179,
    "partName": "HARBEL/TARAIBEDA - 1",
    "lat": 20.083284,
    "lon": 81.589058
  },
  {
    "partId": 43532,
    "stateCode": "S26",
    "stateName": "Chhattisgarh",
    "districtCode": "S2669",
    "districtName": "KONDAGAON",
    "acNumber": 82,
    "acName": "Keshkal",
    "partNumber": 180,
    "partName": "HARBEL/TARAIBEDA - 2",
    "lat": 20.083284,
    "lon": 81.589058
  },
  {
    "partId": 43573,
    "stateCode": "S26",
    "stateName": "Chhattisgarh",
    "districtCode": "S2669",
    "districtName": "KONDAGAON",
    "acNumber": 82,
    "acName": "Keshkal",
    "partNumber": 181,
    "partName": "KIWADA",
    "lat": 20.083284,
    "lon": 81.589058
  },
  {
    "partId": 43418,
    "stateCode": "S26",
    "stateName": "Chhattisgarh",
    "districtCode": "S2669",
    "districtName": "KONDAGAON",
    "acNumber": 82,
    "acName": "Keshkal",
    "partNumber": 182,
    "partName": "BALENGA - 1",
    "lat": 19.985023,
    "lon": 81.795647
  },
  {
    "partId": 43419,
    "stateCode": "S26",
    "stateName": "Chhattisgarh",
    "districtCode": "S2669",
    "districtName": "KONDAGAON",
    "acNumber": 82,
    "acName": "Keshkal",
    "partNumber": 183,
    "partName": "BALENGA - 2",
    "lat": 19.985023,
    "lon": 81.795647
  },
  {
    "partId": 43427,
    "stateCode": "S26",
    "stateName": "Chhattisgarh",
    "districtCode": "S2669",
    "districtName": "KONDAGAON",
    "acNumber": 82,
    "acName": "Keshkal",
    "partNumber": 184,
    "partName": "CHHINDLI - 1",
    "lat": 20.083284,
    "lon": 81.589058
  },
  {
    "partId": 43533,
    "stateCode": "S26",
    "stateName": "Chhattisgarh",
    "districtCode": "S2669",
    "districtName": "KONDAGAON",
    "acNumber": 82,
    "acName": "Keshkal",
    "partNumber": 185,
    "partName": "CHHINDLI - 2",
    "lat": 20.083284,
    "lon": 81.589058
  },
  {
    "partId": 43428,
    "stateCode": "S26",
    "stateName": "Chhattisgarh",
    "districtCode": "S2669",
    "districtName": "KONDAGAON",
    "acNumber": 82,
    "acName": "Keshkal",
    "partNumber": 186,
    "partName": "DHAMANPURI",
    "lat": 19.9686696,
    "lon": 81.7588942
  },
  {
    "partId": 43429,
    "stateCode": "S26",
    "stateName": "Chhattisgarh",
    "districtCode": "S2669",
    "districtName": "KONDAGAON",
    "acNumber": 82,
    "acName": "Keshkal",
    "partNumber": 187,
    "partName": "KOPRA - 1",
    "lat": 20.018577722545455,
    "lon": 81.60517916072727
  },
  {
    "partId": 43534,
    "stateCode": "S26",
    "stateName": "Chhattisgarh",
    "districtCode": "S2669",
    "districtName": "KONDAGAON",
    "acNumber": 82,
    "acName": "Keshkal",
    "partNumber": 188,
    "partName": "KOPRA - 2",
    "lat": 19.9211893,
    "lon": 81.7174865
  },
  {
    "partId": 43430,
    "stateCode": "S26",
    "stateName": "Chhattisgarh",
    "districtCode": "S2669",
    "districtName": "KONDAGAON",
    "acNumber": 82,
    "acName": "Keshkal",
    "partNumber": 189,
    "partName": "MADOKI KHARGAON - 1",
    "lat": 20.083284,
    "lon": 81.589058
  },
  {
    "partId": 43535,
    "stateCode": "S26",
    "stateName": "Chhattisgarh",
    "districtCode": "S2669",
    "districtName": "KONDAGAON",
    "acNumber": 82,
    "acName": "Keshkal",
    "partNumber": 190,
    "partName": "MADOKI KHARGAON - 2",
    "lat": 20.083284,
    "lon": 81.589058
  },
  {
    "partId": 43536,
    "stateCode": "S26",
    "stateName": "Chhattisgarh",
    "districtCode": "S2669",
    "districtName": "KONDAGAON",
    "acNumber": 82,
    "acName": "Keshkal",
    "partNumber": 191,
    "partName": "NAUKABEDA",
    "lat": 20.083284,
    "lon": 81.589058
  },
  {
    "partId": 43409,
    "stateCode": "S26",
    "stateName": "Chhattisgarh",
    "districtCode": "S2669",
    "districtName": "KONDAGAON",
    "acNumber": 82,
    "acName": "Keshkal",
    "partNumber": 192,
    "partName": "BAHIGAON - 1",
    "lat": 19.9556523,
    "lon": 81.6091474
  },
  {
    "partId": 43575,
    "stateCode": "S26",
    "stateName": "Chhattisgarh",
    "districtCode": "S2669",
    "districtName": "KONDAGAON",
    "acNumber": 82,
    "acName": "Keshkal",
    "partNumber": 193,
    "partName": "BAHIGAON - 2",
    "lat": 19.9556523,
    "lon": 81.6091474
  },
  {
    "partId": 43411,
    "stateCode": "S26",
    "stateName": "Chhattisgarh",
    "districtCode": "S2669",
    "districtName": "KONDAGAON",
    "acNumber": 82,
    "acName": "Keshkal",
    "partNumber": 194,
    "partName": "PIPRA CHERBEDA",
    "lat": 20.083284,
    "lon": 81.589058
  },
  {
    "partId": 43412,
    "stateCode": "S26",
    "stateName": "Chhattisgarh",
    "districtCode": "S2669",
    "districtName": "KONDAGAON",
    "acNumber": 82,
    "acName": "Keshkal",
    "partNumber": 195,
    "partName": "BADETHEMLI",
    "lat": 19.9037986,
    "lon": 81.5951252
  },
  {
    "partId": 43537,
    "stateCode": "S26",
    "stateName": "Chhattisgarh",
    "districtCode": "S2669",
    "districtName": "KONDAGAON",
    "acNumber": 82,
    "acName": "Keshkal",
    "partNumber": 196,
    "partName": "PIPRA RAVBEDA",
    "lat": 20.083284,
    "lon": 81.589058
  },
  {
    "partId": 43413,
    "stateCode": "S26",
    "stateName": "Chhattisgarh",
    "districtCode": "S2669",
    "districtName": "KONDAGAON",
    "acNumber": 82,
    "acName": "Keshkal",
    "partNumber": 197,
    "partName": "KHUTPADAR",
    "lat": 19.9577075,
    "lon": 81.668622
  },
  {
    "partId": 43538,
    "stateCode": "S26",
    "stateName": "Chhattisgarh",
    "districtCode": "S2669",
    "districtName": "KONDAGAON",
    "acNumber": 82,
    "acName": "Keshkal",
    "partNumber": 198,
    "partName": "PIPRA AMODA",
    "lat": 20.083284,
    "lon": 81.589058
  },
  {
    "partId": 43414,
    "stateCode": "S26",
    "stateName": "Chhattisgarh",
    "districtCode": "S2669",
    "districtName": "KONDAGAON",
    "acNumber": 82,
    "acName": "Keshkal",
    "partNumber": 199,
    "partName": "AAWRABHATA",
    "lat": 20.083284,
    "lon": 81.589058
  },
  {
    "partId": 43539,
    "stateCode": "S26",
    "stateName": "Chhattisgarh",
    "districtCode": "S2669",
    "districtName": "KONDAGAON",
    "acNumber": 82,
    "acName": "Keshkal",
    "partNumber": 200,
    "partName": "PIPRA DHODGAPARA",
    "lat": 20.083284,
    "lon": 81.589058
  },
  {
    "partId": 43415,
    "stateCode": "S26",
    "stateName": "Chhattisgarh",
    "districtCode": "S2669",
    "districtName": "KONDAGAON",
    "acNumber": 82,
    "acName": "Keshkal",
    "partNumber": 201,
    "partName": "PIPRA KHASPARA",
    "lat": 20.083284,
    "lon": 81.589058
  },
  {
    "partId": 43574,
    "stateCode": "S26",
    "stateName": "Chhattisgarh",
    "districtCode": "S2669",
    "districtName": "KONDAGAON",
    "acNumber": 82,
    "acName": "Keshkal",
    "partNumber": 202,
    "partName": "PIPRA PAWARAS",
    "lat": 20.083284,
    "lon": 81.589058
  },
  {
    "partId": 43609,
    "stateCode": "S26",
    "stateName": "Chhattisgarh",
    "districtCode": "S2669",
    "districtName": "KONDAGAON",
    "acNumber": 82,
    "acName": "Keshkal",
    "partNumber": 203,
    "partName": "PIPRA CHHOTETHEMLI",
    "lat": 20.083284,
    "lon": 81.589058
  },
  {
    "partId": 43610,
    "stateCode": "S26",
    "stateName": "Chhattisgarh",
    "districtCode": "S2669",
    "districtName": "KONDAGAON",
    "acNumber": 82,
    "acName": "Keshkal",
    "partNumber": 204,
    "partName": "PIPRA TARAIBEDA",
    "lat": 20.083284,
    "lon": 81.589058
  },
  {
    "partId": 43401,
    "stateCode": "S26",
    "stateName": "Chhattisgarh",
    "districtCode": "S2669",
    "districtName": "KONDAGAON",
    "acNumber": 82,
    "acName": "Keshkal",
    "partNumber": 205,
    "partName": "TENDUBHATA",
    "lat": 19.9837759,
    "lon": 81.577885
  },
  {
    "partId": 43475,
    "stateCode": "S26",
    "stateName": "Chhattisgarh",
    "districtCode": "S2669",
    "districtName": "KONDAGAON",
    "acNumber": 82,
    "acName": "Keshkal",
    "partNumber": 206,
    "partName": "CHARBHATA",
    "lat": 19.9698921,
    "lon": 81.5774758
  },
  {
    "partId": 43540,
    "stateCode": "S26",
    "stateName": "Chhattisgarh",
    "districtCode": "S2669",
    "districtName": "KONDAGAON",
    "acNumber": 82,
    "acName": "Keshkal",
    "partNumber": 207,
    "partName": "PALORA",
    "lat": 20.083284,
    "lon": 81.589058
  },
  {
    "partId": 43410,
    "stateCode": "S26",
    "stateName": "Chhattisgarh",
    "districtCode": "S2669",
    "districtName": "KONDAGAON",
    "acNumber": 82,
    "acName": "Keshkal",
    "partNumber": 208,
    "partName": "MASSUKOKODA",
    "lat": 20.083284,
    "lon": 81.589058
  },
  {
    "partId": 43431,
    "stateCode": "S26",
    "stateName": "Chhattisgarh",
    "districtCode": "S2669",
    "districtName": "KONDAGAON",
    "acNumber": 82,
    "acName": "Keshkal",
    "partNumber": 209,
    "partName": "MAANJHIAATHGAON - 1",
    "lat": 20.083284,
    "lon": 81.589058
  },
  {
    "partId": 43588,
    "stateCode": "S26",
    "stateName": "Chhattisgarh",
    "districtCode": "S2669",
    "districtName": "KONDAGAON",
    "acNumber": 82,
    "acName": "Keshkal",
    "partNumber": 210,
    "partName": "MAANJHIAATHGAON - 2",
    "lat": 20.083284,
    "lon": 81.589058
  },
  {
    "partId": 43432,
    "stateCode": "S26",
    "stateName": "Chhattisgarh",
    "districtCode": "S2669",
    "districtName": "KONDAGAON",
    "acNumber": 82,
    "acName": "Keshkal",
    "partNumber": 211,
    "partName": "CHICHADI - 1",
    "lat": 19.8905807,
    "lon": 81.640812
  },
  {
    "partId": 43589,
    "stateCode": "S26",
    "stateName": "Chhattisgarh",
    "districtCode": "S2669",
    "districtName": "KONDAGAON",
    "acNumber": 82,
    "acName": "Keshkal",
    "partNumber": 212,
    "partName": "CHICHADI - 2",
    "lat": 19.8905807,
    "lon": 81.640812
  },
  {
    "partId": 43451,
    "stateCode": "S26",
    "stateName": "Chhattisgarh",
    "districtCode": "S2669",
    "districtName": "KONDAGAON",
    "acNumber": 82,
    "acName": "Keshkal",
    "partNumber": 213,
    "partName": "BANGAON  - 1",
    "lat": 20.083284,
    "lon": 81.589058
  },
  {
    "partId": 43576,
    "stateCode": "S26",
    "stateName": "Chhattisgarh",
    "districtCode": "S2669",
    "districtName": "KONDAGAON",
    "acNumber": 82,
    "acName": "Keshkal",
    "partNumber": 214,
    "partName": "BANGAON - 2",
    "lat": 20.083284,
    "lon": 81.589058
  },
  {
    "partId": 43450,
    "stateCode": "S26",
    "stateName": "Chhattisgarh",
    "districtCode": "S2669",
    "districtName": "KONDAGAON",
    "acNumber": 82,
    "acName": "Keshkal",
    "partNumber": 215,
    "partName": "PASANGI",
    "lat": 20.083284,
    "lon": 81.589058
  },
  {
    "partId": 43448,
    "stateCode": "S26",
    "stateName": "Chhattisgarh",
    "districtCode": "S2669",
    "districtName": "KONDAGAON",
    "acNumber": 82,
    "acName": "Keshkal",
    "partNumber": 216,
    "partName": "PHARASGAON - 1",
    "lat": 19.8600905,
    "lon": 81.6378593
  },
  {
    "partId": 43541,
    "stateCode": "S26",
    "stateName": "Chhattisgarh",
    "districtCode": "S2669",
    "districtName": "KONDAGAON",
    "acNumber": 82,
    "acName": "Keshkal",
    "partNumber": 217,
    "partName": "PHARASGAON - 2",
    "lat": 19.8600905,
    "lon": 81.6378593
  },
  {
    "partId": 43449,
    "stateCode": "S26",
    "stateName": "Chhattisgarh",
    "districtCode": "S2669",
    "districtName": "KONDAGAON",
    "acNumber": 82,
    "acName": "Keshkal",
    "partNumber": 218,
    "partName": "PHARASGAON -  3",
    "lat": 20.018577722545455,
    "lon": 81.60517916072727
  },
  {
    "partId": 43590,
    "stateCode": "S26",
    "stateName": "Chhattisgarh",
    "districtCode": "S2669",
    "districtName": "KONDAGAON",
    "acNumber": 82,
    "acName": "Keshkal",
    "partNumber": 219,
    "partName": "PHARASGAON - 4",
    "lat": 19.8600905,
    "lon": 81.6378593
  },
  {
    "partId": 43447,
    "stateCode": "S26",
    "stateName": "Chhattisgarh",
    "districtCode": "S2669",
    "districtName": "KONDAGAON",
    "acNumber": 82,
    "acName": "Keshkal",
    "partNumber": 220,
    "partName": "GATTIPALNA",
    "lat": 20.083284,
    "lon": 81.589058
  },
  {
    "partId": 43591,
    "stateCode": "S26",
    "stateName": "Chhattisgarh",
    "districtCode": "S2669",
    "districtName": "KONDAGAON",
    "acNumber": 82,
    "acName": "Keshkal",
    "partNumber": 221,
    "partName": "KORRABADGAON",
    "lat": 20.018577722545455,
    "lon": 81.60517916072727
  },
  {
    "partId": 43446,
    "stateCode": "S26",
    "stateName": "Chhattisgarh",
    "districtCode": "S2669",
    "districtName": "KONDAGAON",
    "acNumber": 82,
    "acName": "Keshkal",
    "partNumber": 222,
    "partName": "PANDE ATHGAON",
    "lat": 20.083284,
    "lon": 81.589058
  },
  {
    "partId": 43323,
    "stateCode": "S26",
    "stateName": "Chhattisgarh",
    "districtCode": "S2669",
    "districtName": "KONDAGAON",
    "acNumber": 82,
    "acName": "Keshkal",
    "partNumber": 223,
    "partName": "CHARKAI",
    "lat": 19.7833181,
    "lon": 81.7061504
  },
  {
    "partId": 43542,
    "stateCode": "S26",
    "stateName": "Chhattisgarh",
    "districtCode": "S2669",
    "districtName": "KONDAGAON",
    "acNumber": 82,
    "acName": "Keshkal",
    "partNumber": 224,
    "partName": "CHANDAGAON",
    "lat": 19.8037245,
    "lon": 81.6854411
  },
  {
    "partId": 43445,
    "stateCode": "S26",
    "stateName": "Chhattisgarh",
    "districtCode": "S2669",
    "districtName": "KONDAGAON",
    "acNumber": 82,
    "acName": "Keshkal",
    "partNumber": 225,
    "partName": "PURVI BORGAON",
    "lat": 20.083284,
    "lon": 81.589058
  },
  {
    "partId": 43543,
    "stateCode": "S26",
    "stateName": "Chhattisgarh",
    "districtCode": "S2669",
    "districtName": "KONDAGAON",
    "acNumber": 82,
    "acName": "Keshkal",
    "partNumber": 226,
    "partName": "PASCHIM  BORGAON",
    "lat": 20.083284,
    "lon": 81.589058
  },
  {
    "partId": 43438,
    "stateCode": "S26",
    "stateName": "Chhattisgarh",
    "districtCode": "S2669",
    "districtName": "KONDAGAON",
    "acNumber": 82,
    "acName": "Keshkal",
    "partNumber": 227,
    "partName": "SINGARPURI",
    "lat": 19.8017172,
    "lon": 81.6207661
  },
  {
    "partId": 43544,
    "stateCode": "S26",
    "stateName": "Chhattisgarh",
    "districtCode": "S2669",
    "districtName": "KONDAGAON",
    "acNumber": 82,
    "acName": "Keshkal",
    "partNumber": 228,
    "partName": "CHUREGAON",
    "lat": 19.7870456,
    "lon": 81.622976
  },
  {
    "partId": 43545,
    "stateCode": "S26",
    "stateName": "Chhattisgarh",
    "districtCode": "S2669",
    "districtName": "KONDAGAON",
    "acNumber": 82,
    "acName": "Keshkal",
    "partNumber": 229,
    "partName": "HIRRI",
    "lat": 19.7990715,
    "lon": 81.6010036
  },
  {
    "partId": 43436,
    "stateCode": "S26",
    "stateName": "Chhattisgarh",
    "districtCode": "S2669",
    "districtName": "KONDAGAON",
    "acNumber": 82,
    "acName": "Keshkal",
    "partNumber": 230,
    "partName": "FUPGAON - 1",
    "lat": 19.8149216,
    "lon": 81.5937763
  },
  {
    "partId": 43617,
    "stateCode": "S26",
    "stateName": "Chhattisgarh",
    "districtCode": "S2669",
    "districtName": "KONDAGAON",
    "acNumber": 82,
    "acName": "Keshkal",
    "partNumber": 231,
    "partName": "FUPGAON - 2",
    "lat": 19.8149216,
    "lon": 81.5937763
  },
  {
    "partId": 43437,
    "stateCode": "S26",
    "stateName": "Chhattisgarh",
    "districtCode": "S2669",
    "districtName": "KONDAGAON",
    "acNumber": 82,
    "acName": "Keshkal",
    "partNumber": 232,
    "partName": "PAISRA",
    "lat": 20.083284,
    "lon": 81.589058
  },
  {
    "partId": 43546,
    "stateCode": "S26",
    "stateName": "Chhattisgarh",
    "districtCode": "S2669",
    "districtName": "KONDAGAON",
    "acNumber": 82,
    "acName": "Keshkal",
    "partNumber": 233,
    "partName": "BHUMKA",
    "lat": 20.018577722545455,
    "lon": 81.60517916072727
  },
  {
    "partId": 43434,
    "stateCode": "S26",
    "stateName": "Chhattisgarh",
    "districtCode": "S2669",
    "districtName": "KONDAGAON",
    "acNumber": 82,
    "acName": "Keshkal",
    "partNumber": 234,
    "partName": "AALOR - 1",
    "lat": 20.018577722545455,
    "lon": 81.60517916072727
  },
  {
    "partId": 43547,
    "stateCode": "S26",
    "stateName": "Chhattisgarh",
    "districtCode": "S2669",
    "districtName": "KONDAGAON",
    "acNumber": 82,
    "acName": "Keshkal",
    "partNumber": 235,
    "partName": "AALOR - 2",
    "lat": 20.083284,
    "lon": 81.589058
  },
  {
    "partId": 43435,
    "stateCode": "S26",
    "stateName": "Chhattisgarh",
    "districtCode": "S2669",
    "districtName": "KONDAGAON",
    "acNumber": 82,
    "acName": "Keshkal",
    "partNumber": 236,
    "partName": "AALOR - 3",
    "lat": 20.018577722545455,
    "lon": 81.60517916072727
  },
  {
    "partId": 43618,
    "stateCode": "S26",
    "stateName": "Chhattisgarh",
    "districtCode": "S2669",
    "districtName": "KONDAGAON",
    "acNumber": 82,
    "acName": "Keshkal",
    "partNumber": 237,
    "partName": "JHATIBAN",
    "lat": 20.083284,
    "lon": 81.589058
  },
  {
    "partId": 43433,
    "stateCode": "S26",
    "stateName": "Chhattisgarh",
    "districtCode": "S2669",
    "districtName": "KONDAGAON",
    "acNumber": 82,
    "acName": "Keshkal",
    "partNumber": 238,
    "partName": "BHANDARVANDI",
    "lat": 20.083284,
    "lon": 81.589058
  },
  {
    "partId": 43548,
    "stateCode": "S26",
    "stateName": "Chhattisgarh",
    "districtCode": "S2669",
    "districtName": "KONDAGAON",
    "acNumber": 82,
    "acName": "Keshkal",
    "partNumber": 239,
    "partName": "PATODA",
    "lat": 20.083284,
    "lon": 81.589058
  },
  {
    "partId": 43549,
    "stateCode": "S26",
    "stateName": "Chhattisgarh",
    "districtCode": "S2669",
    "districtName": "KONDAGAON",
    "acNumber": 82,
    "acName": "Keshkal",
    "partNumber": 240,
    "partName": "BAIL",
    "lat": 19.8559986,
    "lon": 81.5845701
  },
  {
    "partId": 43472,
    "stateCode": "S26",
    "stateName": "Chhattisgarh",
    "districtCode": "S2669",
    "districtName": "KONDAGAON",
    "acNumber": 82,
    "acName": "Keshkal",
    "partNumber": 241,
    "partName": "BANJODA",
    "lat": 20.083284,
    "lon": 81.589058
  },
  {
    "partId": 43550,
    "stateCode": "S26",
    "stateName": "Chhattisgarh",
    "districtCode": "S2669",
    "districtName": "KONDAGAON",
    "acNumber": 82,
    "acName": "Keshkal",
    "partNumber": 242,
    "partName": "CHINDLIBEDA",
    "lat": 20.083284,
    "lon": 81.589058
  },
  {
    "partId": 43403,
    "stateCode": "S26",
    "stateName": "Chhattisgarh",
    "districtCode": "S2669",
    "districtName": "KONDAGAON",
    "acNumber": 82,
    "acName": "Keshkal",
    "partNumber": 243,
    "partName": "KOKODAJUGANAR",
    "lat": 20.083284,
    "lon": 81.589058
  },
  {
    "partId": 43619,
    "stateCode": "S26",
    "stateName": "Chhattisgarh",
    "districtCode": "S2669",
    "districtName": "KONDAGAON",
    "acNumber": 82,
    "acName": "Keshkal",
    "partNumber": 244,
    "partName": "PAROUDA",
    "lat": 20.083284,
    "lon": 81.589058
  },
  {
    "partId": 43551,
    "stateCode": "S26",
    "stateName": "Chhattisgarh",
    "districtCode": "S2669",
    "districtName": "KONDAGAON",
    "acNumber": 82,
    "acName": "Keshkal",
    "partNumber": 245,
    "partName": "MODE",
    "lat": 20.083284,
    "lon": 81.589058
  },
  {
    "partId": 43605,
    "stateCode": "S26",
    "stateName": "Chhattisgarh",
    "districtCode": "S2669",
    "districtName": "KONDAGAON",
    "acNumber": 82,
    "acName": "Keshkal",
    "partNumber": 246,
    "partName": "KANHARGAON",
    "lat": 19.87626,
    "lon": 81.4716904
  },
  {
    "partId": 43473,
    "stateCode": "S26",
    "stateName": "Chhattisgarh",
    "districtCode": "S2669",
    "districtName": "KONDAGAON",
    "acNumber": 82,
    "acName": "Keshkal",
    "partNumber": 247,
    "partName": "AAMGAON",
    "lat": 20.083284,
    "lon": 81.589058
  },
  {
    "partId": 43620,
    "stateCode": "S26",
    "stateName": "Chhattisgarh",
    "districtCode": "S2669",
    "districtName": "KONDAGAON",
    "acNumber": 82,
    "acName": "Keshkal",
    "partNumber": 248,
    "partName": "KULANAR",
    "lat": 19.8307256,
    "lon": 81.4444903
  },
  {
    "partId": 43474,
    "stateCode": "S26",
    "stateName": "Chhattisgarh",
    "districtCode": "S2669",
    "districtName": "KONDAGAON",
    "acNumber": 82,
    "acName": "Keshkal",
    "partNumber": 249,
    "partName": "URANDABEDA",
    "lat": 19.8523539,
    "lon": 81.4634168
  },
  {
    "partId": 43552,
    "stateCode": "S26",
    "stateName": "Chhattisgarh",
    "districtCode": "S2669",
    "districtName": "KONDAGAON",
    "acNumber": 82,
    "acName": "Keshkal",
    "partNumber": 250,
    "partName": "KOTPAD",
    "lat": 19.8112043,
    "lon": 81.4848127
  },
  {
    "partId": 43553,
    "stateCode": "S26",
    "stateName": "Chhattisgarh",
    "districtCode": "S2669",
    "districtName": "KONDAGAON",
    "acNumber": 82,
    "acName": "Keshkal",
    "partNumber": 251,
    "partName": "MADAGAON",
    "lat": 19.8249714,
    "lon": 81.4940221
  },
  {
    "partId": 43406,
    "stateCode": "S26",
    "stateName": "Chhattisgarh",
    "districtCode": "S2669",
    "districtName": "KONDAGAON",
    "acNumber": 82,
    "acName": "Keshkal",
    "partNumber": 252,
    "partName": "BHONGAPAL",
    "lat": 19.8056521,
    "lon": 81.3959171
  },
  {
    "partId": 43592,
    "stateCode": "S26",
    "stateName": "Chhattisgarh",
    "districtCode": "S2669",
    "districtName": "KONDAGAON",
    "acNumber": 82,
    "acName": "Keshkal",
    "partNumber": 253,
    "partName": "BADGAI",
    "lat": 19.849015,
    "lon": 81.4032967
  },
  {
    "partId": 43554,
    "stateCode": "S26",
    "stateName": "Chhattisgarh",
    "districtCode": "S2669",
    "districtName": "KONDAGAON",
    "acNumber": 82,
    "acName": "Keshkal",
    "partNumber": 254,
    "partName": "KHANDSARA",
    "lat": 19.7941418,
    "lon": 81.4654027
  },
  {
    "partId": 43459,
    "stateCode": "S26",
    "stateName": "Chhattisgarh",
    "districtCode": "S2669",
    "districtName": "KONDAGAON",
    "acNumber": 82,
    "acName": "Keshkal",
    "partNumber": 255,
    "partName": "PAVDA",
    "lat": 20.018577722545455,
    "lon": 81.60517916072727
  },
  {
    "partId": 43555,
    "stateCode": "S26",
    "stateName": "Chhattisgarh",
    "districtCode": "S2669",
    "districtName": "KONDAGAON",
    "acNumber": 82,
    "acName": "Keshkal",
    "partNumber": 256,
    "partName": "PALNA",
    "lat": 20.0332229,
    "lon": 81.8539535
  },
  {
    "partId": 43454,
    "stateCode": "S26",
    "stateName": "Chhattisgarh",
    "districtCode": "S2669",
    "districtName": "KONDAGAON",
    "acNumber": 82,
    "acName": "Keshkal",
    "partNumber": 257,
    "partName": "FARASAGAON KASAI",
    "lat": 20.018577722545455,
    "lon": 81.60517916072727
  },
  {
    "partId": 43556,
    "stateCode": "S26",
    "stateName": "Chhattisgarh",
    "districtCode": "S2669",
    "districtName": "KONDAGAON",
    "acNumber": 82,
    "acName": "Keshkal",
    "partNumber": 258,
    "partName": "JHAKRI",
    "lat": 20.083284,
    "lon": 81.589058
  },
  {
    "partId": 43455,
    "stateCode": "S26",
    "stateName": "Chhattisgarh",
    "districtCode": "S2669",
    "districtName": "KONDAGAON",
    "acNumber": 82,
    "acName": "Keshkal",
    "partNumber": 259,
    "partName": "CHINGNAR",
    "lat": 19.7561878,
    "lon": 81.4185968
  },
  {
    "partId": 43581,
    "stateCode": "S26",
    "stateName": "Chhattisgarh",
    "districtCode": "S2669",
    "districtName": "KONDAGAON",
    "acNumber": 82,
    "acName": "Keshkal",
    "partNumber": 260,
    "partName": "FUTANCHANDAGAON",
    "lat": 19.7349002,
    "lon": 81.4097472
  },
  {
    "partId": 43557,
    "stateCode": "S26",
    "stateName": "Chhattisgarh",
    "districtCode": "S2669",
    "districtName": "KONDAGAON",
    "acNumber": 82,
    "acName": "Keshkal",
    "partNumber": 261,
    "partName": "MAINPUR",
    "lat": 19.7359776,
    "lon": 81.3849825
  },
  {
    "partId": 43457,
    "stateCode": "S26",
    "stateName": "Chhattisgarh",
    "districtCode": "S2669",
    "districtName": "KONDAGAON",
    "acNumber": 82,
    "acName": "Keshkal",
    "partNumber": 262,
    "partName": "MODEGA",
    "lat": 20.083284,
    "lon": 81.589058
  },
  {
    "partId": 43621,
    "stateCode": "S26",
    "stateName": "Chhattisgarh",
    "districtCode": "S2669",
    "districtName": "KONDAGAON",
    "acNumber": 82,
    "acName": "Keshkal",
    "partNumber": 263,
    "partName": "CHIYANAR",
    "lat": 19.7050365,
    "lon": 81.4893714
  },
  {
    "partId": 43456,
    "stateCode": "S26",
    "stateName": "Chhattisgarh",
    "districtCode": "S2669",
    "districtName": "KONDAGAON",
    "acNumber": 82,
    "acName": "Keshkal",
    "partNumber": 264,
    "partName": "BANGOLI - 1",
    "lat": 19.7419077,
    "lon": 81.5236172
  },
  {
    "partId": 43622,
    "stateCode": "S26",
    "stateName": "Chhattisgarh",
    "districtCode": "S2669",
    "districtName": "KONDAGAON",
    "acNumber": 82,
    "acName": "Keshkal",
    "partNumber": 265,
    "partName": "BANGOLI - 2",
    "lat": 19.7419077,
    "lon": 81.5236172
  },
  {
    "partId": 43558,
    "stateCode": "S26",
    "stateName": "Chhattisgarh",
    "districtCode": "S2669",
    "districtName": "KONDAGAON",
    "acNumber": 82,
    "acName": "Keshkal",
    "partNumber": 266,
    "partName": "BANCHAPAI",
    "lat": 20.018577722545455,
    "lon": 81.60517916072727
  },
  {
    "partId": 43458,
    "stateCode": "S26",
    "stateName": "Chhattisgarh",
    "districtCode": "S2669",
    "districtName": "KONDAGAON",
    "acNumber": 82,
    "acName": "Keshkal",
    "partNumber": 267,
    "partName": "CHADABEDA",
    "lat": 20.083284,
    "lon": 81.589058
  },
  {
    "partId": 43623,
    "stateCode": "S26",
    "stateName": "Chhattisgarh",
    "districtCode": "S2669",
    "districtName": "KONDAGAON",
    "acNumber": 82,
    "acName": "Keshkal",
    "partNumber": 268,
    "partName": "KORAI",
    "lat": 20.018577722545455,
    "lon": 81.60517916072727
  },
  {
    "partId": 43460,
    "stateCode": "S26",
    "stateName": "Chhattisgarh",
    "districtCode": "S2669",
    "districtName": "KONDAGAON",
    "acNumber": 82,
    "acName": "Keshkal",
    "partNumber": 269,
    "partName": "TORAND",
    "lat": 19.8123643,
    "lon": 81.4968722
  },
  {
    "partId": 43559,
    "stateCode": "S26",
    "stateName": "Chhattisgarh",
    "districtCode": "S2669",
    "districtName": "KONDAGAON",
    "acNumber": 82,
    "acName": "Keshkal",
    "partNumber": 270,
    "partName": "GODMA",
    "lat": 19.8364205,
    "lon": 81.610103
  },
  {
    "partId": 43461,
    "stateCode": "S26",
    "stateName": "Chhattisgarh",
    "districtCode": "S2669",
    "districtName": "KONDAGAON",
    "acNumber": 82,
    "acName": "Keshkal",
    "partNumber": 271,
    "partName": "BADEDONGAR - 1",
    "lat": 20.083284,
    "lon": 81.589058
  },
  {
    "partId": 43560,
    "stateCode": "S26",
    "stateName": "Chhattisgarh",
    "districtCode": "S2669",
    "districtName": "KONDAGAON",
    "acNumber": 82,
    "acName": "Keshkal",
    "partNumber": 272,
    "partName": "BADEDONGAR - 2",
    "lat": 20.083284,
    "lon": 81.589058
  },
  {
    "partId": 43462,
    "stateCode": "S26",
    "stateName": "Chhattisgarh",
    "districtCode": "S2669",
    "districtName": "KONDAGAON",
    "acNumber": 82,
    "acName": "Keshkal",
    "partNumber": 273,
    "partName": "BADEDONGAR - 3",
    "lat": 20.083284,
    "lon": 81.589058
  },
  {
    "partId": 43561,
    "stateCode": "S26",
    "stateName": "Chhattisgarh",
    "districtCode": "S2669",
    "districtName": "KONDAGAON",
    "acNumber": 82,
    "acName": "Keshkal",
    "partNumber": 274,
    "partName": "BADEDONGAR - 4",
    "lat": 20.083284,
    "lon": 81.589058
  },
  {
    "partId": 43611,
    "stateCode": "S26",
    "stateName": "Chhattisgarh",
    "districtCode": "S2669",
    "districtName": "KONDAGAON",
    "acNumber": 82,
    "acName": "Keshkal",
    "partNumber": 275,
    "partName": "CHHINDALI",
    "lat": 19.7363746,
    "lon": 81.4884068
  },
  {
    "partId": 43471,
    "stateCode": "S26",
    "stateName": "Chhattisgarh",
    "districtCode": "S2669",
    "districtName": "KONDAGAON",
    "acNumber": 82,
    "acName": "Keshkal",
    "partNumber": 276,
    "partName": "MOHFAL",
    "lat": 20.083284,
    "lon": 81.589058
  },
  {
    "partId": 43562,
    "stateCode": "S26",
    "stateName": "Chhattisgarh",
    "districtCode": "S2669",
    "districtName": "KONDAGAON",
    "acNumber": 82,
    "acName": "Keshkal",
    "partNumber": 277,
    "partName": "DIGANAR",
    "lat": 19.780964,
    "lon": 81.5734138
  },
  {
    "partId": 43595,
    "stateCode": "S26",
    "stateName": "Chhattisgarh",
    "districtCode": "S2669",
    "districtName": "KONDAGAON",
    "acNumber": 82,
    "acName": "Keshkal",
    "partNumber": 278,
    "partName": "SADADI",
    "lat": 20.018577722545455,
    "lon": 81.60517916072727
  },
  {
    "partId": 43464,
    "stateCode": "S26",
    "stateName": "Chhattisgarh",
    "districtCode": "S2669",
    "districtName": "KONDAGAON",
    "acNumber": 82,
    "acName": "Keshkal",
    "partNumber": 279,
    "partName": "SIRSIKLAR - 1",
    "lat": 20.083284,
    "lon": 81.589058
  },
  {
    "partId": 43624,
    "stateCode": "S26",
    "stateName": "Chhattisgarh",
    "districtCode": "S2669",
    "districtName": "KONDAGAON",
    "acNumber": 82,
    "acName": "Keshkal",
    "partNumber": 280,
    "partName": "SIRSIKALAR - 2",
    "lat": 20.083284,
    "lon": 81.589058
  },
  {
    "partId": 43563,
    "stateCode": "S26",
    "stateName": "Chhattisgarh",
    "districtCode": "S2669",
    "districtName": "KONDAGAON",
    "acNumber": 82,
    "acName": "Keshkal",
    "partNumber": 281,
    "partName": "SODMA",
    "lat": 20.018577722545455,
    "lon": 81.60517916072727
  },
  {
    "partId": 43466,
    "stateCode": "S26",
    "stateName": "Chhattisgarh",
    "districtCode": "S2669",
    "districtName": "KONDAGAON",
    "acNumber": 82,
    "acName": "Keshkal",
    "partNumber": 282,
    "partName": "KABONGA - 1",
    "lat": 20.083284,
    "lon": 81.589058
  },
  {
    "partId": 43564,
    "stateCode": "S26",
    "stateName": "Chhattisgarh",
    "districtCode": "S2669",
    "districtName": "KONDAGAON",
    "acNumber": 82,
    "acName": "Keshkal",
    "partNumber": 283,
    "partName": "KOSAGAON",
    "lat": 20.083284,
    "lon": 81.589058
  },
  {
    "partId": 43596,
    "stateCode": "S26",
    "stateName": "Chhattisgarh",
    "districtCode": "S2669",
    "districtName": "KONDAGAON",
    "acNumber": 82,
    "acName": "Keshkal",
    "partNumber": 284,
    "partName": "KABONGA - 2",
    "lat": 20.083284,
    "lon": 81.589058
  },
  {
    "partId": 43463,
    "stateCode": "S26",
    "stateName": "Chhattisgarh",
    "districtCode": "S2669",
    "districtName": "KONDAGAON",
    "acNumber": 82,
    "acName": "Keshkal",
    "partNumber": 285,
    "partName": "KUMHARBADGAON",
    "lat": 19.714203,
    "lon": 81.6302221
  },
  {
    "partId": 43606,
    "stateCode": "S26",
    "stateName": "Chhattisgarh",
    "districtCode": "S2669",
    "districtName": "KONDAGAON",
    "acNumber": 82,
    "acName": "Keshkal",
    "partNumber": 286,
    "partName": "KARAGAON",
    "lat": 19.7289505,
    "lon": 81.602894
  },
  {
    "partId": 43441,
    "stateCode": "S26",
    "stateName": "Chhattisgarh",
    "districtCode": "S2669",
    "districtName": "KONDAGAON",
    "acNumber": 82,
    "acName": "Keshkal",
    "partNumber": 287,
    "partName": "SIRPUR",
    "lat": 20.083284,
    "lon": 81.589058
  },
  {
    "partId": 43607,
    "stateCode": "S26",
    "stateName": "Chhattisgarh",
    "districtCode": "S2669",
    "districtName": "KONDAGAON",
    "acNumber": 82,
    "acName": "Keshkal",
    "partNumber": 288,
    "partName": "AALIBEDA",
    "lat": 20.083284,
    "lon": 81.589058
  },
  {
    "partId": 43439,
    "stateCode": "S26",
    "stateName": "Chhattisgarh",
    "districtCode": "S2669",
    "districtName": "KONDAGAON",
    "acNumber": 82,
    "acName": "Keshkal",
    "partNumber": 289,
    "partName": "BHANPURI - 1",
    "lat": 20.018577722545455,
    "lon": 81.60517916072727
  },
  {
    "partId": 43582,
    "stateCode": "S26",
    "stateName": "Chhattisgarh",
    "districtCode": "S2669",
    "districtName": "KONDAGAON",
    "acNumber": 82,
    "acName": "Keshkal",
    "partNumber": 290,
    "partName": "BHANPURI - 2",
    "lat": 19.7686327,
    "lon": 81.6215483
  },
  {
    "partId": 43440,
    "stateCode": "S26",
    "stateName": "Chhattisgarh",
    "districtCode": "S2669",
    "districtName": "KONDAGAON",
    "acNumber": 82,
    "acName": "Keshkal",
    "partNumber": 291,
    "partName": "JUGANIKALAR - 1",
    "lat": 20.083284,
    "lon": 81.589058
  },
  {
    "partId": 43625,
    "stateCode": "S26",
    "stateName": "Chhattisgarh",
    "districtCode": "S2669",
    "districtName": "KONDAGAON",
    "acNumber": 82,
    "acName": "Keshkal",
    "partNumber": 292,
    "partName": "JUGANIKALAR -2",
    "lat": 20.083284,
    "lon": 81.589058
  },
  {
    "partId": 43444,
    "stateCode": "S26",
    "stateName": "Chhattisgarh",
    "districtCode": "S2669",
    "districtName": "KONDAGAON",
    "acNumber": 82,
    "acName": "Keshkal",
    "partNumber": 293,
    "partName": "KULHADGAON - 1",
    "lat": 19.7782757,
    "lon": 81.6579382
  },
  {
    "partId": 43597,
    "stateCode": "S26",
    "stateName": "Chhattisgarh",
    "districtCode": "S2669",
    "districtName": "KONDAGAON",
    "acNumber": 82,
    "acName": "Keshkal",
    "partNumber": 294,
    "partName": "KULHADGAON - 2",
    "lat": 20.018577722545455,
    "lon": 81.60517916072727
  },
  {
    "partId": 43565,
    "stateCode": "S26",
    "stateName": "Chhattisgarh",
    "districtCode": "S2669",
    "districtName": "KONDAGAON",
    "acNumber": 82,
    "acName": "Keshkal",
    "partNumber": 295,
    "partName": "MOHLAI",
    "lat": 20.018577722545455,
    "lon": 81.60517916072727
  },
  {
    "partId": 43442,
    "stateCode": "S26",
    "stateName": "Chhattisgarh",
    "districtCode": "S2669",
    "districtName": "KONDAGAON",
    "acNumber": 82,
    "acName": "Keshkal",
    "partNumber": 296,
    "partName": "BHANDARSIVNI - 1",
    "lat": 20.083284,
    "lon": 81.589058
  },
  {
    "partId": 43443,
    "stateCode": "S26",
    "stateName": "Chhattisgarh",
    "districtCode": "S2669",
    "districtName": "KONDAGAON",
    "acNumber": 82,
    "acName": "Keshkal",
    "partNumber": 297,
    "partName": "BHANDARSIVNI - 2",
    "lat": 20.083284,
    "lon": 81.589058
  },
  {
    "partId": 43467,
    "stateCode": "S26",
    "stateName": "Chhattisgarh",
    "districtCode": "S2669",
    "districtName": "KONDAGAON",
    "acNumber": 82,
    "acName": "Keshkal",
    "partNumber": 298,
    "partName": "LANJODA - 1",
    "lat": 20.083284,
    "lon": 81.589058
  },
  {
    "partId": 43566,
    "stateCode": "S26",
    "stateName": "Chhattisgarh",
    "districtCode": "S2669",
    "districtName": "KONDAGAON",
    "acNumber": 82,
    "acName": "Keshkal",
    "partNumber": 299,
    "partName": "LANJODA - 2",
    "lat": 20.083284,
    "lon": 81.589058
  },
  {
    "partId": 43468,
    "stateCode": "S26",
    "stateName": "Chhattisgarh",
    "districtCode": "S2669",
    "districtName": "KONDAGAON",
    "acNumber": 82,
    "acName": "Keshkal",
    "partNumber": 300,
    "partName": "LANJODA - 3",
    "lat": 20.083284,
    "lon": 81.589058
  },
  {
    "partId": 43567,
    "stateCode": "S26",
    "stateName": "Chhattisgarh",
    "districtCode": "S2669",
    "districtName": "KONDAGAON",
    "acNumber": 82,
    "acName": "Keshkal",
    "partNumber": 301,
    "partName": "LANJODA - 4",
    "lat": 20.018577722545455,
    "lon": 81.60517916072727
  },
  {
    "partId": 43465,
    "stateCode": "S26",
    "stateName": "Chhattisgarh",
    "districtCode": "S2669",
    "districtName": "KONDAGAON",
    "acNumber": 82,
    "acName": "Keshkal",
    "partNumber": 302,
    "partName": "JAITPURI  - 1",
    "lat": 20.083284,
    "lon": 81.589058
  },
  {
    "partId": 43583,
    "stateCode": "S26",
    "stateName": "Chhattisgarh",
    "districtCode": "S2669",
    "districtName": "KONDAGAON",
    "acNumber": 82,
    "acName": "Keshkal",
    "partNumber": 303,
    "partName": "JAITPURI - 2(KADHAIBEDAPARA)",
    "lat": 20.083284,
    "lon": 81.589058
  },
  {
    "partId": 43568,
    "stateCode": "S26",
    "stateName": "Chhattisgarh",
    "districtCode": "S2669",
    "districtName": "KONDAGAON",
    "acNumber": 82,
    "acName": "Keshkal",
    "partNumber": 304,
    "partName": "JAITPURI - 3",
    "lat": 20.083284,
    "lon": 81.589058
  },
  {
    "partId": 41534,
    "stateCode": "S26",
    "stateName": "Chhattisgarh",
    "districtCode": "S2669",
    "districtName": "KONDAGAON",
    "acNumber": 83,
    "acName": "Kondagaon",
    "partNumber": 1,
    "partName": "CHIMRI",
    "lat": 19.461662099999998,
    "lon": 81.6388313435686
  },
  {
    "partId": 41657,
    "stateCode": "S26",
    "stateName": "Chhattisgarh",
    "districtCode": "S2669",
    "districtName": "KONDAGAON",
    "acNumber": 83,
    "acName": "Kondagaon",
    "partNumber": 2,
    "partName": "CHALKA",
    "lat": 19.6209822,
    "lon": 81.487768
  },
  {
    "partId": 41550,
    "stateCode": "S26",
    "stateName": "Chhattisgarh",
    "districtCode": "S2669",
    "districtName": "KONDAGAON",
    "acNumber": 83,
    "acName": "Kondagaon",
    "partNumber": 3,
    "partName": "KODAGAON",
    "lat": 19.6701931,
    "lon": 81.5683823
  },
  {
    "partId": 41751,
    "stateCode": "S26",
    "stateName": "Chhattisgarh",
    "districtCode": "S2669",
    "districtName": "KONDAGAON",
    "acNumber": 83,
    "acName": "Kondagaon",
    "partNumber": 4,
    "partName": "PALA",
    "lat": 19.6248821,
    "lon": 81.5278489
  },
  {
    "partId": 41763,
    "stateCode": "S26",
    "stateName": "Chhattisgarh",
    "districtCode": "S2669",
    "districtName": "KONDAGAON",
    "acNumber": 83,
    "acName": "Kondagaon",
    "partNumber": 5,
    "partName": "KIBAIBALENGA - 1",
    "lat": 19.461662099999998,
    "lon": 81.6388313435686
  },
  {
    "partId": 41549,
    "stateCode": "S26",
    "stateName": "Chhattisgarh",
    "districtCode": "S2669",
    "districtName": "KONDAGAON",
    "acNumber": 83,
    "acName": "Kondagaon",
    "partNumber": 6,
    "partName": "KIBAIBALENGA - 2",
    "lat": 19.461662099999998,
    "lon": 81.6388313435686
  },
  {
    "partId": 41551,
    "stateCode": "S26",
    "stateName": "Chhattisgarh",
    "districtCode": "S2669",
    "districtName": "KONDAGAON",
    "acNumber": 83,
    "acName": "Kondagaon",
    "partNumber": 7,
    "partName": "VANJUGANI",
    "lat": 19.461662099999998,
    "lon": 81.6388313435686
  },
  {
    "partId": 41658,
    "stateCode": "S26",
    "stateName": "Chhattisgarh",
    "districtCode": "S2669",
    "districtName": "KONDAGAON",
    "acNumber": 83,
    "acName": "Kondagaon",
    "partNumber": 8,
    "partName": "BANSGAON",
    "lat": 19.461662099999998,
    "lon": 81.6388313435686
  },
  {
    "partId": 41552,
    "stateCode": "S26",
    "stateName": "Chhattisgarh",
    "districtCode": "S2669",
    "districtName": "KONDAGAON",
    "acNumber": 83,
    "acName": "Kondagaon",
    "partNumber": 9,
    "partName": "CHICHDOGRI",
    "lat": 19.461662099999998,
    "lon": 81.6388313435686
  },
  {
    "partId": 41659,
    "stateCode": "S26",
    "stateName": "Chhattisgarh",
    "districtCode": "S2669",
    "districtName": "KONDAGAON",
    "acNumber": 83,
    "acName": "Kondagaon",
    "partNumber": 10,
    "partName": "KARATHIALWAD",
    "lat": 19.461662099999998,
    "lon": 81.6388313435686
  },
  {
    "partId": 41766,
    "stateCode": "S26",
    "stateName": "Chhattisgarh",
    "districtCode": "S2669",
    "districtName": "KONDAGAON",
    "acNumber": 83,
    "acName": "Kondagaon",
    "partNumber": 11,
    "partName": "MATHNIBEDA",
    "lat": 19.461662099999998,
    "lon": 81.6388313435686
  },
  {
    "partId": 41554,
    "stateCode": "S26",
    "stateName": "Chhattisgarh",
    "districtCode": "S2669",
    "districtName": "KONDAGAON",
    "acNumber": 83,
    "acName": "Kondagaon",
    "partNumber": 12,
    "partName": "BHIRAGAON B",
    "lat": 19.461662099999998,
    "lon": 81.6388313435686
  },
  {
    "partId": 41776,
    "stateCode": "S26",
    "stateName": "Chhattisgarh",
    "districtCode": "S2669",
    "districtName": "KONDAGAON",
    "acNumber": 83,
    "acName": "Kondagaon",
    "partNumber": 13,
    "partName": "BHIRAGAON(B) PATELPARA",
    "lat": 19.461662099999998,
    "lon": 81.6388313435686
  },
  {
    "partId": 41777,
    "stateCode": "S26",
    "stateName": "Chhattisgarh",
    "districtCode": "S2669",
    "districtName": "KONDAGAON",
    "acNumber": 83,
    "acName": "Kondagaon",
    "partNumber": 14,
    "partName": "GULBHA",
    "lat": 19.6082173,
    "lon": 81.6035201
  },
  {
    "partId": 41660,
    "stateCode": "S26",
    "stateName": "Chhattisgarh",
    "districtCode": "S2669",
    "districtName": "KONDAGAON",
    "acNumber": 83,
    "acName": "Kondagaon",
    "partNumber": 15,
    "partName": "KEVTI",
    "lat": 19.461662099999998,
    "lon": 81.6388313435686
  },
  {
    "partId": 41553,
    "stateCode": "S26",
    "stateName": "Chhattisgarh",
    "districtCode": "S2669",
    "districtName": "KONDAGAON",
    "acNumber": 83,
    "acName": "Kondagaon",
    "partNumber": 16,
    "partName": "BUNAGAON",
    "lat": 19.461662099999998,
    "lon": 81.6388313435686
  },
  {
    "partId": 41778,
    "stateCode": "S26",
    "stateName": "Chhattisgarh",
    "districtCode": "S2669",
    "districtName": "KONDAGAON",
    "acNumber": 83,
    "acName": "Kondagaon",
    "partNumber": 17,
    "partName": "UMARGAON(A)",
    "lat": 19.461662099999998,
    "lon": 81.6388313435686
  },
  {
    "partId": 41547,
    "stateCode": "S26",
    "stateName": "Chhattisgarh",
    "districtCode": "S2669",
    "districtName": "KONDAGAON",
    "acNumber": 83,
    "acName": "Kondagaon",
    "partNumber": 18,
    "partName": "MALAKOT",
    "lat": 19.461662099999998,
    "lon": 81.6388313435686
  },
  {
    "partId": 41661,
    "stateCode": "S26",
    "stateName": "Chhattisgarh",
    "districtCode": "S2669",
    "districtName": "KONDAGAON",
    "acNumber": 83,
    "acName": "Kondagaon",
    "partNumber": 19,
    "partName": "BUDAKASA",
    "lat": 19.520732521681413,
    "lon": 81.6538189866371
  },
  {
    "partId": 41548,
    "stateCode": "S26",
    "stateName": "Chhattisgarh",
    "districtCode": "S2669",
    "districtName": "KONDAGAON",
    "acNumber": 83,
    "acName": "Kondagaon",
    "partNumber": 20,
    "partName": "DADHIYA",
    "lat": 19.461662099999998,
    "lon": 81.6388313435686
  },
  {
    "partId": 41555,
    "stateCode": "S26",
    "stateName": "Chhattisgarh",
    "districtCode": "S2669",
    "districtName": "KONDAGAON",
    "acNumber": 83,
    "acName": "Kondagaon",
    "partNumber": 21,
    "partName": "MASORA - 1",
    "lat": 19.461662099999998,
    "lon": 81.6388313435686
  },
  {
    "partId": 41662,
    "stateCode": "S26",
    "stateName": "Chhattisgarh",
    "districtCode": "S2669",
    "districtName": "KONDAGAON",
    "acNumber": 83,
    "acName": "Kondagaon",
    "partNumber": 22,
    "partName": "MASORA - 2",
    "lat": 19.461662099999998,
    "lon": 81.6388313435686
  },
  {
    "partId": 41556,
    "stateCode": "S26",
    "stateName": "Chhattisgarh",
    "districtCode": "S2669",
    "districtName": "KONDAGAON",
    "acNumber": 83,
    "acName": "Kondagaon",
    "partNumber": 23,
    "partName": "MASORA - 3",
    "lat": 19.461662099999998,
    "lon": 81.6388313435686
  },
  {
    "partId": 41779,
    "stateCode": "S26",
    "stateName": "Chhattisgarh",
    "districtCode": "S2669",
    "districtName": "KONDAGAON",
    "acNumber": 83,
    "acName": "Kondagaon",
    "partNumber": 24,
    "partName": "MASORA - 4",
    "lat": 19.461662099999998,
    "lon": 81.6388313435686
  },
  {
    "partId": 41780,
    "stateCode": "S26",
    "stateName": "Chhattisgarh",
    "districtCode": "S2669",
    "districtName": "KONDAGAON",
    "acNumber": 83,
    "acName": "Kondagaon",
    "partNumber": 25,
    "partName": "MASORA - 5",
    "lat": 19.461662099999998,
    "lon": 81.6388313435686
  },
  {
    "partId": 41567,
    "stateCode": "S26",
    "stateName": "Chhattisgarh",
    "districtCode": "S2669",
    "districtName": "KONDAGAON",
    "acNumber": 83,
    "acName": "Kondagaon",
    "partNumber": 26,
    "partName": "GIROLA - 1",
    "lat": 19.6811624,
    "lon": 81.8142263
  },
  {
    "partId": 41663,
    "stateCode": "S26",
    "stateName": "Chhattisgarh",
    "districtCode": "S2669",
    "districtName": "KONDAGAON",
    "acNumber": 83,
    "acName": "Kondagaon",
    "partNumber": 27,
    "partName": "GIROLA - 2",
    "lat": 19.6811624,
    "lon": 81.8142263
  },
  {
    "partId": 41568,
    "stateCode": "S26",
    "stateName": "Chhattisgarh",
    "districtCode": "S2669",
    "districtName": "KONDAGAON",
    "acNumber": 83,
    "acName": "Kondagaon",
    "partNumber": 28,
    "partName": "SATGAON - 1",
    "lat": 19.461662099999998,
    "lon": 81.6388313435686
  },
  {
    "partId": 41781,
    "stateCode": "S26",
    "stateName": "Chhattisgarh",
    "districtCode": "S2669",
    "districtName": "KONDAGAON",
    "acNumber": 83,
    "acName": "Kondagaon",
    "partNumber": 29,
    "partName": "SATGAON - 2",
    "lat": 19.461662099999998,
    "lon": 81.6388313435686
  },
  {
    "partId": 41565,
    "stateCode": "S26",
    "stateName": "Chhattisgarh",
    "districtCode": "S2669",
    "districtName": "KONDAGAON",
    "acNumber": 83,
    "acName": "Kondagaon",
    "partNumber": 30,
    "partName": "PALLI - 1",
    "lat": 19.6920609,
    "lon": 81.7429945
  },
  {
    "partId": 41566,
    "stateCode": "S26",
    "stateName": "Chhattisgarh",
    "districtCode": "S2669",
    "districtName": "KONDAGAON",
    "acNumber": 83,
    "acName": "Kondagaon",
    "partNumber": 31,
    "partName": "PALLI - 2",
    "lat": 19.6920609,
    "lon": 81.7429945
  },
  {
    "partId": 41782,
    "stateCode": "S26",
    "stateName": "Chhattisgarh",
    "districtCode": "S2669",
    "districtName": "KONDAGAON",
    "acNumber": 83,
    "acName": "Kondagaon",
    "partNumber": 32,
    "partName": "PALLI - 3",
    "lat": 19.6920609,
    "lon": 81.7429945
  },
  {
    "partId": 41562,
    "stateCode": "S26",
    "stateName": "Chhattisgarh",
    "districtCode": "S2669",
    "districtName": "KONDAGAON",
    "acNumber": 83,
    "acName": "Kondagaon",
    "partNumber": 33,
    "partName": "SHAMPUR - 1",
    "lat": 19.461662099999998,
    "lon": 81.6388313435686
  },
  {
    "partId": 41743,
    "stateCode": "S26",
    "stateName": "Chhattisgarh",
    "districtCode": "S2669",
    "districtName": "KONDAGAON",
    "acNumber": 83,
    "acName": "Kondagaon",
    "partNumber": 34,
    "partName": "SHAMPUR - 2",
    "lat": 19.461662099999998,
    "lon": 81.6388313435686
  },
  {
    "partId": 41563,
    "stateCode": "S26",
    "stateName": "Chhattisgarh",
    "districtCode": "S2669",
    "districtName": "KONDAGAON",
    "acNumber": 83,
    "acName": "Kondagaon",
    "partNumber": 35,
    "partName": "SHAMPUR - 3",
    "lat": 19.461662099999998,
    "lon": 81.6388313435686
  },
  {
    "partId": 41664,
    "stateCode": "S26",
    "stateName": "Chhattisgarh",
    "districtCode": "S2669",
    "districtName": "KONDAGAON",
    "acNumber": 83,
    "acName": "Kondagaon",
    "partNumber": 36,
    "partName": "MARAGAON",
    "lat": 19.461662099999998,
    "lon": 81.6388313435686
  },