[
  {
    "partId": 50971,
    "stateCode": "S06",
    "stateName": "Gujarat",
    "districtCode": "S0601",
    "districtName": "Kachchh",
    "acNumber": 1,
    "acName": "Abdasa",
    "partNumber": 1,
    "partName": "Kapurashi - 1",
    "lat": 23.257670349999998,
    "lon": 68.88546441419484
  },
  {
    "partId": 50972,
    "stateCode": "S06",
    "stateName": "Gujarat",
    "districtCode": "S0601",
    "districtName": "Kachchh",
    "acNumber": 1,
    "acName": "Abdasa",
    "partNumber": 2,
    "partName": "Kapurashi - 2",
    "lat": 23.257670349999998,
    "lon": 68.88546441419484
  },
  {
    "partId": 50973,
    "stateCode": "S06",
    "stateName": "Gujarat",
    "districtCode": "S0601",
    "districtName": "Kachchh",
    "acNumber": 1,
    "acName": "Abdasa",
    "partNumber": 3,
    "partName": "Koriyani",
    "lat": 23.7101538,
    "lon": 68.6578394
  },
  {
    "partId": 50974,
    "stateCode": "S06",
    "stateName": "Gujarat",
    "districtCode": "S0601",
    "districtName": "Kachchh",
    "acNumber": 1,
    "acName": "Abdasa",
    "partNumber": 4,
    "partName": "Mundhvay",
    "lat": 23.6932726,
    "lon": 68.6993015
  },
  {
    "partId": 50975,
    "stateCode": "S06",
    "stateName": "Gujarat",
    "districtCode": "S0601",
    "districtName": "Kachchh",
    "acNumber": 1,
    "acName": "Abdasa",
    "partNumber": 5,
    "partName": "Chher Moti",
    "lat": 23.7642159,
    "lon": 68.6561392
  },
  {
    "partId": 50976,
    "stateCode": "S06",
    "stateName": "Gujarat",
    "districtCode": "S0601",
    "districtName": "Kachchh",
    "acNumber": 1,
    "acName": "Abdasa",
    "partNumber": 6,
    "partName": "Chher Nani",
    "lat": 23.7825468,
    "lon": 68.6680484
  },
  {
    "partId": 50977,
    "stateCode": "S06",
    "stateName": "Gujarat",
    "districtCode": "S0601",
    "districtName": "Kachchh",
    "acNumber": 1,
    "acName": "Abdasa",
    "partNumber": 7,
    "partName": "Shinapar",
    "lat": 23.7735211,
    "lon": 68.7093148
  },
  {
    "partId": 50978,
    "stateCode": "S06",
    "stateName": "Gujarat",
    "districtCode": "S0601",
    "districtName": "Kachchh",
    "acNumber": 1,
    "acName": "Abdasa",
    "partNumber": 8,
    "partName": "Punrajpar",
    "lat": 23.257670349999998,
    "lon": 68.88546441419484
  },
  {
    "partId": 50979,
    "stateCode": "S06",
    "stateName": "Gujarat",
    "districtCode": "S0601",
    "districtName": "Kachchh",
    "acNumber": 1,
    "acName": "Abdasa",
    "partNumber": 9,
    "partName": "Lakhapat",
    "lat": 23.257670349999998,
    "lon": 68.88546441419484
  },
  {
    "partId": 50980,
    "stateCode": "S06",
    "stateName": "Gujarat",
    "districtCode": "S0601",
    "districtName": "Kachchh",
    "acNumber": 1,
    "acName": "Abdasa",
    "partNumber": 10,
    "partName": "Guneri",
    "lat": 23.7842349,
    "lon": 68.8468262
  },
  {
    "partId": 50981,
    "stateCode": "S06",
    "stateName": "Gujarat",
    "districtCode": "S0601",
    "districtName": "Kachchh",
    "acNumber": 1,
    "acName": "Abdasa",
    "partNumber": 11,
    "partName": "Sayara",
    "lat": 23.7850173,
    "lon": 68.8860275
  },
  {
    "partId": 50982,
    "stateCode": "S06",
    "stateName": "Gujarat",
    "districtCode": "S0601",
    "districtName": "Kachchh",
    "acNumber": 1,
    "acName": "Abdasa",
    "partNumber": 12,
    "partName": "Siyot",
    "lat": 23.7115276,
    "lon": 68.8981456
  },
  {
    "partId": 50983,
    "stateCode": "S06",
    "stateName": "Gujarat",
    "districtCode": "S0601",
    "districtName": "Kachchh",
    "acNumber": 1,
    "acName": "Abdasa",
    "partNumber": 13,
    "partName": "Atda",
    "lat": 23.257670349999998,
    "lon": 68.88546441419484
  },
  {
    "partId": 50984,
    "stateCode": "S06",
    "stateName": "Gujarat",
    "districtCode": "S0601",
    "districtName": "Kachchh",
    "acNumber": 1,
    "acName": "Abdasa",
    "partNumber": 14,
    "partName": "Mudhan",
    "lat": 23.7514452,
    "lon": 68.9331972
  },
  {
    "partId": 50985,
    "stateCode": "S06",
    "stateName": "Gujarat",
    "districtCode": "S0601",
    "districtName": "Kachchh",
    "acNumber": 1,
    "acName": "Abdasa",
    "partNumber": 15,
    "partName": "Ghaduli - 1",
    "lat": 23.257670349999998,
    "lon": 68.88546441419484
  },
  {
    "partId": 50986,
    "stateCode": "S06",
    "stateName": "Gujarat",
    "districtCode": "S0601",
    "districtName": "Kachchh",
    "acNumber": 1,
    "acName": "Abdasa",
    "partNumber": 16,
    "partName": "Ghaduli - 2",
    "lat": 23.257670349999998,
    "lon": 68.88546441419484
  },
  {
    "partId": 50987,
    "stateCode": "S06",
    "stateName": "Gujarat",
    "districtCode": "S0601",
    "districtName": "Kachchh",
    "acNumber": 1,
    "acName": "Abdasa",
    "partNumber": 17,
    "partName": "Chhuger",
    "lat": 23.7239609,
    "lon": 68.8492662
  },
  {
    "partId": 50988,
    "stateCode": "S06",
    "stateName": "Gujarat",
    "districtCode": "S0601",
    "districtName": "Kachchh",
    "acNumber": 1,
    "acName": "Abdasa",
    "partNumber": 18,
    "partName": "Dhareshi",
    "lat": 23.6896254,
    "lon": 68.8555522
  },
  {
    "partId": 50989,
    "stateCode": "S06",
    "stateName": "Gujarat",
    "districtCode": "S0601",
    "districtName": "Kachchh",
    "acNumber": 1,
    "acName": "Abdasa",
    "partNumber": 19,
    "partName": "Fulra",
    "lat": 23.7081723,
    "lon": 68.7866265
  },
  {
    "partId": 50990,
    "stateCode": "S06",
    "stateName": "Gujarat",
    "districtCode": "S0601",
    "districtName": "Kachchh",
    "acNumber": 1,
    "acName": "Abdasa",
    "partNumber": 20,
    "partName": "Lakhapar",
    "lat": 22.9386438,
    "lon": 69.7242451297974
  },
  {
    "partId": 50991,
    "stateCode": "S06",
    "stateName": "Gujarat",
    "districtCode": "S0601",
    "districtName": "Kachchh",
    "acNumber": 1,
    "acName": "Abdasa",
    "partNumber": 21,
    "partName": "Haroda",
    "lat": 23.6599019,
    "lon": 69.0044618
  },
  {
    "partId": 50992,
    "stateCode": "S06",
    "stateName": "Gujarat",
    "districtCode": "S0601",
    "districtName": "Kachchh",
    "acNumber": 1,
    "acName": "Abdasa",
    "partNumber": 22,
    "partName": "Meghpar",
    "lat": 23.086917,
    "lon": 70.0391292
  },
  {
    "partId": 50993,
    "stateCode": "S06",
    "stateName": "Gujarat",
    "districtCode": "S0601",
    "districtName": "Kachchh",
    "acNumber": 1,
    "acName": "Abdasa",
    "partNumber": 23,
    "partName": "Manka Vandh",
    "lat": 23.257670349999998,
    "lon": 68.88546441419484
  },
  {
    "partId": 50994,
    "stateCode": "S06",
    "stateName": "Gujarat",
    "districtCode": "S0601",
    "districtName": "Kachchh",
    "acNumber": 1,
    "acName": "Abdasa",
    "partNumber": 24,
    "partName": "Jumara",
    "lat": 23.6726494,
    "lon": 69.0773642
  },
  {
    "partId": 50995,
    "stateCode": "S06",
    "stateName": "Gujarat",
    "districtCode": "S0601",
    "districtName": "Kachchh",
    "acNumber": 1,
    "acName": "Abdasa",
    "partNumber": 25,
    "partName": "Nara",
    "lat": 23.4182029,
    "lon": 70.3007841
  },
  {
    "partId": 50996,
    "stateCode": "S06",
    "stateName": "Gujarat",
    "districtCode": "S0601",
    "districtName": "Kachchh",
    "acNumber": 1,
    "acName": "Abdasa",
    "partNumber": 26,
    "partName": "Sameja Vandh",
    "lat": 23.257670349999998,
    "lon": 68.88546441419484
  },
  {
    "partId": 50997,
    "stateCode": "S06",
    "stateName": "Gujarat",
    "districtCode": "S0601",
    "districtName": "Kachchh",
    "acNumber": 1,
    "acName": "Abdasa",
    "partNumber": 27,
    "partName": "Punjabi Vandh(Nara)",
    "lat": 23.257670349999998,
    "lon": 68.88546441419484
  },
  {
    "partId": 50998,
    "stateCode": "S06",
    "stateName": "Gujarat",
    "districtCode": "S0601",
    "districtName": "Kachchh",
    "acNumber": 1,
    "acName": "Abdasa",
    "partNumber": 28,
    "partName": "Odi Vandh",
    "lat": 23.257670349999998,
    "lon": 68.88546441419484
  },
  {
    "partId": 50999,
    "stateCode": "S06",
    "stateName": "Gujarat",
    "districtCode": "S0601",
    "districtName": "Kachchh",
    "acNumber": 1,
    "acName": "Abdasa",
    "partNumber": 29,
    "partName": "Dayapar - 1",
    "lat": 23.6348031,
    "lon": 68.9011899
  },
  {
    "partId": 51000,
    "stateCode": "S06",
    "stateName": "Gujarat",
    "districtCode": "S0601",
    "districtName": "Kachchh",
    "acNumber": 1,
    "acName": "Abdasa",
    "partNumber": 30,
    "partName": "Dayapar - 2",
    "lat": 23.6348031,
    "lon": 68.9011899
  },
  {
    "partId": 51001,
    "stateCode": "S06",
    "stateName": "Gujarat",
    "districtCode": "S0601",
    "districtName": "Kachchh",
    "acNumber": 1,
    "acName": "Abdasa",
    "partNumber": 31,
    "partName": "Dayapar - 3",
    "lat": 23.6348031,
    "lon": 68.9011899
  },
  {
    "partId": 51002,
    "stateCode": "S06",
    "stateName": "Gujarat",
    "districtCode": "S0601",
    "districtName": "Kachchh",
    "acNumber": 1,
    "acName": "Abdasa",
    "partNumber": 32,
    "partName": "Virani Nani",
    "lat": 23.3705441,
    "lon": 69.2605805
  },
  {
    "partId": 51003,
    "stateCode": "S06",
    "stateName": "Gujarat",
    "districtCode": "S0601",
    "districtName": "Kachchh",
    "acNumber": 1,
    "acName": "Abdasa",
    "partNumber": 33,
    "partName": "Bitiyari",
    "lat": 23.609051,
    "lon": 68.8462123
  },
  {
    "partId": 51004,
    "stateCode": "S06",
    "stateName": "Gujarat",
    "districtCode": "S0601",
    "districtName": "Kachchh",
    "acNumber": 1,
    "acName": "Abdasa",
    "partNumber": 34,
    "partName": "Subhashpar (Sandhro)",
    "lat": 23.257670349999998,
    "lon": 68.88546441419484
  },
  {
    "partId": 51005,
    "stateCode": "S06",
    "stateName": "Gujarat",
    "districtCode": "S0601",
    "districtName": "Kachchh",
    "acNumber": 1,
    "acName": "Abdasa",
    "partNumber": 35,
    "partName": "Mindhiyari",
    "lat": 23.6384463,
    "lon": 68.7644396
  },
  {
    "partId": 51006,
    "stateCode": "S06",
    "stateName": "Gujarat",
    "districtCode": "S0601",
    "districtName": "Kachchh",
    "acNumber": 1,
    "acName": "Abdasa",
    "partNumber": 36,
    "partName": "Bhekhada",
    "lat": 23.257670349999998,
    "lon": 68.88546441419484
  },
  {
    "partId": 51007,
    "stateCode": "S06",
    "stateName": "Gujarat",
    "districtCode": "S0601",
    "districtName": "Kachchh",
    "acNumber": 1,
    "acName": "Abdasa",
    "partNumber": 37,
    "partName": "Pandhro - 1",
    "lat": 23.257670349999998,
    "lon": 68.88546441419484
  },
  {
    "partId": 51008,
    "stateCode": "S06",
    "stateName": "Gujarat",
    "districtCode": "S0601",
    "districtName": "Kachchh",
    "acNumber": 1,
    "acName": "Abdasa",
    "partNumber": 38,
    "partName": "Pandhro - 2",
    "lat": 23.257670349999998,
    "lon": 68.88546441419484
  },
  {
    "partId": 51009,
    "stateCode": "S06",
    "stateName": "Gujarat",
    "districtCode": "S0601",
    "districtName": "Kachchh",
    "acNumber": 1,
    "acName": "Abdasa",
    "partNumber": 39,
    "partName": "Khanot",
    "lat": 23.6690137,
    "lon": 68.7924814
  },
  {
    "partId": 51010,
    "stateCode": "S06",
    "stateName": "Gujarat",
    "districtCode": "S0601",
    "districtName": "Kachchh",
    "acNumber": 1,
    "acName": "Abdasa",
    "partNumber": 40,
    "partName": "Pandhro - 3",
    "lat": 23.257670349999998,
    "lon": 68.88546441419484
  },
  {
    "partId": 51011,
    "stateCode": "S06",
    "stateName": "Gujarat",
    "districtCode": "S0601",
    "districtName": "Kachchh",
    "acNumber": 1,
    "acName": "Abdasa",
    "partNumber": 41,
    "partName": "Pandhro - 4",
    "lat": 23.257670349999998,
    "lon": 68.88546441419484
  },
  {
    "partId": 51012,
    "stateCode": "S06",
    "stateName": "Gujarat",
    "districtCode": "S0601",
    "districtName": "Kachchh",
    "acNumber": 1,
    "acName": "Abdasa",
    "partNumber": 42,
    "partName": "Pandhro - 5",
    "lat": 23.257670349999998,
    "lon": 68.88546441419484
  },
  {
    "partId": 51013,
    "stateCode": "S06",
    "stateName": "Gujarat",
    "districtCode": "S0601",
    "districtName": "Kachchh",
    "acNumber": 1,
    "acName": "Abdasa",
    "partNumber": 43,
    "partName": "Pandhro - 6",
    "lat": 23.257670349999998,
    "lon": 68.88546441419484
  },
  {
    "partId": 51014,
    "stateCode": "S06",
    "stateName": "Gujarat",
    "districtCode": "S0601",
    "districtName": "Kachchh",
    "acNumber": 1,
    "acName": "Abdasa",
    "partNumber": 44,
    "partName": "Naredi",
    "lat": 23.6588636,
    "lon": 68.6930905
  },
  {
    "partId": 51015,
    "stateCode": "S06",
    "stateName": "Gujarat",
    "districtCode": "S0601",
    "districtName": "Kachchh",
    "acNumber": 1,
    "acName": "Abdasa",
    "partNumber": 45,
    "partName": "Budha",
    "lat": 23.5978004,
    "lon": 68.6496797
  },
  {
    "partId": 51016,
    "stateCode": "S06",
    "stateName": "Gujarat",
    "districtCode": "S0601",
    "districtName": "Kachchh",
    "acNumber": 1,
    "acName": "Abdasa",
    "partNumber": 46,
    "partName": "Narayan Sarowar",
    "lat": 23.257670349999998,
    "lon": 68.88546441419484
  },
  {
    "partId": 51017,
    "stateCode": "S06",
    "stateName": "Gujarat",
    "districtCode": "S0601",
    "districtName": "Kachchh",
    "acNumber": 1,
    "acName": "Abdasa",
    "partNumber": 47,
    "partName": "Kanoj",
    "lat": 23.257670349999998,
    "lon": 68.88546441419484
  },
  {
    "partId": 51018,
    "stateCode": "S06",
    "stateName": "Gujarat",
    "districtCode": "S0601",
    "districtName": "Kachchh",
    "acNumber": 1,
    "acName": "Abdasa",
    "partNumber": 48,
    "partName": "Guhar Moti",
    "lat": 23.6113554,
    "lon": 68.5184149
  },
  {
    "partId": 51019,
    "stateCode": "S06",
    "stateName": "Gujarat",
    "districtCode": "S0601",
    "districtName": "Kachchh",
    "acNumber": 1,
    "acName": "Abdasa",
    "partNumber": 49,
    "partName": "Rodasar",
    "lat": 23.5694548,
    "lon": 68.5103345
  },
  {
    "partId": 51020,
    "stateCode": "S06",
    "stateName": "Gujarat",
    "districtCode": "S0601",
    "districtName": "Kachchh",
    "acNumber": 1,
    "acName": "Abdasa",
    "partNumber": 50,
    "partName": "Pipar",
    "lat": 23.5215497,
    "lon": 68.5246951
  },
  {
    "partId": 51021,
    "stateCode": "S06",
    "stateName": "Gujarat",
    "districtCode": "S0601",
    "districtName": "Kachchh",
    "acNumber": 1,
    "acName": "Abdasa",
    "partNumber": 51,
    "partName": "Gunau",
    "lat": 23.4248016,
    "lon": 68.5632808
  },
  {
    "partId": 51022,
    "stateCode": "S06",
    "stateName": "Gujarat",
    "districtCode": "S0601",
    "districtName": "Kachchh",
    "acNumber": 1,
    "acName": "Abdasa",
    "partNumber": 52,
    "partName": "Jadva",
    "lat": 23.5047046,
    "lon": 68.6110046
  },
  {
    "partId": 51023,
    "stateCode": "S06",
    "stateName": "Gujarat",
    "districtCode": "S0601",
    "districtName": "Kachchh",
    "acNumber": 1,
    "acName": "Abdasa",
    "partNumber": 53,
    "partName": "Kharai",
    "lat": 23.4713252,
    "lon": 68.6855485
  },
  {
    "partId": 51344,
    "stateCode": "S06",
    "stateName": "Gujarat",
    "districtCode": "S0601",
    "districtName": "Kachchh",
    "acNumber": 1,
    "acName": "Abdasa",
    "partNumber": 54,
    "partName": "HARUDI",
    "lat": 23.1516538,
    "lon": 69.7732484
  },
  {
    "partId": 51024,
    "stateCode": "S06",
    "stateName": "Gujarat",
    "districtCode": "S0601",
    "districtName": "Kachchh",
    "acNumber": 1,
    "acName": "Abdasa",
    "partNumber": 55,
    "partName": "Baranda",
    "lat": 23.5551999,
    "lon": 68.6765155
  },
  {
    "partId": 51025,
    "stateCode": "S06",
    "stateName": "Gujarat",
    "districtCode": "S0601",
    "districtName": "Kachchh",
    "acNumber": 1,
    "acName": "Abdasa",
    "partNumber": 56,
    "partName": "Julrai",
    "lat": 23.4988336,
    "lon": 68.7586014
  },
  {
    "partId": 51026,
    "stateCode": "S06",
    "stateName": "Gujarat",
    "districtCode": "S0601",
    "districtName": "Kachchh",
    "acNumber": 1,
    "acName": "Abdasa",
    "partNumber": 57,
    "partName": "Saran Moti",
    "lat": 23.5207686,
    "lon": 68.7807225
  },
  {
    "partId": 51027,
    "stateCode": "S06",
    "stateName": "Gujarat",
    "districtCode": "S0601",
    "districtName": "Kachchh",
    "acNumber": 1,
    "acName": "Abdasa",
    "partNumber": 58,
    "partName": "Khadak",
    "lat": 23.5609076,
    "lon": 68.7854371
  },
  {
    "partId": 51028,
    "stateCode": "S06",
    "stateName": "Gujarat",
    "districtCode": "S0601",
    "districtName": "Kachchh",
    "acNumber": 1,
    "acName": "Abdasa",
    "partNumber": 59,
    "partName": "Samjiyaro",
    "lat": 23.257670349999998,
    "lon": 68.88546441419484
  },
  {
    "partId": 51029,
    "stateCode": "S06",
    "stateName": "Gujarat",
    "districtCode": "S0601",
    "districtName": "Kachchh",
    "acNumber": 1,
    "acName": "Abdasa",
    "partNumber": 60,
    "partName": "Ashaladi",
    "lat": 23.257670349999998,
    "lon": 68.88546441419484
  },
  {
    "partId": 51030,
    "stateCode": "S06",
    "stateName": "Gujarat",
    "districtCode": "S0601",
    "districtName": "Kachchh",
    "acNumber": 1,
    "acName": "Abdasa",
    "partNumber": 61,
    "partName": "Dolatpar",
    "lat": 23.597026,
    "lon": 68.8915729
  },
  {
    "partId": 51031,
    "stateCode": "S06",
    "stateName": "Gujarat",
    "districtCode": "S0601",
    "districtName": "Kachchh",
    "acNumber": 1,
    "acName": "Abdasa",
    "partNumber": 62,
    "partName": "Matana Madh - 1",
    "lat": 23.5425468,
    "lon": 68.9510321
  },
  {
    "partId": 51032,
    "stateCode": "S06",
    "stateName": "Gujarat",
    "districtCode": "S0601",
    "districtName": "Kachchh",
    "acNumber": 1,
    "acName": "Abdasa",
    "partNumber": 63,
    "partName": "Matana Madh - 2",
    "lat": 23.5425468,
    "lon": 68.9510321
  },
  {
    "partId": 51033,
    "stateCode": "S06",
    "stateName": "Gujarat",
    "districtCode": "S0601",
    "districtName": "Kachchh",
    "acNumber": 1,
    "acName": "Abdasa",
    "partNumber": 64,
    "partName": "Kotada Madh - 1",
    "lat": 23.257670349999998,
    "lon": 68.88546441419484
  },
  {
    "partId": 51034,
    "stateCode": "S06",
    "stateName": "Gujarat",
    "districtCode": "S0601",
    "districtName": "Kachchh",
    "acNumber": 1,
    "acName": "Abdasa",
    "partNumber": 65,
    "partName": "Kotada Madh - 2",
    "lat": 23.257670349999998,
    "lon": 68.88546441419484
  },
  {
    "partId": 51035,
    "stateCode": "S06",
    "stateName": "Gujarat",
    "districtCode": "S0601",
    "districtName": "Kachchh",
    "acNumber": 1,
    "acName": "Abdasa",
    "partNumber": 66,
    "partName": "Junangiya",
    "lat": 23.257670349999998,
    "lon": 68.88546441419484
  },
  {
    "partId": 51036,
    "stateCode": "S06",
    "stateName": "Gujarat",
    "districtCode": "S0601",
    "districtName": "Kachchh",
    "acNumber": 1,
    "acName": "Abdasa",
    "partNumber": 67,
    "partName": "Ashapar",
    "lat": 23.3023064,
    "lon": 68.8530367
  },
  {
    "partId": 51037,
    "stateCode": "S06",
    "stateName": "Gujarat",
    "districtCode": "S0601",
    "districtName": "Kachchh",
    "acNumber": 1,
    "acName": "Abdasa",
    "partNumber": 68,
    "partName": "Bhadra Mota",
    "lat": 23.257670349999998,
    "lon": 68.88546441419484
  },
  {
    "partId": 51038,
    "stateCode": "S06",
    "stateName": "Gujarat",
    "districtCode": "S0601",
    "districtName": "Kachchh",
    "acNumber": 1,
    "acName": "Abdasa",
    "partNumber": 69,
    "partName": "Hothiyay",
    "lat": 23.257670349999998,
    "lon": 68.88546441419484
  },
  {
    "partId": 51039,
    "stateCode": "S06",
    "stateName": "Gujarat",
    "districtCode": "S0601",
    "districtName": "Kachchh",
    "acNumber": 1,
    "acName": "Abdasa",
    "partNumber": 70,
    "partName": "Ber Moti",
    "lat": 23.4668923,
    "lon": 68.6006562
  },
  {
    "partId": 51040,
    "stateCode": "S06",
    "stateName": "Gujarat",
    "districtCode": "S0601",
    "districtName": "Kachchh",
    "acNumber": 1,
    "acName": "Abdasa",
    "partNumber": 71,
    "partName": "Ber Nani",
    "lat": 23.442033,
    "lon": 68.619863
  },
  {
    "partId": 51041,
    "stateCode": "S06",
    "stateName": "Gujarat",
    "districtCode": "S0601",
    "districtName": "Kachchh",
    "acNumber": 1,
    "acName": "Abdasa",
    "partNumber": 72,
    "partName": "Golay",
    "lat": 23.4473483,
    "lon": 68.5614713
  },
  {
    "partId": 51042,
    "stateCode": "S06",
    "stateName": "Gujarat",
    "districtCode": "S0601",
    "districtName": "Kachchh",
    "acNumber": 1,
    "acName": "Abdasa",
    "partNumber": 73,
    "partName": "Bhagodi Vandh",
    "lat": 23.257670349999998,
    "lon": 68.88546441419484
  },
  {
    "partId": 51043,
    "stateCode": "S06",
    "stateName": "Gujarat",
    "districtCode": "S0601",
    "districtName": "Kachchh",
    "acNumber": 1,
    "acName": "Abdasa",
    "partNumber": 74,
    "partName": "Akari Moti",
    "lat": 23.3868722,
    "lon": 68.6088681
  },
  {
    "partId": 51044,
    "stateCode": "S06",
    "stateName": "Gujarat",
    "districtCode": "S0601",
    "districtName": "Kachchh",
    "acNumber": 1,
    "acName": "Abdasa",
    "partNumber": 75,
    "partName": "Thumbadi",
    "lat": 23.257670349999998,
    "lon": 68.88546441419484
  },
  {
    "partId": 51045,
    "stateCode": "S06",
    "stateName": "Gujarat",
    "districtCode": "S0601",
    "districtName": "Kachchh",
    "acNumber": 1,
    "acName": "Abdasa",
    "partNumber": 76,
    "partName": "Navavas",
    "lat": 23.4503599,
    "lon": 68.604188
  },
  {
    "partId": 51046,
    "stateCode": "S06",
    "stateName": "Gujarat",
    "districtCode": "S0601",
    "districtName": "Kachchh",
    "acNumber": 1,
    "acName": "Abdasa",
    "partNumber": 77,
    "partName": "Valavari Vandh",
    "lat": 23.257670349999998,
    "lon": 68.88546441419484
  },
  {
    "partId": 51047,
    "stateCode": "S06",
    "stateName": "Gujarat",
    "districtCode": "S0601",
    "districtName": "Kachchh",
    "acNumber": 1,
    "acName": "Abdasa",
    "partNumber": 78,
    "partName": "Vayor - 1",
    "lat": 23.4182703,
    "lon": 68.6963082
  },
  {
    "partId": 51048,
    "stateCode": "S06",
    "stateName": "Gujarat",
    "districtCode": "S0601",
    "districtName": "Kachchh",
    "acNumber": 1,
    "acName": "Abdasa",
    "partNumber": 79,
    "partName": "Vayor - 2",
    "lat": 23.4182703,
    "lon": 68.6963082
  },
  {
    "partId": 51049,
    "stateCode": "S06",
    "stateName": "Gujarat",
    "districtCode": "S0601",
    "districtName": "Kachchh",
    "acNumber": 1,
    "acName": "Abdasa",
    "partNumber": 80,
    "partName": "Jethmalpar",
    "lat": 23.257670349999998,
    "lon": 68.88546441419484
  },
  {
    "partId": 51050,
    "stateCode": "S06",
    "stateName": "Gujarat",
    "districtCode": "S0601",
    "districtName": "Kachchh",
    "acNumber": 1,
    "acName": "Abdasa",
    "partNumber": 81,
    "partName": "Ukir",
    "lat": 23.4000612,
    "lon": 68.7990378
  },
  {
    "partId": 51051,
    "stateCode": "S06",
    "stateName": "Gujarat",
    "districtCode": "S0601",
    "districtName": "Kachchh",
    "acNumber": 1,
    "acName": "Abdasa",
    "partNumber": 82,
    "partName": "Vaghoth",
    "lat": 23.257670349999998,
    "lon": 68.88546441419484
  },
  {
    "partId": 51052,
    "stateCode": "S06",
    "stateName": "Gujarat",
    "districtCode": "S0601",
    "districtName": "Kachchh",
    "acNumber": 1,
    "acName": "Abdasa",
    "partNumber": 83,
    "partName": "Vaghapaddhar",
    "lat": 23.257670349999998,
    "lon": 68.88546441419484
  },
  {
    "partId": 51053,
    "stateCode": "S06",
    "stateName": "Gujarat",
    "districtCode": "S0601",
    "districtName": "Kachchh",
    "acNumber": 1,
    "acName": "Abdasa",
    "partNumber": 84,
    "partName": "Fulay",
    "lat": 23.3903911,
    "lon": 69.8117025
  },
  {
    "partId": 51054,
    "stateCode": "S06",
    "stateName": "Gujarat",
    "districtCode": "S0601",
    "districtName": "Kachchh",
    "acNumber": 1,
    "acName": "Abdasa",
    "partNumber": 85,
    "partName": "Sarangvada",
    "lat": 23.257670349999998,
    "lon": 68.88546441419484
  },
  {
    "partId": 51055,
    "stateCode": "S06",
    "stateName": "Gujarat",
    "districtCode": "S0601",
    "districtName": "Kachchh",
    "acNumber": 1,
    "acName": "Abdasa",
    "partNumber": 86,
    "partName": "Valsara",
    "lat": 23.257670349999998,
    "lon": 68.88546441419484
  },
  {
    "partId": 51056,
    "stateCode": "S06",
    "stateName": "Gujarat",
    "districtCode": "S0601",
    "districtName": "Kachchh",
    "acNumber": 1,
    "acName": "Abdasa",
    "partNumber": 87,
    "partName": "Laiyari",
    "lat": 23.3906744,
    "lon": 68.785153
  },
  {
    "partId": 51057,
    "stateCode": "S06",
    "stateName": "Gujarat",
    "districtCode": "S0601",
    "districtName": "Kachchh",
    "acNumber": 1,
    "acName": "Abdasa",
    "partNumber": 88,
    "partName": "Aida",
    "lat": 23.4078409,
    "lon": 68.8084142
  },
  {
    "partId": 51058,
    "stateCode": "S06",
    "stateName": "Gujarat",
    "districtCode": "S0601",
    "districtName": "Kachchh",
    "acNumber": 1,
    "acName": "Abdasa",
    "partNumber": 89,
    "partName": "Goyla",
    "lat": 23.439597,
    "lon": 68.8461015
  },
  {
    "partId": 51059,
    "stateCode": "S06",
    "stateName": "Gujarat",
    "districtCode": "S0601",
    "districtName": "Kachchh",
    "acNumber": 1,
    "acName": "Abdasa",
    "partNumber": 90,
    "partName": "Jangadiya",
    "lat": 23.257670349999998,
    "lon": 68.88546441419484
  },
  {
    "partId": 51060,
    "stateCode": "S06",
    "stateName": "Gujarat",
    "districtCode": "S0601",
    "districtName": "Kachchh",
    "acNumber": 1,
    "acName": "Abdasa",
    "partNumber": 91,
    "partName": "Buta - 1",
    "lat": 23.257670349999998,
    "lon": 68.88546441419484
  },
  {
    "partId": 51061,
    "stateCode": "S06",
    "stateName": "Gujarat",
    "districtCode": "S0601",
    "districtName": "Kachchh",
    "acNumber": 1,
    "acName": "Abdasa",
    "partNumber": 92,
    "partName": "Sadhiravandh",
    "lat": 23.257670349999998,
    "lon": 68.88546441419484
  },
  {
    "partId": 51062,
    "stateCode": "S06",
    "stateName": "Gujarat",
    "districtCode": "S0601",
    "districtName": "Kachchh",
    "acNumber": 1,
    "acName": "Abdasa",
    "partNumber": 93,
    "partName": "Sujapar - 1",
    "lat": 23.355029,
    "lon": 68.8747724
  },
  {
    "partId": 51063,
    "stateCode": "S06",
    "stateName": "Gujarat",
    "districtCode": "S0601",
    "districtName": "Kachchh",
    "acNumber": 1,
    "acName": "Abdasa",
    "partNumber": 94,
    "partName": "Pithoranagar",
    "lat": 23.257670349999998,
    "lon": 68.88546441419484
  },
  {
    "partId": 51064,
    "stateCode": "S06",
    "stateName": "Gujarat",
    "districtCode": "S0601",
    "districtName": "Kachchh",
    "acNumber": 1,
    "acName": "Abdasa",
    "partNumber": 95,
    "partName": "Nangiya",
    "lat": 23.3701705,
    "lon": 68.9146172
  },
  {
    "partId": 51065,
    "stateCode": "S06",
    "stateName": "Gujarat",
    "districtCode": "S0601",
    "districtName": "Kachchh",
    "acNumber": 1,
    "acName": "Abdasa",
    "partNumber": 96,
    "partName": "Kuvapaddhar",
    "lat": 23.3585773,
    "lon": 68.960089
  },
  {
    "partId": 51066,
    "stateCode": "S06",
    "stateName": "Gujarat",
    "districtCode": "S0601",
    "districtName": "Kachchh",
    "acNumber": 1,
    "acName": "Abdasa",
    "partNumber": 97,
    "partName": "Naranagar (Sodha Camp)",
    "lat": 23.257670349999998,
    "lon": 68.88546441419484
  },
  {
    "partId": 51067,
    "stateCode": "S06",
    "stateName": "Gujarat",
    "districtCode": "S0601",
    "districtName": "Kachchh",
    "acNumber": 1,
    "acName": "Abdasa",
    "partNumber": 98,
    "partName": "Ustiya - 1",
    "lat": 23.583333,
    "lon": 70.0
  },
  {
    "partId": 51068,
    "stateCode": "S06",
    "stateName": "Gujarat",
    "districtCode": "S0601",
    "districtName": "Kachchh",
    "acNumber": 1,
    "acName": "Abdasa",
    "partNumber": 99,
    "partName": "Baivarivandh",
    "lat": 23.341726963844085,
    "lon": 69.12099615728953
  },
  {
    "partId": 51069,
    "stateCode": "S06",
    "stateName": "Gujarat",
    "districtCode": "S0601",
    "districtName": "Kachchh",
    "acNumber": 1,
    "acName": "Abdasa",
    "partNumber": 100,
    "partName": "Bandiya",
    "lat": 23.341726963844085,
    "lon": 69.12099615728953
  },
  {
    "partId": 51070,
    "stateCode": "S06",
    "stateName": "Gujarat",
    "districtCode": "S0601",
    "districtName": "Kachchh",
    "acNumber": 1,
    "acName": "Abdasa",
    "partNumber": 101,
    "partName": "Khanay",
    "lat": 23.341726963844085,
    "lon": 69.12099615728953
  },
  {
    "partId": 51071,
    "stateCode": "S06",
    "stateName": "Gujarat",
    "districtCode": "S0601",
    "districtName": "Kachchh",
    "acNumber": 1,
    "acName": "Abdasa",
    "partNumber": 102,
    "partName": "Balapar",
    "lat": 23.3020589,
    "lon": 69.0672683
  },
  {
    "partId": 51072,
    "stateCode": "S06",
    "stateName": "Gujarat",
    "districtCode": "S0601",
    "districtName": "Kachchh",
    "acNumber": 1,
    "acName": "Abdasa",
    "partNumber": 103,
    "partName": "Vamoti Nani",
    "lat": 23.3139445,
    "lon": 69.1636861
  },
  {
    "partId": 51073,
    "stateCode": "S06",
    "stateName": "Gujarat",
    "districtCode": "S0601",
    "districtName": "Kachchh",
    "acNumber": 1,
    "acName": "Abdasa",
    "partNumber": 104,
    "partName": "Daban",
    "lat": 23.3310009,
    "lon": 69.0992886
  },
  {
    "partId": 51074,
    "stateCode": "S06",
    "stateName": "Gujarat",
    "districtCode": "S0601",
    "districtName": "Kachchh",
    "acNumber": 1,
    "acName": "Abdasa",
    "partNumber": 105,
    "partName": "Vamoti Moti",
    "lat": 23.3021376,
    "lon": 69.121449
  },
  {
    "partId": 51075,
    "stateCode": "S06",
    "stateName": "Gujarat",
    "districtCode": "S0601",
    "districtName": "Kachchh",
    "acNumber": 1,
    "acName": "Abdasa",
    "partNumber": 106,
    "partName": "Samanda",
    "lat": 23.3152572,
    "lon": 69.1486037
  },
  {
    "partId": 51076,
    "stateCode": "S06",
    "stateName": "Gujarat",
    "districtCode": "S0601",
    "districtName": "Kachchh",
    "acNumber": 1,
    "acName": "Abdasa",
    "partNumber": 107,
    "partName": "Kandhay",
    "lat": 23.2717832,
    "lon": 69.1414812
  },
  {
    "partId": 51077,
    "stateCode": "S06",
    "stateName": "Gujarat",
    "districtCode": "S0601",
    "districtName": "Kachchh",
    "acNumber": 1,
    "acName": "Abdasa",
    "partNumber": 108,
    "partName": "Balachod Nani",
    "lat": 23.224103,
    "lon": 69.1704959
  },
  {
    "partId": 51078,
    "stateCode": "S06",
    "stateName": "Gujarat",
    "districtCode": "S0601",
    "districtName": "Kachchh",
    "acNumber": 1,
    "acName": "Abdasa",
    "partNumber": 109,
    "partName": "Balachod Moti",
    "lat": 23.2308886,
    "lon": 69.1851904
  },
  {
    "partId": 51079,
    "stateCode": "S06",
    "stateName": "Gujarat",
    "districtCode": "S0601",
    "districtName": "Kachchh",
    "acNumber": 1,
    "acName": "Abdasa",
    "partNumber": 110,
    "partName": "Sanosara",
    "lat": 23.3606164,
    "lon": 69.6976301
  },
  {
    "partId": 51080,
    "stateCode": "S06",
    "stateName": "Gujarat",
    "districtCode": "S0601",
    "districtName": "Kachchh",
    "acNumber": 1,
    "acName": "Abdasa",
    "partNumber": 111,
    "partName": "Mothala - 1",
    "lat": 23.2026816,
    "lon": 69.1351068
  },
  {
    "partId": 51081,
    "stateCode": "S06",
    "stateName": "Gujarat",
    "districtCode": "S0601",
    "districtName": "Kachchh",
    "acNumber": 1,
    "acName": "Abdasa",
    "partNumber": 112,
    "partName": "Mothala - 2",
    "lat": 23.257670349999998,
    "lon": 68.88546441419484
  },
  {
    "partId": 51082,
    "stateCode": "S06",
    "stateName": "Gujarat",
    "districtCode": "S0601",
    "districtName": "Kachchh",
    "acNumber": 1,
    "acName": "Abdasa",
    "partNumber": 113,
    "partName": "Bhimpar",
    "lat": 23.2130427,
    "lon": 69.1644194
  },
  {
    "partId": 51083,
    "stateCode": "S06",
    "stateName": "Gujarat",
    "districtCode": "S0601",
    "districtName": "Kachchh",
    "acNumber": 1,
    "acName": "Abdasa",
    "partNumber": 114,
    "partName": "Kanakavati",
    "lat": 23.257670349999998,
    "lon": 68.88546441419484
  },
  {
    "partId": 51084,
    "stateCode": "S06",
    "stateName": "Gujarat",
    "districtCode": "S0601",
    "districtName": "Kachchh",
    "acNumber": 1,
    "acName": "Abdasa",
    "partNumber": 115,
    "partName": "Pethapar",
    "lat": 23.3163758,
    "lon": 70.7291489
  },
  {
    "partId": 51085,
    "stateCode": "S06",
    "stateName": "Gujarat",
    "districtCode": "S0601",
    "districtName": "Kachchh",
    "acNumber": 1,
    "acName": "Abdasa",
    "partNumber": 116,
    "partName": "Bhavanipar",
    "lat": 23.2286087,
    "lon": 69.0820956
  },
  {
    "partId": 51086,
    "stateCode": "S06",
    "stateName": "Gujarat",
    "districtCode": "S0601",
    "districtName": "Kachchh",
    "acNumber": 1,
    "acName": "Abdasa",
    "partNumber": 117,
    "partName": "Sarguara",
    "lat": 23.2571627,
    "lon": 69.1300374
  },
  {
    "partId": 51087,
    "stateCode": "S06",
    "stateName": "Gujarat",
    "districtCode": "S0601",
    "districtName": "Kachchh",
    "acNumber": 1,
    "acName": "Abdasa",
    "partNumber": 118,
    "partName": "Bita",
    "lat": 23.2682366,
    "lon": 69.0387296
  },
  {
    "partId": 51088,
    "stateCode": "S06",
    "stateName": "Gujarat",
    "districtCode": "S0601",
    "districtName": "Kachchh",
    "acNumber": 1,
    "acName": "Abdasa",
    "partNumber": 119,
    "partName": "Dhufi Nani",
    "lat": 23.583333,
    "lon": 70.0
  },
  {
    "partId": 51089,
    "stateCode": "S06",
    "stateName": "Gujarat",
    "districtCode": "S0601",
    "districtName": "Kachchh",
    "acNumber": 1,
    "acName": "Abdasa",
    "partNumber": 120,
    "partName": "Dhufi Moti",
    "lat": 23.2821135,
    "lon": 69.0061567
  },
  {
    "partId": 51090,
    "stateCode": "S06",
    "stateName": "Gujarat",
    "districtCode": "S0601",
    "districtName": "Kachchh",
    "acNumber": 1,
    "acName": "Abdasa",
    "partNumber": 121,
    "partName": "Bharapar",
    "lat": 23.1289549,
    "lon": 69.6286439
  },
  {
    "partId": 51091,
    "stateCode": "S06",
    "stateName": "Gujarat",
    "districtCode": "S0601",
    "districtName": "Kachchh",
    "acNumber": 1,
    "acName": "Abdasa",
    "partNumber": 122,
    "partName": "Hamirpar",
    "lat": 23.1116282,
    "lon": 69.8811149
  },
  {
    "partId": 51092,
    "stateCode": "S06",
    "stateName": "Gujarat",
    "districtCode": "S0601",
    "districtName": "Kachchh",
    "acNumber": 1,
    "acName": "Abdasa",
    "partNumber": 123,
    "partName": "Pat",
    "lat": 23.2926185,
    "lon": 69.7022201
  },
  {
    "partId": 51093,
    "stateCode": "S06",
    "stateName": "Gujarat",
    "districtCode": "S0601",
    "districtName": "Kachchh",
    "acNumber": 1,
    "acName": "Abdasa",
    "partNumber": 124,
    "partName": "Lakhaniya",
    "lat": 23.257670349999998,
    "lon": 68.88546441419484
  },
  {
    "partId": 51094,
    "stateCode": "S06",
    "stateName": "Gujarat",
    "districtCode": "S0601",
    "districtName": "Kachchh",
    "acNumber": 1,
    "acName": "Abdasa",
    "partNumber": 125,
    "partName": "Jatvandh",
    "lat": 23.257670349999998,
    "lon": 68.88546441419484
  },
  {
    "partId": 51095,
    "stateCode": "S06",
    "stateName": "Gujarat",
    "districtCode": "S0601",
    "districtName": "Kachchh",
    "acNumber": 1,
    "acName": "Abdasa",
    "partNumber": 126,
    "partName": "Tera - 1",
    "lat": 23.2844877,
    "lon": 68.9409537
  },
  {
    "partId": 51096,
    "stateCode": "S06",
    "stateName": "Gujarat",
    "districtCode": "S0601",
    "districtName": "Kachchh",
    "acNumber": 1,
    "acName": "Abdasa",
    "partNumber": 127,
    "partName": "Tera - 2",
    "lat": 23.2844877,
    "lon": 68.9409537
  },
  {
    "partId": 51097,
    "stateCode": "S06",
    "stateName": "Gujarat",
    "districtCode": "S0601",
    "districtName": "Kachchh",
    "acNumber": 1,
    "acName": "Abdasa",
    "partNumber": 128,
    "partName": "Bara",
    "lat": 23.310178,
    "lon": 69.2605161
  },
  {
    "partId": 51098,
    "stateCode": "S06",
    "stateName": "Gujarat",
    "districtCode": "S0601",
    "districtName": "Kachchh",
    "acNumber": 1,
    "acName": "Abdasa",
    "partNumber": 129,
    "partName": "Sukhpar",
    "lat": 23.4876447,
    "lon": 71.0726279
  },
  {
    "partId": 51099,
    "stateCode": "S06",
    "stateName": "Gujarat",
    "districtCode": "S0601",
    "districtName": "Kachchh",
    "acNumber": 1,
    "acName": "Abdasa",
    "partNumber": 130,
    "partName": "Ashapar",
    "lat": 23.3023064,
    "lon": 68.8530367
  },
  {
    "partId": 51100,
    "stateCode": "S06",
    "stateName": "Gujarat",
    "districtCode": "S0601",
    "districtName": "Kachchh",
    "acNumber": 1,
    "acName": "Abdasa",
    "partNumber": 131,
    "partName": "Trambo",
    "lat": 23.583333,
    "lon": 70.0
  },
  {
    "partId": 51101,
    "stateCode": "S06",
    "stateName": "Gujarat",
    "districtCode": "S0601",
    "districtName": "Kachchh",
    "acNumber": 1,
    "acName": "Abdasa",
    "partNumber": 132,
    "partName": "Rampar (Abada)",
    "lat": 23.257670349999998,
    "lon": 68.88546441419484
  },
  {
    "partId": 51102,
    "stateCode": "S06",
    "stateName": "Gujarat",
    "districtCode": "S0601",
    "districtName": "Kachchh",
    "acNumber": 1,
    "acName": "Abdasa",
    "partNumber": 133,
    "partName": "Haripar",
    "lat": 23.4346786,
    "lon": 69.3920923
  },
  {
    "partId": 51103,
    "stateCode": "S06",
    "stateName": "Gujarat",
    "districtCode": "S0601",
    "districtName": "Kachchh",
    "acNumber": 1,
    "acName": "Abdasa",
    "partNumber": 134,
    "partName": "Chhasra",
    "lat": 22.9570893,
    "lon": 69.8131156
  },
  {
    "partId": 51104,
    "stateCode": "S06",
    "stateName": "Gujarat",
    "districtCode": "S0601",
    "districtName": "Kachchh",
    "acNumber": 1,
    "acName": "Abdasa",
    "partNumber": 135,
    "partName": "Vadsar",
    "lat": 23.3424339,
    "lon": 68.7771935
  },
  {
    "partId": 51105,
    "stateCode": "S06",
    "stateName": "Gujarat",
    "districtCode": "S0601",
    "districtName": "Kachchh",
    "acNumber": 1,
    "acName": "Abdasa",
    "partNumber": 136,
    "partName": "Sukhpar (Sayand)",
    "lat": 23.3732486,
    "lon": 68.7487602
  },
  {
    "partId": 51106,
    "stateCode": "S06",
    "stateName": "Gujarat",
    "districtCode": "S0601",
    "districtName": "Kachchh",
    "acNumber": 1,
    "acName": "Abdasa",
    "partNumber": 137,
    "partName": "Charopadi Moti",
    "lat": 23.257670349999998,
    "lon": 68.88546441419484
  },
  {
    "partId": 51107,
    "stateCode": "S06",
    "stateName": "Gujarat",
    "districtCode": "S0601",
    "districtName": "Kachchh",
    "acNumber": 1,
    "acName": "Abdasa",
    "partNumber": 138,
    "partName": "Karamta",
    "lat": 23.3852425,
    "lon": 68.6670555
  },
  {
    "partId": 51108,
    "stateCode": "S06",
    "stateName": "Gujarat",
    "districtCode": "S0601",
    "districtName": "Kachchh",
    "acNumber": 1,
    "acName": "Abdasa",
    "partNumber": 139,
    "partName": "Mohadi",
    "lat": 23.345911,
    "lon": 68.693266
  },
  {
    "partId": 51109,
    "stateCode": "S06",
    "stateName": "Gujarat",
    "districtCode": "S0601",
    "districtName": "Kachchh",
    "acNumber": 1,
    "acName": "Abdasa",
    "partNumber": 140,
    "partName": "Ker Vandh",
    "lat": 23.2983538,
    "lon": 68.7814521
  },
  {
    "partId": 51110,
    "stateCode": "S06",
    "stateName": "Gujarat",
    "districtCode": "S0601",
    "districtName": "Kachchh",
    "acNumber": 1,
    "acName": "Abdasa",
    "partNumber": 141,
    "partName": "Chhadura",
    "lat": 23.2798949,
    "lon": 68.8214813
  },
  {
    "partId": 51111,
    "stateCode": "S06",
    "stateName": "Gujarat",
    "districtCode": "S0601",
    "districtName": "Kachchh",
    "acNumber": 1,
    "acName": "Abdasa",
    "partNumber": 142,
    "partName": "Mokarshi Vandh",
    "lat": 23.2739335,
    "lon": 68.7913129
  },
  {
    "partId": 51112,
    "stateCode": "S06",
    "stateName": "Gujarat",
    "districtCode": "S0601",
    "districtName": "Kachchh",
    "acNumber": 1,
    "acName": "Abdasa",
    "partNumber": 143,
    "partName": "Bhadram Vandh",
    "lat": 23.257670349999998,
    "lon": 68.88546441419484
  },
  {
    "partId": 51113,
    "stateCode": "S06",
    "stateName": "Gujarat",
    "districtCode": "S0601",
    "districtName": "Kachchh",
    "acNumber": 1,
    "acName": "Abdasa",
    "partNumber": 144,
    "partName": "Naliya - 1",
    "lat": 23.2589441,
    "lon": 68.82971359893139
  },
  {
    "partId": 51114,
    "stateCode": "S06",
    "stateName": "Gujarat",
    "districtCode": "S0601",
    "districtName": "Kachchh",
    "acNumber": 1,
    "acName": "Abdasa",
    "partNumber": 145,
    "partName": "Naliya - 2",
    "lat": 23.2589441,
    "lon": 68.82971359893139
  },
  {
    "partId": 51115,
    "stateCode": "S06",
    "stateName": "Gujarat",
    "districtCode": "S0601",
    "districtName": "Kachchh",
    "acNumber": 1,
    "acName": "Abdasa",
    "partNumber": 146,
    "partName": "Naliya - 3",
    "lat": 23.2589441,
    "lon": 68.82971359893139
  },
  {
    "partId": 51116,
    "stateCode": "S06",
    "stateName": "Gujarat",
    "districtCode": "S0601",
    "districtName": "Kachchh",
    "acNumber": 1,
    "acName": "Abdasa",
    "partNumber": 147,
    "partName": "Naliya - 4",
    "lat": 23.2589441,
    "lon": 68.82971359893139
  },
  {
    "partId": 51117,
    "stateCode": "S06",
    "stateName": "Gujarat",
    "districtCode": "S0601",
    "districtName": "Kachchh",
    "acNumber": 1,
    "acName": "Abdasa",
    "partNumber": 148,
    "partName": "Naliya - 5",
    "lat": 23.2589441,
    "lon": 68.82971359893139
  },
  {
    "partId": 51118,
    "stateCode": "S06",
    "stateName": "Gujarat",
    "districtCode": "S0601",
    "districtName": "Kachchh",
    "acNumber": 1,
    "acName": "Abdasa",
    "partNumber": 149,
    "partName": "Naliya - 6",
    "lat": 23.583333,
    "lon": 70.0
  },
  {
    "partId": 51119,
    "stateCode": "S06",
    "stateName": "Gujarat",
    "districtCode": "S0601",
    "districtName": "Kachchh",
    "acNumber": 1,
    "acName": "Abdasa",
    "partNumber": 150,
    "partName": "Naliya - 7",
    "lat": 23.2589441,
    "lon": 68.82971359893139
  },
  {
    "partId": 51120,
    "stateCode": "S06",
    "stateName": "Gujarat",
    "districtCode": "S0601",
    "districtName": "Kachchh",
    "acNumber": 1,
    "acName": "Abdasa",
    "partNumber": 151,
    "partName": "Naliya - 8",
    "lat": 23.2589441,
    "lon": 68.82971359893139
  },
  {
    "partId": 51121,
    "stateCode": "S06",
    "stateName": "Gujarat",
    "districtCode": "S0601",
    "districtName": "Kachchh",
    "acNumber": 1,
    "acName": "Abdasa",
    "partNumber": 152,
    "partName": "Naliya - 9",
    "lat": 23.2589441,
    "lon": 68.82971359893139
  },
  {
    "partId": 51122,
    "stateCode": "S06",
    "stateName": "Gujarat",
    "districtCode": "S0601",
    "districtName": "Kachchh",
    "acNumber": 1,
    "acName": "Abdasa",
    "partNumber": 153,
    "partName": "Hothivandh",
    "lat": 23.257670349999998,
    "lon": 68.88546441419484
  },
  {
    "partId": 51123,
    "stateCode": "S06",
    "stateName": "Gujarat",
    "districtCode": "S0601",
    "districtName": "Kachchh",
    "acNumber": 1,
    "acName": "Abdasa",
    "partNumber": 154,
    "partName": "Jasapar",
    "lat": 23.2273332,
    "lon": 68.7907405
  },
  {
    "partId": 51124,
    "stateCode": "S06",
    "stateName": "Gujarat",
    "districtCode": "S0601",
    "districtName": "Kachchh",
    "acNumber": 1,
    "acName": "Abdasa",
    "partNumber": 155,
    "partName": "Vingaber",
    "lat": 23.2113091,
    "lon": 68.7882564
  },
  {
    "partId": 51125,
    "stateCode": "S06",
    "stateName": "Gujarat",
    "districtCode": "S0601",
    "districtName": "Kachchh",
    "acNumber": 1,
    "acName": "Abdasa",
    "partNumber": 156,
    "partName": "Dadamapar",
    "lat": 23.583333,
    "lon": 70.0
  },
  {
    "partId": 51126,
    "stateCode": "S06",
    "stateName": "Gujarat",
    "districtCode": "S0601",
    "districtName": "Kachchh",
    "acNumber": 1,
    "acName": "Abdasa",
    "partNumber": 157,
    "partName": "Kukadau",
    "lat": 23.2148008,
    "lon": 68.7580353
  },
  {
    "partId": 51127,
    "stateCode": "S06",
    "stateName": "Gujarat",
    "districtCode": "S0601",
    "districtName": "Kachchh",
    "acNumber": 1,
    "acName": "Abdasa",
    "partNumber": 158,
    "partName": "Jakhau - 1",
    "lat": 23.1505829,
    "lon": 68.8133919
  },
  {
    "partId": 51128,
    "stateCode": "S06",
    "stateName": "Gujarat",
    "districtCode": "S0601",
    "districtName": "Kachchh",
    "acNumber": 1,
    "acName": "Abdasa",
    "partNumber": 159,
    "partName": "Jakhau - 2",
    "lat": 23.1505829,
    "lon": 68.8133919
  },
  {
    "partId": 51129,
    "stateCode": "S06",
    "stateName": "Gujarat",
    "districtCode": "S0601",
    "districtName": "Kachchh",
    "acNumber": 1,
    "acName": "Abdasa",
    "partNumber": 160,
    "partName": "Jakhau - 3",
    "lat": 23.1505829,
    "lon": 68.8133919
  },
  {
    "partId": 51130,
    "stateCode": "S06",
    "stateName": "Gujarat",
    "districtCode": "S0601",
    "districtName": "Kachchh",
    "acNumber": 1,
    "acName": "Abdasa",
    "partNumber": 161,
    "partName": "Jakhau - 4",
    "lat": 23.1505829,
    "lon": 68.8133919
  },
  {
    "partId": 51131,
    "stateCode": "S06",
    "stateName": "Gujarat",
    "districtCode": "S0601",
    "districtName": "Kachchh",
    "acNumber": 1,
    "acName": "Abdasa",
    "partNumber": 162,
    "partName": "Aashiravandh",
    "lat": 23.257670349999998,
    "lon": 68.88546441419484
  },
  {
    "partId": 51132,
    "stateCode": "S06",
    "stateName": "Gujarat",
    "districtCode": "S0601",
    "districtName": "Kachchh",
    "acNumber": 1,
    "acName": "Abdasa",
    "partNumber": 163,
    "partName": "Jakhau (Solt)",
    "lat": 23.257670349999998,
    "lon": 68.88546441419484
  },
  {
    "partId": 51133,
    "stateCode": "S06",
    "stateName": "Gujarat",
    "districtCode": "S0601",
    "districtName": "Kachchh",
    "acNumber": 1,
    "acName": "Abdasa",
    "partNumber": 164,
    "partName": "Lala",
    "lat": 23.583333,
    "lon": 70.0
  },
  {
    "partId": 51134,
    "stateCode": "S06",
    "stateName": "Gujarat",
    "districtCode": "S0601",
    "districtName": "Kachchh",
    "acNumber": 1,
    "acName": "Abdasa",
    "partNumber": 165,
    "partName": "Parjau",
    "lat": 23.257670349999998,
    "lon": 68.88546441419484
  },
  {
    "partId": 51135,
    "stateCode": "S06",
    "stateName": "Gujarat",
    "districtCode": "S0601",
    "districtName": "Kachchh",
    "acNumber": 1,
    "acName": "Abdasa",
    "partNumber": 166,
    "partName": "Sindhodi Moti",
    "lat": 23.1308633,
    "lon": 68.7811249
  },
  {
    "partId": 51136,
    "stateCode": "S06",
    "stateName": "Gujarat",
    "districtCode": "S0601",
    "districtName": "Kachchh",
    "acNumber": 1,
    "acName": "Abdasa",
    "partNumber": 167,
    "partName": "Rapar (Gadh)",
    "lat": 23.257670349999998,
    "lon": 68.88546441419484
  },
  {
    "partId": 51137,
    "stateCode": "S06",
    "stateName": "Gujarat",
    "districtCode": "S0601",
    "districtName": "Kachchh",
    "acNumber": 1,
    "acName": "Abdasa",
    "partNumber": 168,
    "partName": "Kaduli",
    "lat": 23.257670349999998,
    "lon": 68.88546441419484
  },
  {
    "partId": 51138,
    "stateCode": "S06",
    "stateName": "Gujarat",
    "districtCode": "S0601",
    "districtName": "Kachchh",
    "acNumber": 1,
    "acName": "Abdasa",
    "partNumber": 169,
    "partName": "Vanku",
    "lat": 23.1216426,
    "lon": 68.8554903
  },
  {
    "partId": 51139,
    "stateCode": "S06",
    "stateName": "Gujarat",
    "districtCode": "S0601",
    "districtName": "Kachchh",
    "acNumber": 1,
    "acName": "Abdasa",
    "partNumber": 170,
    "partName": "Vadapadhar",
    "lat": 23.257670349999998,
    "lon": 68.88546441419484
  },
  {
    "partId": 51140,
    "stateCode": "S06",
    "stateName": "Gujarat",
    "districtCode": "S0601",
    "districtName": "Kachchh",
    "acNumber": 1,
    "acName": "Abdasa",
    "partNumber": 171,
    "partName": "Bhanada",
    "lat": 23.1844615,
    "lon": 68.8951893
  },
  {
    "partId": 51141,
    "stateCode": "S06",
    "stateName": "Gujarat",
    "districtCode": "S0601",
    "districtName": "Kachchh",
    "acNumber": 1,
    "acName": "Abdasa",
    "partNumber": 172,
    "partName": "Sudadhro Moti",
    "lat": 23.2541498,
    "lon": 68.8759728
  },
  {
    "partId": 51142,
    "stateCode": "S06",
    "stateName": "Gujarat",
    "districtCode": "S0601",
    "districtName": "Kachchh",
    "acNumber": 1,
    "acName": "Abdasa",
    "partNumber": 173,
    "partName": "Kala Talav",
    "lat": 23.2399829,
    "lon": 68.9004332
  },
  {
    "partId": 51143,
    "stateCode": "S06",
    "stateName": "Gujarat",
    "districtCode": "S0601",
    "districtName": "Kachchh",
    "acNumber": 1,
    "acName": "Abdasa",
    "partNumber": 174,
    "partName": "Kunathiya",
    "lat": 23.257670349999998,
    "lon": 68.88546441419484
  },
  {
    "partId": 51144,
    "stateCode": "S06",
    "stateName": "Gujarat",
    "districtCode": "S0601",
    "districtName": "Kachchh",
    "acNumber": 1,
    "acName": "Abdasa",
    "partNumber": 175,
    "partName": "Bhachunda",
    "lat": 23.2012195,
    "lon": 69.0003111
  },
  {
    "partId": 51145,
    "stateCode": "S06",
    "stateName": "Gujarat",
    "districtCode": "S0601",
    "districtName": "Kachchh",
    "acNumber": 1,
    "acName": "Abdasa",
    "partNumber": 176,
    "partName": "Khirasra (Kothara)",
    "lat": 23.257670349999998,
    "lon": 68.88546441419484
  },
  {
    "partId": 51146,
    "stateCode": "S06",
    "stateName": "Gujarat",
    "districtCode": "S0601",
    "districtName": "Kachchh",
    "acNumber": 1,
    "acName": "Abdasa",
    "partNumber": 177,
    "partName": "Paiya",
    "lat": 23.3359119,
    "lon": 69.7618961
  },
  {
    "partId": 51147,
    "stateCode": "S06",
    "stateName": "Gujarat",
    "districtCode": "S0601",
    "districtName": "Kachchh",
    "acNumber": 1,
    "acName": "Abdasa",
    "partNumber": 178,
    "partName": "Bhedi",
    "lat": 23.1318085,
    "lon": 68.9376478
  },
  {
    "partId": 51148,
    "stateCode": "S06",
    "stateName": "Gujarat",
    "districtCode": "S0601",
    "districtName": "Kachchh",
    "acNumber": 1,
    "acName": "Abdasa",
    "partNumber": 179,
    "partName": "Kothara - 1",
    "lat": 23.1522953,
    "lon": 68.9315735
  },
  {
    "partId": 51149,
    "stateCode": "S06",
    "stateName": "Gujarat",
    "districtCode": "S0601",
    "districtName": "Kachchh",
    "acNumber": 1,
    "acName": "Abdasa",
    "partNumber": 180,
    "partName": "Kothara - 2",
    "lat": 23.1522953,
    "lon": 68.9315735
  },
  {
    "partId": 51150,
    "stateCode": "S06",
    "stateName": "Gujarat",
    "districtCode": "S0601",
    "districtName": "Kachchh",
    "acNumber": 1,
    "acName": "Abdasa",
    "partNumber": 181,
    "partName": "Kothara - 3",
    "lat": 23.1522953,
    "lon": 68.9315735
  },
  {
    "partId": 51151,
    "stateCode": "S06",
    "stateName": "Gujarat",
    "districtCode": "S0601",
    "districtName": "Kachchh",
    "acNumber": 1,
    "acName": "Abdasa",
    "partNumber": 182,
    "partName": "Kothara - 4",
    "lat": 23.1522953,
    "lon": 68.9315735
  },
  {
    "partId": 51152,
    "stateCode": "S06",
    "stateName": "Gujarat",
    "districtCode": "S0601",
    "districtName": "Kachchh",
    "acNumber": 1,
    "acName": "Abdasa",
    "partNumber": 183,
    "partName": "Sanyara",
    "lat": 23.1887667,
    "lon": 68.9167199
  },
  {
    "partId": 51153,
    "stateCode": "S06",
    "stateName": "Gujarat",
    "districtCode": "S0601",
    "districtName": "Kachchh",
    "acNumber": 1,
    "acName": "Abdasa",
    "partNumber": 184,
    "partName": "Arikhana",
    "lat": 23.0704931,
    "lon": 68.8699007
  },
  {
    "partId": 51154,
    "stateCode": "S06",
    "stateName": "Gujarat",
    "districtCode": "S0601",
    "districtName": "Kachchh",
    "acNumber": 1,
    "acName": "Abdasa",
    "partNumber": 185,
    "partName": "Suthari - 1",
    "lat": 23.583333,
    "lon": 70.0
  },
  {
    "partId": 51155,
    "stateCode": "S06",
    "stateName": "Gujarat",
    "districtCode": "S0601",
    "districtName": "Kachchh",
    "acNumber": 1,
    "acName": "Abdasa",
    "partNumber": 186,
    "partName": "Suthari - 2",
    "lat": 23.257670349999998,
    "lon": 68.88546441419484
  },
  {
    "partId": 51156,
    "stateCode": "S06",
    "stateName": "Gujarat",
    "districtCode": "S0601",
    "districtName": "Kachchh",
    "acNumber": 1,
    "acName": "Abdasa",
    "partNumber": 187,
    "partName": "Khuada",
    "lat": 23.257670349999998,
    "lon": 68.88546441419484
  },
  {
    "partId": 51157,
    "stateCode": "S06",
    "stateName": "Gujarat",
    "districtCode": "S0601",
    "districtName": "Kachchh",
    "acNumber": 1,
    "acName": "Abdasa",
    "partNumber": 188,
    "partName": "Bera",
    "lat": 23.0625246,
    "lon": 68.8814986
  },
  {
    "partId": 51158,
    "stateCode": "S06",
    "stateName": "Gujarat",
    "districtCode": "S0601",
    "districtName": "Kachchh",
    "acNumber": 1,
    "acName": "Abdasa",
    "partNumber": 189,
    "partName": "Kamand",
    "lat": 23.0515003,
    "lon": 68.8610172
  },
  {
    "partId": 51159,
    "stateCode": "S06",
    "stateName": "Gujarat",
    "districtCode": "S0601",
    "districtName": "Kachchh",
    "acNumber": 1,
    "acName": "Abdasa",
    "partNumber": 190,
    "partName": "Sandhan",
    "lat": 23.2853853,
    "lon": 68.9943122
  },
  {
    "partId": 51160,
    "stateCode": "S06",
    "stateName": "Gujarat",
    "districtCode": "S0601",
    "districtName": "Kachchh",
    "acNumber": 1,
    "acName": "Abdasa",
    "partNumber": 191,
    "partName": "Lathedi",
    "lat": 22.9928864,
    "lon": 69.0256834
  },
  {
    "partId": 51161,
    "stateCode": "S06",
    "stateName": "Gujarat",
    "districtCode": "S0601",
    "districtName": "Kachchh",
    "acNumber": 1,
    "acName": "Abdasa",
    "partNumber": 192,
    "partName": "Chhachhi",
    "lat": 22.9667953,
    "lon": 68.9941834
  },
  {
    "partId": 51162,
    "stateCode": "S06",
    "stateName": "Gujarat",
    "districtCode": "S0601",
    "districtName": "Kachchh",
    "acNumber": 1,
    "acName": "Abdasa",
    "partNumber": 193,
    "partName": "Dumra - 1",
    "lat": 23.0246173,
    "lon": 69.0394469
  },
  {
    "partId": 51163,
    "stateCode": "S06",
    "stateName": "Gujarat",
    "districtCode": "S0601",
    "districtName": "Kachchh",
    "acNumber": 1,
    "acName": "Abdasa",
    "partNumber": 194,
    "partName": "Dumra - 2",
    "lat": 23.0246173,
    "lon": 69.0394469
  },
  {
    "partId": 51164,
    "stateCode": "S06",
    "stateName": "Gujarat",
    "districtCode": "S0601",
    "districtName": "Kachchh",
    "acNumber": 1,
    "acName": "Abdasa",
    "partNumber": 195,
    "partName": "Karodiya Mota",
    "lat": 23.0564363,
    "lon": 69.1049909
  },
  {
    "partId": 51165,
    "stateCode": "S06",
    "stateName": "Gujarat",
    "districtCode": "S0601",
    "districtName": "Kachchh",
    "acNumber": 1,
    "acName": "Abdasa",
    "partNumber": 196,
    "partName": "Varandi Moti",
    "lat": 23.257670349999998,
    "lon": 68.88546441419484
  },
  {
    "partId": 51166,
    "stateCode": "S06",
    "stateName": "Gujarat",
    "districtCode": "S0601",
    "districtName": "Kachchh",
    "acNumber": 1,
    "acName": "Abdasa",
    "partNumber": 197,
    "partName": "Vinjan - 1",
    "lat": 23.257670349999998,
    "lon": 68.88546441419484
  },
  {
    "partId": 51167,
    "stateCode": "S06",
    "stateName": "Gujarat",
    "districtCode": "S0601",
    "districtName": "Kachchh",
    "acNumber": 1,
    "acName": "Abdasa",
    "partNumber": 198,
    "partName": "Vinjan - 2",
    "lat": 23.257670349999998,
    "lon": 68.88546441419484
  },
  {
    "partId": 51168,
    "stateCode": "S06",
    "stateName": "Gujarat",
    "districtCode": "S0601",
    "districtName": "Kachchh",
    "acNumber": 1,
    "acName": "Abdasa",
    "partNumber": 199,
    "partName": "Khirasara (Vinjan)",
    "lat": 23.257670349999998,
    "lon": 68.88546441419484
  },
  {
    "partId": 51169,
    "stateCode": "S06",
    "stateName": "Gujarat",
    "districtCode": "S0601",
    "districtName": "Kachchh",
    "acNumber": 1,
    "acName": "Abdasa",
    "partNumber": 200,
    "partName": "Varadiya - 1",
    "lat": 23.1045991,
    "lon": 68.9460977
  },
  {
    "partId": 51170,
    "stateCode": "S06",
    "stateName": "Gujarat",
    "districtCode": "S0601",
    "districtName": "Kachchh",
    "acNumber": 1,
    "acName": "Abdasa",
    "partNumber": 201,
    "partName": "Varadiya - 2",
    "lat": 23.1045991,
    "lon": 68.9460977
  },
  {
    "partId": 51171,
    "stateCode": "S06",
    "stateName": "Gujarat",
    "districtCode": "S0601",
    "districtName": "Kachchh",
    "acNumber": 1,
    "acName": "Abdasa",
    "partNumber": 202,
    "partName": "Amarvandh",
    "lat": 23.257670349999998,
    "lon": 68.88546441419484
  },
  {
    "partId": 51172,
    "stateCode": "S06",
    "stateName": "Gujarat",
    "districtCode": "S0601",
    "districtName": "Kachchh",
    "acNumber": 1,
    "acName": "Abdasa",
    "partNumber": 203,
    "partName": "Sandhav",
    "lat": 23.1566433,
    "lon": 68.9664824
  },
  {
    "partId": 51173,
    "stateCode": "S06",
    "stateName": "Gujarat",
    "districtCode": "S0601",
    "districtName": "Kachchh",
    "acNumber": 1,
    "acName": "Abdasa",
    "partNumber": 204,
    "partName": "Nagore",
    "lat": 23.583333,
    "lon": 70.0
  },
  {
    "partId": 51174,
    "stateCode": "S06",
    "stateName": "Gujarat",
    "districtCode": "S0601",
    "districtName": "Kachchh",
    "acNumber": 1,
    "acName": "Abdasa",
    "partNumber": 205,
    "partName": "Rava",
    "lat": 23.2046686,
    "lon": 69.0383863
  },
  {
    "partId": 51175,
    "stateCode": "S06",
    "stateName": "Gujarat",
    "districtCode": "S0601",
    "districtName": "Kachchh",
    "acNumber": 1,
    "acName": "Abdasa",
    "partNumber": 206,
    "partName": "Gadhavala Wada",
    "lat": 23.257670349999998,
    "lon": 68.88546441419484
  },
  {
    "partId": 51176,
    "stateCode": "S06",
    "stateName": "Gujarat",
    "districtCode": "S0601",
    "districtName": "Kachchh",
    "acNumber": 1,
    "acName": "Abdasa",
    "partNumber": 207,
    "partName": "Dhanavada",
    "lat": 23.583333,
    "lon": 70.0
  },
  {
    "partId": 51177,
    "stateCode": "S06",
    "stateName": "Gujarat",
    "districtCode": "S0601",
    "districtName": "Kachchh",
    "acNumber": 1,
    "acName": "Abdasa",
    "partNumber": 208,
    "partName": "Hajapar",
    "lat": 23.133185,
    "lon": 69.7725794
  },
  {
    "partId": 51178,
    "stateCode": "S06",
    "stateName": "Gujarat",
    "districtCode": "S0601",
    "districtName": "Kachchh",
    "acNumber": 1,
    "acName": "Abdasa",
    "partNumber": 209,
    "partName": "Kanakpar",
    "lat": 23.1802902,
    "lon": 69.0867089
  },
  {
    "partId": 51179,
    "stateCode": "S06",
    "stateName": "Gujarat",
    "districtCode": "S0601",
    "districtName": "Kachchh",
    "acNumber": 1,
    "acName": "Abdasa",
    "partNumber": 210,
    "partName": "Nundhatad",
    "lat": 23.257670349999998,
    "lon": 68.88546441419484
  },
  {
    "partId": 51180,
    "stateCode": "S06",
    "stateName": "Gujarat",
    "districtCode": "S0601",
    "districtName": "Kachchh",
    "acNumber": 1,
    "acName": "Abdasa",
    "partNumber": 211,
    "partName": "Naranpar",
    "lat": 23.0993376,
    "lon": 69.0486479
  },
  {
    "partId": 51181,
    "stateCode": "S06",
    "stateName": "Gujarat",
    "districtCode": "S0601",
    "districtName": "Kachchh",
    "acNumber": 1,
    "acName": "Abdasa",
    "partNumber": 212,
    "partName": "Reldiya Manjal",
    "lat": 23.257670349999998,
    "lon": 68.88546441419484
  },
  {
    "partId": 51182,
    "stateCode": "S06",
    "stateName": "Gujarat",
    "districtCode": "S0601",
    "districtName": "Kachchh",
    "acNumber": 1,
    "acName": "Abdasa",
    "partNumber": 213,
    "partName": "Boha",
    "lat": 23.0799094,
    "lon": 69.1535926
  },
  {
    "partId": 51183,
    "stateCode": "S06",
    "stateName": "Gujarat",
    "districtCode": "S0601",
    "districtName": "Kachchh",
    "acNumber": 1,
    "acName": "Abdasa",
    "partNumber": 214,
    "partName": "Daha",
    "lat": 23.0999048,
    "lon": 69.1696643
  },
  {
    "partId": 51184,
    "stateCode": "S06",
    "stateName": "Gujarat",
    "districtCode": "S0601",
    "districtName": "Kachchh",
    "acNumber": 1,
    "acName": "Abdasa",
    "partNumber": 215,
    "partName": "Raydhanjar",
    "lat": 23.1020685,
    "lon": 69.1140797
  },
  {
    "partId": 51185,
    "stateCode": "S06",
    "stateName": "Gujarat",
    "districtCode": "S0601",
    "districtName": "Kachchh",
    "acNumber": 1,
    "acName": "Abdasa",
    "partNumber": 216,
    "partName": "Kharua",
    "lat": 23.1448118,
    "lon": 69.1211214
  },
  {
    "partId": 51186,
    "stateCode": "S06",
    "stateName": "Gujarat",
    "districtCode": "S0601",
    "districtName": "Kachchh",
    "acNumber": 1,
    "acName": "Abdasa",
    "partNumber": 217,
    "partName": "Chiyasar",
    "lat": 23.0884473,
    "lon": 69.0895991
  },
  {
    "partId": 51187,
    "stateCode": "S06",
    "stateName": "Gujarat",
    "districtCode": "S0601",
    "districtName": "Kachchh",
    "acNumber": 1,
    "acName": "Abdasa",
    "partNumber": 218,
    "partName": "Kalarvandh",
    "lat": 23.257670349999998,
    "lon": 68.88546441419484
  },
  {
    "partId": 51188,
    "stateCode": "S06",
    "stateName": "Gujarat",
    "districtCode": "S0601",
    "districtName": "Kachchh",
    "acNumber": 1,
    "acName": "Abdasa",
    "partNumber": 219,
    "partName": "Naredi",
    "lat": 23.6588636,
    "lon": 68.6930905
  },
  {
    "partId": 51189,
    "stateCode": "S06",
    "stateName": "Gujarat",
    "districtCode": "S0601",
    "districtName": "Kachchh",
    "acNumber": 1,
    "acName": "Abdasa",
    "partNumber": 220,
    "partName": "Hingariya",
    "lat": 23.257670349999998,
    "lon": 68.88546441419484
  },
  {
    "partId": 51190,
    "stateCode": "S06",
    "stateName": "Gujarat",
    "districtCode": "S0601",
    "districtName": "Kachchh",
    "acNumber": 1,
    "acName": "Abdasa",
    "partNumber": 221,
    "partName": "Paneli",
    "lat": 23.6001309,
    "lon": 68.9390851
  },
  {
    "partId": 51191,
    "stateCode": "S06",
    "stateName": "Gujarat",
    "districtCode": "S0601",
    "districtName": "Kachchh",
    "acNumber": 1,
    "acName": "Abdasa",
    "partNumber": 222,
    "partName": "Valkamota",
    "lat": 23.257670349999998,
    "lon": 68.88546441419484
  },
  {
    "partId": 51192,
    "stateCode": "S06",
    "stateName": "Gujarat",
    "districtCode": "S0601",
    "districtName": "Kachchh",
    "acNumber": 1,
    "acName": "Abdasa",
    "partNumber": 223,
    "partName": "Valkanana",
    "lat": 23.257670349999998,
    "lon": 68.88546441419484
  },
  {
    "partId": 51193,
    "stateCode": "S06",
    "stateName": "Gujarat",
    "districtCode": "S0601",
    "districtName": "Kachchh",
    "acNumber": 1,
    "acName": "Abdasa",
    "partNumber": 224,
    "partName": "Ghadani - 1",
    "lat": 23.257670349999998,
    "lon": 68.88546441419484
  },
  {
    "partId": 51194,
    "stateCode": "S06",
    "stateName": "Gujarat",
    "districtCode": "S0601",
    "districtName": "Kachchh",
    "acNumber": 1,
    "acName": "Abdasa",
    "partNumber": 225,
    "partName": "Ghadani - 2",
    "lat": 23.257670349999998,
    "lon": 68.88546441419484
  },
  {
    "partId": 51195,
    "stateCode": "S06",
    "stateName": "Gujarat",
    "districtCode": "S0601",
    "districtName": "Kachchh",
    "acNumber": 1,
    "acName": "Abdasa",
    "partNumber": 226,
    "partName": "Navavash",
    "lat": 23.257670349999998,
    "lon": 68.88546441419484
  },
  {
    "partId": 51196,
    "stateCode": "S06",
    "stateName": "Gujarat",
    "districtCode": "S0601",
    "districtName": "Kachchh",
    "acNumber": 1,
    "acName": "Abdasa",
    "partNumber": 227,
    "partName": "Ravapar - 1",
    "lat": 23.5172861,
    "lon": 69.0412187
  },
  {
    "partId": 51197,
    "stateCode": "S06",
    "stateName": "Gujarat",
    "districtCode": "S0601",
    "districtName": "Kachchh",
    "acNumber": 1,
    "acName": "Abdasa",
    "partNumber": 228,
    "partName": "Ravapar - 2",
    "lat": 23.5172861,
    "lon": 69.0412187
  },
  {
    "partId": 51198,
    "stateCode": "S06",
    "stateName": "Gujarat",
    "districtCode": "S0601",
    "districtName": "Kachchh",
    "acNumber": 1,
    "acName": "Abdasa",
    "partNumber": 229,
    "partName": "Ravapar - 3",
    "lat": 23.5172861,
    "lon": 69.0412187
  },
  {
    "partId": 51199,
    "stateCode": "S06",
    "stateName": "Gujarat",
    "districtCode": "S0601",
    "districtName": "Kachchh",
    "acNumber": 1,
    "acName": "Abdasa",
    "partNumber": 230,
    "partName": "Nagviri",
    "lat": 23.5065731,
    "lon": 69.0439926
  },
  {
    "partId": 51200,
    "stateCode": "S06",
    "stateName": "Gujarat",
    "districtCode": "S0601",
    "districtName": "Kachchh",
    "acNumber": 1,
    "acName": "Abdasa",
    "partNumber": 231,
    "partName": "Laxmipar (Netra)",
    "lat": 23.257670349999998,
    "lon": 68.88546441419484
  },
  {
    "partId": 51201,
    "stateCode": "S06",
    "stateName": "Gujarat",
    "districtCode": "S0601",
    "districtName": "Kachchh",
    "acNumber": 1,
    "acName": "Abdasa",
    "partNumber": 232,
    "partName": "Bharapar Bhadra",
    "lat": 23.257670349999998,
    "lon": 68.88546441419484
  },
  {
    "partId": 51202,
    "stateCode": "S06",
    "stateName": "Gujarat",
    "districtCode": "S0601",
    "districtName": "Kachchh",
    "acNumber": 1,
    "acName": "Abdasa",
    "partNumber": 233,
    "partName": "Khirasra (Netra)",
    "lat": 23.257670349999998,
    "lon": 68.88546441419484
  },
  {
    "partId": 51203,
    "stateCode": "S06",
    "stateName": "Gujarat",
    "districtCode": "S0601",
    "districtName": "Kachchh",
    "acNumber": 1,
    "acName": "Abdasa",
    "partNumber": 234,
    "partName": "Rampar Sarva",
    "lat": 23.257670349999998,
    "lon": 68.88546441419484
  },
  {
    "partId": 51204,
    "stateCode": "S06",
    "stateName": "Gujarat",
    "districtCode": "S0601",
    "districtName": "Kachchh",
    "acNumber": 1,
    "acName": "Abdasa",
    "partNumber": 235,
    "partName": "Netra - 1",
    "lat": 23.4250894,
    "lon": 69.030734
  },
  {
    "partId": 51205,
    "stateCode": "S06",
    "stateName": "Gujarat",
    "districtCode": "S0601",
    "districtName": "Kachchh",
    "acNumber": 1,
    "acName": "Abdasa",
    "partNumber": 236,
    "partName": "Netra - 2",
    "lat": 23.4250894,
    "lon": 69.030734
  },
  {
    "partId": 51206,
    "stateCode": "S06",
    "stateName": "Gujarat",
    "districtCode": "S0601",
    "districtName": "Kachchh",
    "acNumber": 1,
    "acName": "Abdasa",
    "partNumber": 237,
    "partName": "Netra - 3",
    "lat": 23.4250894,
    "lon": 69.030734
  },
  {
    "partId": 51207,
    "stateCode": "S06",
    "stateName": "Gujarat",
    "districtCode": "S0601",
    "districtName": "Kachchh",
    "acNumber": 1,
    "acName": "Abdasa",
    "partNumber": 238,
    "partName": "Netra - 4",
    "lat": 23.4250894,
    "lon": 69.030734
  },
  {
    "partId": 51208,
    "stateCode": "S06",
    "stateName": "Gujarat",
    "districtCode": "S0601",
    "districtName": "Kachchh",
    "acNumber": 1,
    "acName": "Abdasa",
    "partNumber": 239,
    "partName": "Rashliya - 1",
    "lat": 23.257670349999998,
    "lon": 68.88546441419484
  },
  {
    "partId": 51209,
    "stateCode": "S06",
    "stateName": "Gujarat",
    "districtCode": "S0601",
    "districtName": "Kachchh",
    "acNumber": 1,
    "acName": "Abdasa",
    "partNumber": 240,
    "partName": "Rashliya - 2",
    "lat": 23.257670349999998,
    "lon": 68.88546441419484
  },
  {
    "partId": 51210,
    "stateCode": "S06",
    "stateName": "Gujarat",
    "districtCode": "S0601",
    "districtName": "Kachchh",
    "acNumber": 1,
    "acName": "Abdasa",
    "partNumber": 241,
    "partName": "Khombhadi Moti - 1",
    "lat": 23.257670349999998,
    "lon": 68.88546441419484
  },
  {
    "partId": 51211,
    "stateCode": "S06",
    "stateName": "Gujarat",
    "districtCode": "S0601",
    "districtName": "Kachchh",
    "acNumber": 1,
    "acName": "Abdasa",
    "partNumber": 242,
    "partName": "Khombhadi Moti - 2",
    "lat": 23.257670349999998,
    "lon": 68.88546441419484
  },
  {
    "partId": 51212,
    "stateCode": "S06",
    "stateName": "Gujarat",
    "districtCode": "S0601",
    "districtName": "Kachchh",
    "acNumber": 1,
    "acName": "Abdasa",
    "partNumber": 243,
    "partName": "Khombhadi Nani",
    "lat": 23.257670349999998,
    "lon": 68.88546441419484
  },
  {
    "partId": 51213,
    "stateCode": "S06",
    "stateName": "Gujarat",
    "districtCode": "S0601",
    "districtName": "Kachchh",
    "acNumber": 1,
    "acName": "Abdasa",
    "partNumber": 244,
    "partName": "Todiya - 1",
    "lat": 23.583333,
    "lon": 70.0
  },
  {
    "partId": 51214,
    "stateCode": "S06",
    "stateName": "Gujarat",
    "districtCode": "S0601",
    "districtName": "Kachchh",
    "acNumber": 1,
    "acName": "Abdasa",
    "partNumber": 245,
    "partName": "Todiya - 2",
    "lat": 23.4054037,
    "lon": 69.1488075
  },
  {
    "partId": 51215,
    "stateCode": "S06",
    "stateName": "Gujarat",
    "districtCode": "S0601",
    "districtName": "Kachchh",
    "acNumber": 1,
    "acName": "Abdasa",
    "partNumber": 246,
    "partName": "Kadiya Nana",
    "lat": 23.38443,
    "lon": 69.1503739
  },
  {
    "partId": 51216,
    "stateCode": "S06",
    "stateName": "Gujarat",
    "districtCode": "S0601",
    "districtName": "Kachchh",
    "acNumber": 1,
    "acName": "Abdasa",
    "partNumber": 247,
    "partName": "Kadiya Mota",
    "lat": 23.3828543,
    "lon": 69.1346884
  },
  {
    "partId": 51217,
    "stateCode": "S06",
    "stateName": "Gujarat",
    "districtCode": "S0601",
    "districtName": "Kachchh",
    "acNumber": 1,
    "acName": "Abdasa",
    "partNumber": 248,
    "partName": "Jadodar",
    "lat": 23.3677668,
    "lon": 69.1760158
  },
  {
    "partId": 51218,
    "stateCode": "S06",
    "stateName": "Gujarat",
    "districtCode": "S0601",
    "districtName": "Kachchh",
    "acNumber": 1,
    "acName": "Abdasa",
    "partNumber": 249,
    "partName": "Ukheda",
    "lat": 23.3491906,
    "lon": 69.1229725
  },
  {
    "partId": 51219,
    "stateCode": "S06",
    "stateName": "Gujarat",
    "districtCode": "S0601",
    "districtName": "Kachchh",
    "acNumber": 1,
    "acName": "Abdasa",
    "partNumber": 250,
    "partName": "Kotda (Jadodar) - 1",
    "lat": 23.3762759,
    "lon": 69.198997
  },
  {
    "partId": 51220,
    "stateCode": "S06",
    "stateName": "Gujarat",
    "districtCode": "S0601",
    "districtName": "Kachchh",
    "acNumber": 1,
    "acName": "Abdasa",
    "partNumber": 251,
    "partName": "Kotda (Jadodar) - 2",
    "lat": 23.3762759,
    "lon": 69.198997
  },
  {
    "partId": 51221,
    "stateCode": "S06",
    "stateName": "Gujarat",
    "districtCode": "S0601",
    "districtName": "Kachchh",
    "acNumber": 1,
    "acName": "Abdasa",
    "partNumber": 252,
    "partName": "Kotda (Jadodar) - 3",
    "lat": 23.3762759,
    "lon": 69.198997
  },
  {
    "partId": 51222,
    "stateCode": "S06",
    "stateName": "Gujarat",
    "districtCode": "S0601",
    "districtName": "Kachchh",
    "acNumber": 1,
    "acName": "Abdasa",
    "partNumber": 253,
    "partName": "Kotda (Jadodar) - 4",
    "lat": 23.3762759,
    "lon": 69.198997
  },
  {
    "partId": 51223,
    "stateCode": "S06",
    "stateName": "Gujarat",
    "districtCode": "S0601",
    "districtName": "Kachchh",
    "acNumber": 1,
    "acName": "Abdasa",
    "partNumber": 254,
    "partName": "Kotda (Jadodar) - 5",
    "lat": 23.3762759,
    "lon": 69.198997
  },
  {
    "partId": 51224,
    "stateCode": "S06",
    "stateName": "Gujarat",
    "districtCode": "S0601",
    "districtName": "Kachchh",
    "acNumber": 1,
    "acName": "Abdasa",
    "partNumber": 255,
    "partName": "Mathal - 1",
    "lat": 23.583333,
    "lon": 70.0
  },
  {
    "partId": 51225,
    "stateCode": "S06",
    "stateName": "Gujarat",
    "districtCode": "S0601",
    "districtName": "Kachchh",
    "acNumber": 1,
    "acName": "Abdasa",
    "partNumber": 256,
    "partName": "Mathal - 2",
    "lat": 23.4085151,
    "lon": 69.1776466
  },
  {
    "partId": 51226,
    "stateCode": "S06",
    "stateName": "Gujarat",
    "districtCode": "S0601",
    "districtName": "Kachchh",
    "acNumber": 1,
    "acName": "Abdasa",
    "partNumber": 257,
    "partName": "Khambhla",
    "lat": 23.4050197,
    "lon": 69.2222035
  },
  {
    "partId": 51227,
    "stateCode": "S06",
    "stateName": "Gujarat",
    "districtCode": "S0601",
    "districtName": "Kachchh",
    "acNumber": 1,
    "acName": "Abdasa",
    "partNumber": 258,
    "partName": "Jinjay",
    "lat": 23.4697614,
    "lon": 69.1935038
  },
  {
    "partId": 51228,
    "stateCode": "S06",
    "stateName": "Gujarat",
    "districtCode": "S0601",
    "districtName": "Kachchh",
    "acNumber": 1,
    "acName": "Abdasa",
    "partNumber": 259,
    "partName": "Deshalpar (Guntali)",
    "lat": 23.257670349999998,
    "lon": 68.88546441419484
  },
  {
    "partId": 51229,
    "stateCode": "S06",
    "stateName": "Gujarat",
    "districtCode": "S0601",
    "districtName": "Kachchh",
    "acNumber": 1,
    "acName": "Abdasa",
    "partNumber": 260,
    "partName": "Ugedi",
    "lat": 23.464821,
    "lon": 69.1390657
  },
  {
    "partId": 51230,
    "stateCode": "S06",
    "stateName": "Gujarat",
    "districtCode": "S0601",
    "districtName": "Kachchh",
    "acNumber": 1,
    "acName": "Abdasa",
    "partNumber": 261,
    "partName": "Vigodi",
    "lat": 23.495697,
    "lon": 69.0862434
  },
  {
    "partId": 51231,
    "stateCode": "S06",
    "stateName": "Gujarat",
    "districtCode": "S0601",
    "districtName": "Kachchh",
    "acNumber": 1,
    "acName": "Abdasa",
    "partNumber": 262,
    "partName": "Ratadiya",
    "lat": 23.8504299,
    "lon": 69.7769847
  },
  {
    "partId": 51232,
    "stateCode": "S06",
    "stateName": "Gujarat",
    "districtCode": "S0601",
    "districtName": "Kachchh",
    "acNumber": 1,
    "acName": "Abdasa",
    "partNumber": 263,
    "partName": "Aiyar",
    "lat": 23.5785606,
    "lon": 69.1935897
  },
  {
    "partId": 51233,
    "stateCode": "S06",
    "stateName": "Gujarat",
    "districtCode": "S0601",
    "districtName": "Kachchh",
    "acNumber": 1,
    "acName": "Abdasa",
    "partNumber": 264,
    "partName": "Amara - 1",
    "lat": 23.5238845,
    "lon": 69.0639693
  },
  {
    "partId": 51234,
    "stateCode": "S06",
    "stateName": "Gujarat",
    "districtCode": "S0601",
    "districtName": "Kachchh",
    "acNumber": 1,
    "acName": "Abdasa",
    "partNumber": 265,
    "partName": "Amara - 2",
    "lat": 23.5209063,
    "lon": 69.057135
  },
  {
    "partId": 51235,
    "stateCode": "S06",
    "stateName": "Gujarat",
    "districtCode": "S0601",
    "districtName": "Kachchh",
    "acNumber": 1,
    "acName": "Abdasa",
    "partNumber": 266,
    "partName": "Muru",
    "lat": 23.5149152,
    "lon": 69.1425311
  },
  {
    "partId": 51236,
    "stateCode": "S06",
    "stateName": "Gujarat",
    "districtCode": "S0601",
    "districtName": "Kachchh",
    "acNumber": 1,
    "acName": "Abdasa",
    "partNumber": 267,
    "partName": "Dhoro",
    "lat": 23.257670349999998,
    "lon": 68.88546441419484
  },
  {
    "partId": 51237,
    "stateCode": "S06",
    "stateName": "Gujarat",
    "districtCode": "S0601",
    "districtName": "Kachchh",
    "acNumber": 1,
    "acName": "Abdasa",
    "partNumber": 268,
    "partName": "Vajiravandh",
    "lat": 23.583333,
    "lon": 70.0
  },
  {
    "partId": 51238,
    "stateCode": "S06",
    "stateName": "Gujarat",
    "districtCode": "S0601",
    "districtName": "Kachchh",
    "acNumber": 1,
    "acName": "Abdasa",
    "partNumber": 269,
    "partName": "Ludbay Athamani",
    "lat": 23.257670349999998,
    "lon": 68.88546441419484
  },
  {
    "partId": 51239,
    "stateCode": "S06",
    "stateName": "Gujarat",
    "districtCode": "S0601",
    "districtName": "Kachchh",
    "acNumber": 1,
    "acName": "Abdasa",
    "partNumber": 270,
    "partName": "Ludbay Ugmani",
    "lat": 23.257670349999998,
    "lon": 68.88546441419484
  },
  {
    "partId": 51240,
    "stateCode": "S06",
    "stateName": "Gujarat",
    "districtCode": "S0601",
    "districtName": "Kachchh",
    "acNumber": 1,
    "acName": "Abdasa",
    "partNumber": 271,
    "partName": "Dhamay",
    "lat": 23.4817229,
    "lon": 69.2187864
  },
  {
    "partId": 51241,
    "stateCode": "S06",
    "stateName": "Gujarat",
    "districtCode": "S0601",
    "districtName": "Kachchh",
    "acNumber": 1,
    "acName": "Abdasa",
    "partNumber": 272,
    "partName": "Jatavira",
    "lat": 23.4658199,
    "lon": 69.2560691
  },
  {
    "partId": 51242,
    "stateCode": "S06",
    "stateName": "Gujarat",
    "districtCode": "S0601",
    "districtName": "Kachchh",
    "acNumber": 1,
    "acName": "Abdasa",
    "partNumber": 273,
    "partName": "Fulay",
    "lat": 23.3903911,
    "lon": 69.8117025
  },
  {
    "partId": 51243,
    "stateCode": "S06",
    "stateName": "Gujarat",
    "districtCode": "S0601",
    "districtName": "Kachchh",
    "acNumber": 1,
    "acName": "Abdasa",
    "partNumber": 274,
    "partName": "Vedhar Moti",
    "lat": 23.257670349999998,
    "lon": 68.88546441419484
  },
  {
    "partId": 51244,
    "stateCode": "S06",
    "stateName": "Gujarat",
    "districtCode": "S0601",
    "districtName": "Kachchh",
    "acNumber": 1,
    "acName": "Abdasa",
    "partNumber": 275,
    "partName": "Paiya - 1",
    "lat": 23.2422531,
    "lon": 69.8239516
  },
  {
    "partId": 51245,
    "stateCode": "S06",
    "stateName": "Gujarat",
    "districtCode": "S0601",
    "districtName": "Kachchh",
    "acNumber": 1,
    "acName": "Abdasa",
    "partNumber": 276,
    "partName": "Motichur",
    "lat": 23.583333,
    "lon": 70.0
  },
  {
    "partId": 51246,
    "stateCode": "S06",
    "stateName": "Gujarat",
    "districtCode": "S0601",
    "districtName": "Kachchh",
    "acNumber": 1,
    "acName": "Abdasa",
    "partNumber": 277,
    "partName": "Tal",
    "lat": 23.5147479,
    "lon": 69.2483389
  },
  {
    "partId": 51247,
    "stateCode": "S06",
    "stateName": "Gujarat",
    "districtCode": "S0601",
    "districtName": "Kachchh",
    "acNumber": 1,
    "acName": "Abdasa",
    "partNumber": 278,
    "partName": "Gechda",
    "lat": 23.257670349999998,
    "lon": 68.88546441419484
  },
  {
    "partId": 51248,
    "stateCode": "S06",
    "stateName": "Gujarat",
    "districtCode": "S0601",
    "districtName": "Kachchh",
    "acNumber": 1,
    "acName": "Abdasa",
    "partNumber": 279,
    "partName": "Laiyari",
    "lat": 23.583333,
    "lon": 70.0
  },
  {
    "partId": 51249,
    "stateCode": "S06",
    "stateName": "Gujarat",
    "districtCode": "S0601",
    "districtName": "Kachchh",
    "acNumber": 1,
    "acName": "Abdasa",
    "partNumber": 280,
    "partName": "Dador",
    "lat": 23.583333,
    "lon": 70.0
  },
  {
    "partId": 51250,
    "stateCode": "S06",
    "stateName": "Gujarat",
    "districtCode": "S0601",
    "districtName": "Kachchh",
    "acNumber": 1,
    "acName": "Abdasa",
    "partNumber": 281,
    "partName": "Jalu",
    "lat": 23.5014464,
    "lon": 69.3419266
  },
  {
    "partId": 51251,
    "stateCode": "S06",
    "stateName": "Gujarat",
    "districtCode": "S0601",
    "districtName": "Kachchh",
    "acNumber": 1,
    "acName": "Abdasa",
    "partNumber": 282,
    "partName": "Kharadiya",
    "lat": 23.4859247,
    "lon": 69.4267595
  },
  {
    "partId": 51252,
    "stateCode": "S06",
    "stateName": "Gujarat",
    "districtCode": "S0601",
    "districtName": "Kachchh",
    "acNumber": 1,
    "acName": "Abdasa",
    "partNumber": 283,
    "partName": "Godhiyar Nani",
    "lat": 23.257670349999998,
    "lon": 68.88546441419484
  },
  {
    "partId": 51253,
    "stateCode": "S06",
    "stateName": "Gujarat",
    "districtCode": "S0601",
    "districtName": "Kachchh",
    "acNumber": 1,
    "acName": "Abdasa",
    "partNumber": 284,
    "partName": "Vang - 1",
    "lat": 23.5030747,
    "lon": 69.4228756
  },
  {
    "partId": 51254,
    "stateCode": "S06",
    "stateName": "Gujarat",
    "districtCode": "S0601",
    "districtName": "Kachchh",
    "acNumber": 1,
    "acName": "Abdasa",
    "partNumber": 285,
    "partName": "Vang - 2",
    "lat": 23.5030747,
    "lon": 69.4228756
  },
  {
    "partId": 51255,
    "stateCode": "S06",
    "stateName": "Gujarat",
    "districtCode": "S0601",
    "districtName": "Kachchh",
    "acNumber": 1,
    "acName": "Abdasa",
    "partNumber": 286,
    "partName": "Bibar - 1",
    "lat": 23.257670349999998,
    "lon": 68.88546441419484
  },
  {
    "partId": 51256,
    "stateCode": "S06",
    "stateName": "Gujarat",
    "districtCode": "S0601",
    "districtName": "Kachchh",
    "acNumber": 1,
    "acName": "Abdasa",
    "partNumber": 287,
    "partName": "Bibar - 2",
    "lat": 23.257670349999998,
    "lon": 68.88546441419484
  },
  {
    "partId": 51257,
    "stateCode": "S06",
    "stateName": "Gujarat",
    "districtCode": "S0601",
    "districtName": "Kachchh",
    "acNumber": 1,
    "acName": "Abdasa",
    "partNumber": 288,
    "partName": "Nirona - 1",
    "lat": 23.4497891,
    "lon": 69.5128905
  },
  {
    "partId": 51258,
    "stateCode": "S06",
    "stateName": "Gujarat",
    "districtCode": "S0601",
    "districtName": "Kachchh",
    "acNumber": 1,
    "acName": "Abdasa",
    "partNumber": 289,
    "partName": "Nirona - 2",
    "lat": 23.4497891,
    "lon": 69.5128905
  },
  {
    "partId": 51259,
    "stateCode": "S06",
    "stateName": "Gujarat",
    "districtCode": "S0601",
    "districtName": "Kachchh",
    "acNumber": 1,
    "acName": "Abdasa",
    "partNumber": 290,
    "partName": "Nirona - 3",
    "lat": 23.4497891,
    "lon": 69.5128905
  },
  {
    "partId": 51260,
    "stateCode": "S06",
    "stateName": "Gujarat",
    "districtCode": "S0601",
    "districtName": "Kachchh",
    "acNumber": 1,
    "acName": "Abdasa",
    "partNumber": 291,
    "partName": "Nirona - 4",
    "lat": 23.4497891,
    "lon": 69.5128905
  },
  {
    "partId": 51261,
    "stateCode": "S06",
    "stateName": "Gujarat",
    "districtCode": "S0601",
    "districtName": "Kachchh",
    "acNumber": 1,
    "acName": "Abdasa",
    "partNumber": 292,
    "partName": "Nirona - 5",
    "lat": 23.4497891,
    "lon": 69.5128905
  },
  {
    "partId": 51262,
    "stateCode": "S06",
    "stateName": "Gujarat",
    "districtCode": "S0601",
    "districtName": "Kachchh",
    "acNumber": 1,
    "acName": "Abdasa",
    "partNumber": 293,
    "partName": "Vedhar",
    "lat": 23.4393038,
    "lon": 69.4990083
  },
  {
    "partId": 51263,
    "stateCode": "S06",
    "stateName": "Gujarat",
    "districtCode": "S0601",
    "districtName": "Kachchh",
    "acNumber": 1,
    "acName": "Abdasa",
    "partNumber": 294,
    "partName": "Medisar",
    "lat": 23.4069889,
    "lon": 69.4941902
  },
  {
    "partId": 51264,
    "stateCode": "S06",
    "stateName": "Gujarat",
    "districtCode": "S0601",
    "districtName": "Kachchh",
    "acNumber": 1,
    "acName": "Abdasa",
    "partNumber": 295,
    "partName": "Palanpur (Badi)",
    "lat": 23.583333,
    "lon": 70.0
  },
  {
    "partId": 51265,
    "stateCode": "S06",
    "stateName": "Gujarat",
    "districtCode": "S0601",
    "districtName": "Kachchh",
    "acNumber": 1,
    "acName": "Abdasa",
    "partNumber": 296,
    "partName": "Hirapar",
    "lat": 23.583333,
    "lon": 70.0
  },
  {
    "partId": 51266,
    "stateCode": "S06",
    "stateName": "Gujarat",
    "districtCode": "S0601",
    "districtName": "Kachchh",
    "acNumber": 1,
    "acName": "Abdasa",
    "partNumber": 297,
    "partName": "Chandranagar",
    "lat": 23.583333,
    "lon": 70.0
  },
  {
    "partId": 51267,
    "stateCode": "S06",
    "stateName": "Gujarat",
    "districtCode": "S0601",
    "districtName": "Kachchh",
    "acNumber": 1,
    "acName": "Abdasa",
    "partNumber": 298,
    "partName": "Godhiyar Moti",
    "lat": 23.257670349999998,
    "lon": 68.88546441419484
  },
  {
    "partId": 51268,
    "stateCode": "S06",
    "stateName": "Gujarat",
    "districtCode": "S0601",
    "districtName": "Kachchh",
    "acNumber": 1,
    "acName": "Abdasa",
    "partNumber": 299,
    "partName": "Devisar",
    "lat": 23.3538398,
    "lon": 70.1299381
  },
  {
    "partId": 51269,
    "stateCode": "S06",
    "stateName": "Gujarat",
    "districtCode": "S0601",
    "districtName": "Kachchh",
    "acNumber": 1,
    "acName": "Abdasa",
    "partNumber": 300,
    "partName": "Lakhiyarvira",
    "lat": 23.3801363,
    "lon": 69.344759
  },
  {
    "partId": 51270,
    "stateCode": "S06",
    "stateName": "Gujarat",
    "districtCode": "S0601",
    "districtName": "Kachchh",
    "acNumber": 1,
    "acName": "Abdasa",
    "partNumber": 301,
    "partName": "Aral Nani",
    "lat": 23.4280378,
    "lon": 69.3053842
  },
  {
    "partId": 51271,
    "stateCode": "S06",
    "stateName": "Gujarat",
    "districtCode": "S0601",
    "districtName": "Kachchh",
    "acNumber": 1,
    "acName": "Abdasa",
    "partNumber": 302,
    "partName": "Virani Moti - 1",
    "lat": 23.3814166,
    "lon": 69.2690134
  },
  {
    "partId": 51272,
    "stateCode": "S06",
    "stateName": "Gujarat",
    "districtCode": "S0601",
    "districtName": "Kachchh",
    "acNumber": 1,
    "acName": "Abdasa",
    "partNumber": 303,
    "partName": "Virani Moti - 2",
    "lat": 23.3814166,
    "lon": 69.2690134
  },
  {
    "partId": 51273,
    "stateCode": "S06",
    "stateName": "Gujarat",
    "districtCode": "S0601",
    "districtName": "Kachchh",
    "acNumber": 1,
    "acName": "Abdasa",
    "partNumber": 304,
    "partName": "Virani Moti - 3",
    "lat": 23.3814166,
    "lon": 69.2690134
  },
  {
    "partId": 51274,
    "stateCode": "S06",
    "stateName": "Gujarat",
    "districtCode": "S0601",
    "districtName": "Kachchh",
    "acNumber": 1,
    "acName": "Abdasa",
    "partNumber": 305,
    "partName": "Virani Moti - 4",
    "lat": 23.3814166,
    "lon": 69.2690134
  },
  {
    "partId": 51275,
    "stateCode": "S06",
    "stateName": "Gujarat",
    "districtCode": "S0601",
    "districtName": "Kachchh",
    "acNumber": 1,
    "acName": "Abdasa",
    "partNumber": 306,
    "partName": "Virani Nani",
    "lat": 23.3705441,
    "lon": 69.2605805
  },
  {
    "partId": 51276,
    "stateCode": "S06",
    "stateName": "Gujarat",
    "districtCode": "S0601",
    "districtName": "Kachchh",
    "acNumber": 1,
    "acName": "Abdasa",
    "partNumber": 307,
    "partName": "Nakhatrana - 1",
    "lat": 23.3307645,
    "lon": 69.2094737
  },
  {
    "partId": 51277,
    "stateCode": "S06",
    "stateName": "Gujarat",
    "districtCode": "S0601",
    "districtName": "Kachchh",
    "acNumber": 1,
    "acName": "Abdasa",
    "partNumber": 308,
    "partName": "Nakhatrana - 2",
    "lat": 23.3307645,
    "lon": 69.2094737
  },
  {
    "partId": 51278,
    "stateCode": "S06",
    "stateName": "Gujarat",
    "districtCode": "S0601",
    "districtName": "Kachchh",
    "acNumber": 1,
    "acName": "Abdasa",
    "partNumber": 309,
    "partName": "Nakhatrana - 3",
    "lat": 23.3307645,
    "lon": 69.2094737
  },
  {
    "partId": 51279,
    "stateCode": "S06",
    "stateName": "Gujarat",
    "districtCode": "S0601",
    "districtName": "Kachchh",
    "acNumber": 1,
    "acName": "Abdasa",
    "partNumber": 310,
    "partName": "Nakhatrana - 4",
    "lat": 23.3307645,
    "lon": 69.2094737
  },
  {
    "partId": 51280,
    "stateCode": "S06",
    "stateName": "Gujarat",
    "districtCode": "S0601",
    "districtName": "Kachchh",
    "acNumber": 1,
    "acName": "Abdasa",
    "partNumber": 311,
    "partName": "Nakhatrana - 5",
    "lat": 23.3307645,
    "lon": 69.2094737
  },
  {
    "partId": 51281,
    "stateCode": "S06",
    "stateName": "Gujarat",
    "districtCode": "S0601",
    "districtName": "Kachchh",
    "acNumber": 1,
    "acName": "Abdasa",
    "partNumber": 312,
    "partName": "Nakhatrana - 6",
    "lat": 23.3307645,
    "lon": 69.2094737
  },
  {
    "partId": 51282,
    "stateCode": "S06",
    "stateName": "Gujarat",
    "districtCode": "S0601",
    "districtName": "Kachchh",
    "acNumber": 1,
    "acName": "Abdasa",
    "partNumber": 313,
    "partName": "Nakhatrana - 7",
    "lat": 23.3307645,
    "lon": 69.2094737
  },
  {
    "partId": 51283,
    "stateCode": "S06",
    "stateName": "Gujarat",
    "districtCode": "S0601",
    "districtName": "Kachchh",
    "acNumber": 1,
    "acName": "Abdasa",
    "partNumber": 314,
    "partName": "Nakhatrana - 8",
    "lat": 23.583333,
    "lon": 70.0
  },
  {
    "partId": 51284,
    "stateCode": "S06",
    "stateName": "Gujarat",
    "districtCode": "S0601",
    "districtName": "Kachchh",
    "acNumber": 1,
    "acName": "Abdasa",
    "partNumber": 315,
    "partName": "Nakhatrana - 9",
    "lat": 23.583333,
    "lon": 70.0
  },
  {
    "partId": 51285,
    "stateCode": "S06",
    "stateName": "Gujarat",
    "districtCode": "S0601",
    "districtName": "Kachchh",
    "acNumber": 1,
    "acName": "Abdasa",
    "partNumber": 316,
    "partName": "Nakhatrana - 10",
    "lat": 23.3307645,
    "lon": 69.2094737
  },
  {
    "partId": 51286,
    "stateCode": "S06",
    "stateName": "Gujarat",
    "districtCode": "S0601",
    "districtName": "Kachchh",
    "acNumber": 1,
    "acName": "Abdasa",
    "partNumber": 317,
    "partName": "Nakhatrana - 11",
    "lat": 23.3307645,
    "lon": 69.2094737
  },
  {
    "partId": 51287,
    "stateCode": "S06",
    "stateName": "Gujarat",
    "districtCode": "S0601",
    "districtName": "Kachchh",
    "acNumber": 1,
    "acName": "Abdasa",
    "partNumber": 318,
    "partName": "Nakhatrana - 12",
    "lat": 23.583333,
    "lon": 70.0
  },
  {
    "partId": 51288,
    "stateCode": "S06",
    "stateName": "Gujarat",
    "districtCode": "S0601",
    "districtName": "Kachchh",
    "acNumber": 1,
    "acName": "Abdasa",
    "partNumber": 319,
    "partName": "Nakhatrana - 13",
    "lat": 23.3307645,
    "lon": 69.2094737
  },
  {
    "partId": 51289,
    "stateCode": "S06",
    "stateName": "Gujarat",
    "districtCode": "S0601",
    "districtName": "Kachchh",
    "acNumber": 1,
    "acName": "Abdasa",
    "partNumber": 320,
    "partName": "Nakhatrana - 14",
    "lat": 23.3307645,
    "lon": 69.2094737
  },
  {
    "partId": 51290,
    "stateCode": "S06",
    "stateName": "Gujarat",
    "districtCode": "S0601",
    "districtName": "Kachchh",
    "acNumber": 1,
    "acName": "Abdasa",
    "partNumber": 321,
    "partName": "Nakhatrana - 15",
    "lat": 23.3307645,
    "lon": 69.2094737
  },
  {
    "partId": 51291,
    "stateCode": "S06",
    "stateName": "Gujarat",
    "districtCode": "S0601",
    "districtName": "Kachchh",
    "acNumber": 1,
    "acName": "Abdasa",
    "partNumber": 322,
    "partName": "Vyar",
    "lat": 23.257670349999998,
    "lon": 68.88546441419484
  },
  {
    "partId": 51292,
    "stateCode": "S06",
    "stateName": "Gujarat",
    "districtCode": "S0601",
    "districtName": "Kachchh",
    "acNumber": 1,
    "acName": "Abdasa",
    "partNumber": 323,
    "partName": "Nana Nakhatrana",
    "lat": 23.5447894,
    "lon": 69.272216
  },
  {
    "partId": 51293,
    "stateCode": "S06",
    "stateName": "Gujarat",
    "districtCode": "S0601",
    "districtName": "Kachchh",
    "acNumber": 1,
    "acName": "Abdasa",
    "partNumber": 324,
    "partName": "Ganesh Nagar",
    "lat": 23.2382309,
    "lon": 69.6479237
  },
  {
    "partId": 51294,
    "stateCode": "S06",
    "stateName": "Gujarat",
    "districtCode": "S0601",
    "districtName": "Kachchh",
    "acNumber": 1,
    "acName": "Abdasa",
    "partNumber": 325,
    "partName": "Beru",
    "lat": 23.2986395,
    "lon": 69.2607307
  },
  {
    "partId": 51295,
    "stateCode": "S06",
    "stateName": "Gujarat",
    "districtCode": "S0601",
    "districtName": "Kachchh",
    "acNumber": 1,
    "acName": "Abdasa",
    "partNumber": 326,
    "partName": "Rampar (Roha) - 1",
    "lat": 23.2681577,
    "lon": 69.2142105
  },
  {
    "partId": 51296,
    "stateCode": "S06",
    "stateName": "Gujarat",
    "districtCode": "S0601",
    "districtName": "Kachchh",
    "acNumber": 1,
    "acName": "Abdasa",
    "partNumber": 327,
    "partName": "Rampar (Roha) - 2",
    "lat": 23.2681577,
    "lon": 69.2142105
  },
  {
    "partId": 51297,
    "stateCode": "S06",
    "stateName": "Gujarat",
    "districtCode": "S0601",
    "districtName": "Kachchh",
    "acNumber": 1,
    "acName": "Abdasa",
    "partNumber": 328,
    "partName": "Nana Angiya - 1",
    "lat": 23.3044237,
    "lon": 69.2863082
  },
  {
    "partId": 51298,
    "stateCode": "S06",
    "stateName": "Gujarat",
    "districtCode": "S0601",
    "districtName": "Kachchh",
    "acNumber": 1,
    "acName": "Abdasa",
    "partNumber": 329,
    "partName": "Nana Angiya - 2",
    "lat": 23.3044237,
    "lon": 69.2863082
  },
  {
    "partId": 51299,
    "stateCode": "S06",
    "stateName": "Gujarat",
    "districtCode": "S0601",
    "districtName": "Kachchh",
    "acNumber": 1,
    "acName": "Abdasa",
    "partNumber": 330,
    "partName": "Nagalpar",
    "lat": 23.257670349999998,
    "lon": 68.88546441419484
  },
  {
    "partId": 51300,
    "stateCode": "S06",
    "stateName": "Gujarat",
    "districtCode": "S0601",
    "districtName": "Kachchh",
    "acNumber": 1,
    "acName": "Abdasa",
    "partNumber": 331,
    "partName": "Chavadka",
    "lat": 23.583333,
    "lon": 70.0
  },
  {
    "partId": 51301,
    "stateCode": "S06",
    "stateName": "Gujarat",
    "districtCode": "S0601",
    "districtName": "Kachchh",
    "acNumber": 1,
    "acName": "Abdasa",
    "partNumber": 332,
    "partName": "Tharavda",
    "lat": 23.257670349999998,
    "lon": 68.88546441419484
  },
  {
    "partId": 51302,
    "stateCode": "S06",
    "stateName": "Gujarat",
    "districtCode": "S0601",
    "districtName": "Kachchh",
    "acNumber": 1,
    "acName": "Abdasa",
    "partNumber": 333,
    "partName": "Vithon - 1",
    "lat": 23.3206367,
    "lon": 69.3482137
  },
  {
    "partId": 51303,
    "stateCode": "S06",
    "stateName": "Gujarat",
    "districtCode": "S0601",
    "districtName": "Kachchh",
    "acNumber": 1,
    "acName": "Abdasa",
    "partNumber": 334,
    "partName": "Vithon - 2",
    "lat": 23.3206367,
    "lon": 69.3482137
  },
  {
    "partId": 51304,
    "stateCode": "S06",
    "stateName": "Gujarat",
    "districtCode": "S0601",
    "districtName": "Kachchh",
    "acNumber": 1,
    "acName": "Abdasa",
    "partNumber": 335,
    "partName": "Vithon - 3",
    "lat": 23.583333,
    "lon": 70.0
  },
  {
    "partId": 51305,
    "stateCode": "S06",
    "stateName": "Gujarat",
    "districtCode": "S0601",
    "districtName": "Kachchh",
    "acNumber": 1,
    "acName": "Abdasa",
    "partNumber": 336,
    "partName": "Vithon - 4",
    "lat": 23.3206367,
    "lon": 69.3482137
  },
  {
    "partId": 51306,
    "stateCode": "S06",
    "stateName": "Gujarat",
    "districtCode": "S0601",
    "districtName": "Kachchh",
    "acNumber": 1,
    "acName": "Abdasa",
    "partNumber": 337,
    "partName": "Anandsar (V)",
    "lat": 23.2240624,
    "lon": 69.4251237
  },
  {
    "partId": 51307,
    "stateCode": "S06",
    "stateName": "Gujarat",
    "districtCode": "S0601",
    "districtName": "Kachchh",
    "acNumber": 1,
    "acName": "Abdasa",
    "partNumber": 338,
    "partName": "Dhavda Mota - 1",
    "lat": 23.3179026,
    "lon": 69.3205333
  },
  {
    "partId": 51308,
    "stateCode": "S06",
    "stateName": "Gujarat",
    "districtCode": "S0601",
    "districtName": "Kachchh",
    "acNumber": 1,
    "acName": "Abdasa",
    "partNumber": 339,
    "partName": "Dhavda Mota - 2",
    "lat": 23.3179026,
    "lon": 69.3205333
  },
  {
    "partId": 51309,
    "stateCode": "S06",
    "stateName": "Gujarat",
    "districtCode": "S0601",
    "districtName": "Kachchh",
    "acNumber": 1,
    "acName": "Abdasa",
    "partNumber": 340,
    "partName": "Angiya Mota",
    "lat": 23.583333,
    "lon": 70.0
  },
  {
    "partId": 51310,
    "stateCode": "S06",
    "stateName": "Gujarat",
    "districtCode": "S0601",
    "districtName": "Kachchh",
    "acNumber": 1,
    "acName": "Abdasa",
    "partNumber": 341,
    "partName": "Sanganara",
    "lat": 23.257670349999998,
    "lon": 68.88546441419484
  },
  {
    "partId": 51311,
    "stateCode": "S06",
    "stateName": "Gujarat",
    "districtCode": "S0601",
    "districtName": "Kachchh",
    "acNumber": 1,
    "acName": "Abdasa",
    "partNumber": 342,
    "partName": "Devpar - 1",
    "lat": 23.3070447,
    "lon": 69.342463
  },
  {
    "partId": 51312,
    "stateCode": "S06",
    "stateName": "Gujarat",
    "districtCode": "S0601",
    "districtName": "Kachchh",
    "acNumber": 1,
    "acName": "Abdasa",
    "partNumber": 343,
    "partName": "Devpar - 2",
    "lat": 23.3070447,
    "lon": 69.342463
  },
  {
    "partId": 51313,
    "stateCode": "S06",
    "stateName": "Gujarat",
    "districtCode": "S0601",
    "districtName": "Kachchh",
    "acNumber": 1,
    "acName": "Abdasa",
    "partNumber": 344,
    "partName": "Devpar - 3",
    "lat": 23.583333,
    "lon": 70.0
  },
  {
    "partId": 51314,
    "stateCode": "S06",
    "stateName": "Gujarat",
    "districtCode": "S0601",
    "districtName": "Kachchh",
    "acNumber": 1,
    "acName": "Abdasa",
    "partNumber": 345,
    "partName": "Bhadali",
    "lat": 23.257670349999998,
    "lon": 68.88546441419484
  },
  {
    "partId": 51315,
    "stateCode": "S06",
    "stateName": "Gujarat",
    "districtCode": "S0601",
    "districtName": "Kachchh",
    "acNumber": 1,
    "acName": "Abdasa",
    "partNumber": 346,
    "partName": "Sanyara - 1",
    "lat": 23.1887667,
    "lon": 68.9167199
  },
  {
    "partId": 51316,
    "stateCode": "S06",
    "stateName": "Gujarat",
    "districtCode": "S0601",
    "districtName": "Kachchh",
    "acNumber": 1,
    "acName": "Abdasa",
    "partNumber": 347,
    "partName": "Sanyara - 2",
    "lat": 23.1887667,
    "lon": 68.9167199
  },
  {
    "partId": 51317,
    "stateCode": "S06",
    "stateName": "Gujarat",
    "districtCode": "S0601",
    "districtName": "Kachchh",
    "acNumber": 1,
    "acName": "Abdasa",
    "partNumber": 348,
    "partName": "Anandapar (Yaksh)",
    "lat": 23.257670349999998,
    "lon": 68.88546441419484
  },
  {
    "partId": 51318,
    "stateCode": "S06",
    "stateName": "Gujarat",
    "districtCode": "S0601",
    "districtName": "Kachchh",
    "acNumber": 1,
    "acName": "Abdasa",
    "partNumber": 349,
    "partName": "Morgar",
    "lat": 23.3408768,
    "lon": 70.2067136
  },