[
  {
    "partId": 841,
    "stateCode": "S14",
    "stateName": "Manipur",
    "districtCode": "S1405",
    "districtName": "Chandel",
    "acNumber": 41,
    "acName": "Chandel",
    "partNumber": 1,
    "partName": "Purum Pantha",
    "lat": 24.3312009,
    "lon": 94.0011081
  },
  {
    "partId": 549,
    "stateCode": "S14",
    "stateName": "Manipur",
    "districtCode": "S1405",
    "districtName": "Chandel",
    "acNumber": 41,
    "acName": "Chandel",
    "partNumber": 2,
    "partName": "Purum Khullen",
    "lat": 24.425121,
    "lon": 93.9500479
  },
  {
    "partId": 677,
    "stateCode": "S14",
    "stateName": "Manipur",
    "districtCode": "S1405",
    "districtName": "Chandel",
    "acNumber": 41,
    "acName": "Chandel",
    "partNumber": 3,
    "partName": "Wangparal",
    "lat": 24.3312009,
    "lon": 94.0011081
  },
  {
    "partId": 842,
    "stateCode": "S14",
    "stateName": "Manipur",
    "districtCode": "S1405",
    "districtName": "Chandel",
    "acNumber": 41,
    "acName": "Chandel",
    "partNumber": 4,
    "partName": "Salemthar",
    "lat": 24.3312009,
    "lon": 94.0011081
  },
  {
    "partId": 843,
    "stateCode": "S14",
    "stateName": "Manipur",
    "districtCode": "S1405",
    "districtName": "Chandel",
    "acNumber": 41,
    "acName": "Chandel",
    "partNumber": 5,
    "partName": "Thamlapokpi",
    "lat": 24.3312009,
    "lon": 94.0011081
  },
  {
    "partId": 844,
    "stateCode": "S14",
    "stateName": "Manipur",
    "districtCode": "S1405",
    "districtName": "Chandel",
    "acNumber": 41,
    "acName": "Chandel",
    "partNumber": 6,
    "partName": "Heigru Tampak",
    "lat": 24.3312009,
    "lon": 94.0011081
  },
  {
    "partId": 885,
    "stateCode": "S14",
    "stateName": "Manipur",
    "districtCode": "S1405",
    "districtName": "Chandel",
    "acNumber": 41,
    "acName": "Chandel",
    "partNumber": 7,
    "partName": "Leipung Tampak",
    "lat": 24.3312009,
    "lon": 94.0011081
  },
  {
    "partId": 845,
    "stateCode": "S14",
    "stateName": "Manipur",
    "districtCode": "S1405",
    "districtName": "Chandel",
    "acNumber": 41,
    "acName": "Chandel",
    "partNumber": 8,
    "partName": "Thamla Khuren",
    "lat": 24.3312009,
    "lon": 94.0011081
  },
  {
    "partId": 846,
    "stateCode": "S14",
    "stateName": "Manipur",
    "districtCode": "S1405",
    "districtName": "Chandel",
    "acNumber": 41,
    "acName": "Chandel",
    "partNumber": 9,
    "partName": "Lamkang Khunou",
    "lat": 24.3312009,
    "lon": 94.0011081
  },
  {
    "partId": 847,
    "stateCode": "S14",
    "stateName": "Manipur",
    "districtCode": "S1405",
    "districtName": "Chandel",
    "acNumber": 41,
    "acName": "Chandel",
    "partNumber": 10,
    "partName": "Betuk Shangreng",
    "lat": 24.3312009,
    "lon": 94.0011081
  },
  {
    "partId": 848,
    "stateCode": "S14",
    "stateName": "Manipur",
    "districtCode": "S1405",
    "districtName": "Chandel",
    "acNumber": 41,
    "acName": "Chandel",
    "partNumber": 11,
    "partName": "Mitong",
    "lat": 24.3312009,
    "lon": 94.0011081
  },
  {
    "partId": 849,
    "stateCode": "S14",
    "stateName": "Manipur",
    "districtCode": "S1405",
    "districtName": "Chandel",
    "acNumber": 41,
    "acName": "Chandel",
    "partNumber": 12,
    "partName": "Tarao Laimanai",
    "lat": 24.3312009,
    "lon": 94.0011081
  },
  {
    "partId": 850,
    "stateCode": "S14",
    "stateName": "Manipur",
    "districtCode": "S1405",
    "districtName": "Chandel",
    "acNumber": 41,
    "acName": "Chandel",
    "partNumber": 13,
    "partName": "Liwa Sarei",
    "lat": 24.366282,
    "lon": 94.0169897
  },
  {
    "partId": 851,
    "stateCode": "S14",
    "stateName": "Manipur",
    "districtCode": "S1405",
    "districtName": "Chandel",
    "acNumber": 41,
    "acName": "Chandel",
    "partNumber": 14,
    "partName": "New Chayang",
    "lat": 24.3312009,
    "lon": 94.0011081
  },
  {
    "partId": 184,
    "stateCode": "S14",
    "stateName": "Manipur",
    "districtCode": "S1405",
    "districtName": "Chandel",
    "acNumber": 41,
    "acName": "Chandel",
    "partNumber": 15,
    "partName": "Aihang",
    "lat": 24.3312009,
    "lon": 94.0011081
  },
  {
    "partId": 852,
    "stateCode": "S14",
    "stateName": "Manipur",
    "districtCode": "S1405",
    "districtName": "Chandel",
    "acNumber": 41,
    "acName": "Chandel",
    "partNumber": 16,
    "partName": "Charangching Khullen",
    "lat": 24.3312009,
    "lon": 94.0011081
  },
  {
    "partId": 542,
    "stateCode": "S14",
    "stateName": "Manipur",
    "districtCode": "S1405",
    "districtName": "Chandel",
    "acNumber": 41,
    "acName": "Chandel",
    "partNumber": 17,
    "partName": "Japhou Bazar Part-I(A)",
    "lat": 24.3312009,
    "lon": 94.0011081
  },
  {
    "partId": 2347,
    "stateCode": "S14",
    "stateName": "Manipur",
    "districtCode": "S1405",
    "districtName": "Chandel",
    "acNumber": 41,
    "acName": "Chandel",
    "partNumber": 18,
    "partName": "Japhou Bazar Part-I(C)",
    "lat": 24.3312009,
    "lon": 94.0011081
  },
  {
    "partId": 639,
    "stateCode": "S14",
    "stateName": "Manipur",
    "districtCode": "S1405",
    "districtName": "Chandel",
    "acNumber": 41,
    "acName": "Chandel",
    "partNumber": 19,
    "partName": "Japhou Bazar Part-I(B)",
    "lat": 24.3312009,
    "lon": 94.0011081
  },
  {
    "partId": 2441,
    "stateCode": "S14",
    "stateName": "Manipur",
    "districtCode": "S1405",
    "districtName": "Chandel",
    "acNumber": 41,
    "acName": "Chandel",
    "partNumber": 20,
    "partName": "Kanankhu",
    "lat": 24.3312009,
    "lon": 94.0011081
  },
  {
    "partId": 668,
    "stateCode": "S14",
    "stateName": "Manipur",
    "districtCode": "S1405",
    "districtName": "Chandel",
    "acNumber": 41,
    "acName": "Chandel",
    "partNumber": 21,
    "partName": "Chengkhu(Hongbiban)",
    "lat": 24.3312009,
    "lon": 94.0011081
  },
  {
    "partId": 2863,
    "stateCode": "S14",
    "stateName": "Manipur",
    "districtCode": "S1405",
    "districtName": "Chandel",
    "acNumber": 41,
    "acName": "Chandel",
    "partNumber": 22,
    "partName": "Angkhel Chayang",
    "lat": 24.3312009,
    "lon": 94.0011081
  },
  {
    "partId": 698,
    "stateCode": "S14",
    "stateName": "Manipur",
    "districtCode": "S1405",
    "districtName": "Chandel",
    "acNumber": 41,
    "acName": "Chandel",
    "partNumber": 23,
    "partName": "Monsang Pantha",
    "lat": 24.3312009,
    "lon": 94.0011081
  },
  {
    "partId": 2877,
    "stateCode": "S14",
    "stateName": "Manipur",
    "districtCode": "S1405",
    "districtName": "Chandel",
    "acNumber": 41,
    "acName": "Chandel",
    "partNumber": 24,
    "partName": "Japhou",
    "lat": 24.3312009,
    "lon": 94.0011081
  },
  {
    "partId": 2820,
    "stateCode": "S14",
    "stateName": "Manipur",
    "districtCode": "S1405",
    "districtName": "Chandel",
    "acNumber": 41,
    "acName": "Chandel",
    "partNumber": 25,
    "partName": "Khongjon",
    "lat": 24.3312009,
    "lon": 94.0011081
  },
  {
    "partId": 2853,
    "stateCode": "S14",
    "stateName": "Manipur",
    "districtCode": "S1405",
    "districtName": "Chandel",
    "acNumber": 41,
    "acName": "Chandel",
    "partNumber": 26,
    "partName": "Mantri Pantha",
    "lat": 24.3312009,
    "lon": 94.0011081
  },
  {
    "partId": 2952,
    "stateCode": "S14",
    "stateName": "Manipur",
    "districtCode": "S1405",
    "districtName": "Chandel",
    "acNumber": 41,
    "acName": "Chandel",
    "partNumber": 27,
    "partName": "Lambung",
    "lat": 24.3312009,
    "lon": 94.0011081
  },
  {
    "partId": 53,
    "stateCode": "S14",
    "stateName": "Manipur",
    "districtCode": "S1405",
    "districtName": "Chandel",
    "acNumber": 41,
    "acName": "Chandel",
    "partNumber": 28,
    "partName": "Chandel Christian",
    "lat": 24.3312009,
    "lon": 94.0011081
  },
  {
    "partId": 128,
    "stateCode": "S14",
    "stateName": "Manipur",
    "districtCode": "S1405",
    "districtName": "Chandel",
    "acNumber": 41,
    "acName": "Chandel",
    "partNumber": 29,
    "partName": "Modi",
    "lat": 24.3312009,
    "lon": 94.0011081
  },
  {
    "partId": 129,
    "stateCode": "S14",
    "stateName": "Manipur",
    "districtCode": "S1405",
    "districtName": "Chandel",
    "acNumber": 41,
    "acName": "Chandel",
    "partNumber": 30,
    "partName": "Hnatham",
    "lat": 24.3312009,
    "lon": 94.0011081
  },
  {
    "partId": 2878,
    "stateCode": "S14",
    "stateName": "Manipur",
    "districtCode": "S1405",
    "districtName": "Chandel",
    "acNumber": 41,
    "acName": "Chandel",
    "partNumber": 31,
    "partName": "Mahoutera",
    "lat": 24.3312009,
    "lon": 94.0011081
  },
  {
    "partId": 740,
    "stateCode": "S14",
    "stateName": "Manipur",
    "districtCode": "S1405",
    "districtName": "Chandel",
    "acNumber": 41,
    "acName": "Chandel",
    "partNumber": 32,
    "partName": "Tonsen",
    "lat": 24.3312009,
    "lon": 94.0011081
  },
  {
    "partId": 2910,
    "stateCode": "S14",
    "stateName": "Manipur",
    "districtCode": "S1405",
    "districtName": "Chandel",
    "acNumber": 41,
    "acName": "Chandel",
    "partNumber": 33,
    "partName": "Unupat",
    "lat": 24.3312009,
    "lon": 94.0011081
  },
  {
    "partId": 448,
    "stateCode": "S14",
    "stateName": "Manipur",
    "districtCode": "S1405",
    "districtName": "Chandel",
    "acNumber": 41,
    "acName": "Chandel",
    "partNumber": 34,
    "partName": "Khambathel",
    "lat": 24.2980613,
    "lon": 93.8992946
  },
  {
    "partId": 481,
    "stateCode": "S14",
    "stateName": "Manipur",
    "districtCode": "S1405",
    "districtName": "Chandel",
    "acNumber": 41,
    "acName": "Chandel",
    "partNumber": 35,
    "partName": "Berukhudam",
    "lat": 24.3312009,
    "lon": 94.0011081
  },
  {
    "partId": 305,
    "stateCode": "S14",
    "stateName": "Manipur",
    "districtCode": "S1405",
    "districtName": "Chandel",
    "acNumber": 41,
    "acName": "Chandel",
    "partNumber": 36,
    "partName": "Phiran Khullen",
    "lat": 24.3312009,
    "lon": 94.0011081
  },
  {
    "partId": 390,
    "stateCode": "S14",
    "stateName": "Manipur",
    "districtCode": "S1405",
    "districtName": "Chandel",
    "acNumber": 41,
    "acName": "Chandel",
    "partNumber": 37,
    "partName": "Larong Khullen",
    "lat": 24.3312009,
    "lon": 94.0011081
  },
  {
    "partId": 886,
    "stateCode": "S14",
    "stateName": "Manipur",
    "districtCode": "S1405",
    "districtName": "Chandel",
    "acNumber": 41,
    "acName": "Chandel",
    "partNumber": 38,
    "partName": "Larong Khunou",
    "lat": 24.3312009,
    "lon": 94.0011081
  },
  {
    "partId": 391,
    "stateCode": "S14",
    "stateName": "Manipur",
    "districtCode": "S1405",
    "districtName": "Chandel",
    "acNumber": 41,
    "acName": "Chandel",
    "partNumber": 39,
    "partName": "Duthang",
    "lat": 24.3312009,
    "lon": 94.0011081
  },
  {
    "partId": 557,
    "stateCode": "S14",
    "stateName": "Manipur",
    "districtCode": "S1405",
    "districtName": "Chandel",
    "acNumber": 41,
    "acName": "Chandel",
    "partNumber": 40,
    "partName": "Anal Khullen",
    "lat": 24.3312009,
    "lon": 94.0011081
  },
  {
    "partId": 571,
    "stateCode": "S14",
    "stateName": "Manipur",
    "districtCode": "S1405",
    "districtName": "Chandel",
    "acNumber": 41,
    "acName": "Chandel",
    "partNumber": 41,
    "partName": "Singtom",
    "lat": 24.2660019,
    "lon": 93.8878536
  },
  {
    "partId": 653,
    "stateCode": "S14",
    "stateName": "Manipur",
    "districtCode": "S1405",
    "districtName": "Chandel",
    "acNumber": 41,
    "acName": "Chandel",
    "partNumber": 42,
    "partName": "Sugnu Tribal",
    "lat": 24.2945074,
    "lon": 93.8787138
  },
  {
    "partId": 853,
    "stateCode": "S14",
    "stateName": "Manipur",
    "districtCode": "S1405",
    "districtName": "Chandel",
    "acNumber": 41,
    "acName": "Chandel",
    "partNumber": 43,
    "partName": "Boljang Tampak",
    "lat": 24.3312009,
    "lon": 94.0011081
  },
  {
    "partId": 888,
    "stateCode": "S14",
    "stateName": "Manipur",
    "districtCode": "S1405",
    "districtName": "Chandel",
    "acNumber": 41,
    "acName": "Chandel",
    "partNumber": 44,
    "partName": "Sugnu Langching",
    "lat": 24.3312009,
    "lon": 94.0011081
  },
  {
    "partId": 854,
    "stateCode": "S14",
    "stateName": "Manipur",
    "districtCode": "S1405",
    "districtName": "Chandel",
    "acNumber": 41,
    "acName": "Chandel",
    "partNumber": 45,
    "partName": "Sugnu Lamhang",
    "lat": 24.3312009,
    "lon": 94.0011081
  },
  {
    "partId": 855,
    "stateCode": "S14",
    "stateName": "Manipur",
    "districtCode": "S1405",
    "districtName": "Chandel",
    "acNumber": 41,
    "acName": "Chandel",
    "partNumber": 46,
    "partName": "Toupokpi",
    "lat": 24.252541,
    "lon": 93.8977726
  },
  {
    "partId": 887,
    "stateCode": "S14",
    "stateName": "Manipur",
    "districtCode": "S1405",
    "districtName": "Chandel",
    "acNumber": 41,
    "acName": "Chandel",
    "partNumber": 47,
    "partName": "Nungpan",
    "lat": 24.2305748,
    "lon": 93.9011156
  },
  {
    "partId": 856,
    "stateCode": "S14",
    "stateName": "Manipur",
    "districtCode": "S1405",
    "districtName": "Chandel",
    "acNumber": 41,
    "acName": "Chandel",
    "partNumber": 48,
    "partName": "Y Thingkangphai",
    "lat": 24.2521888,
    "lon": 93.8747567
  },
  {
    "partId": 285,
    "stateCode": "S14",
    "stateName": "Manipur",
    "districtCode": "S1405",
    "districtName": "Chandel",
    "acNumber": 41,
    "acName": "Chandel",
    "partNumber": 49,
    "partName": "Tampi",
    "lat": 24.3312009,
    "lon": 94.0011081
  },
  {
    "partId": 314,
    "stateCode": "S14",
    "stateName": "Manipur",
    "districtCode": "S1405",
    "districtName": "Chandel",
    "acNumber": 41,
    "acName": "Chandel",
    "partNumber": 50,
    "partName": "Anal Khunou",
    "lat": 24.3312009,
    "lon": 94.0011081
  },
  {
    "partId": 341,
    "stateCode": "S14",
    "stateName": "Manipur",
    "districtCode": "S1405",
    "districtName": "Chandel",
    "acNumber": 41,
    "acName": "Chandel",
    "partNumber": 51,
    "partName": "Charongching",
    "lat": 24.3312009,
    "lon": 94.0011081
  },
  {
    "partId": 370,
    "stateCode": "S14",
    "stateName": "Manipur",
    "districtCode": "S1405",
    "districtName": "Chandel",
    "acNumber": 41,
    "acName": "Chandel",
    "partNumber": 52,
    "partName": "Paraolon",
    "lat": 24.3535516,
    "lon": 94.0044144
  },
  {
    "partId": 857,
    "stateCode": "S14",
    "stateName": "Manipur",
    "districtCode": "S1405",
    "districtName": "Chandel",
    "acNumber": 41,
    "acName": "Chandel",
    "partNumber": 53,
    "partName": "Chakpikarong",
    "lat": 24.0512648,
    "lon": 93.99373826324612
  },
  {
    "partId": 858,
    "stateCode": "S14",
    "stateName": "Manipur",
    "districtCode": "S1405",
    "districtName": "Chandel",
    "acNumber": 41,
    "acName": "Chandel",
    "partNumber": 54,
    "partName": "Rungchang",
    "lat": 24.3312009,
    "lon": 94.0011081
  },
  {
    "partId": 859,
    "stateCode": "S14",
    "stateName": "Manipur",
    "districtCode": "S1405",
    "districtName": "Chandel",
    "acNumber": 41,
    "acName": "Chandel",
    "partNumber": 55,
    "partName": "Salluk",
    "lat": 24.3312009,
    "lon": 94.0011081
  },
  {
    "partId": 860,
    "stateCode": "S14",
    "stateName": "Manipur",
    "districtCode": "S1405",
    "districtName": "Chandel",
    "acNumber": 41,
    "acName": "Chandel",
    "partNumber": 56,
    "partName": "Akaphe",
    "lat": 24.3312009,
    "lon": 94.0011081
  },
  {
    "partId": 861,
    "stateCode": "S14",
    "stateName": "Manipur",
    "districtCode": "S1405",
    "districtName": "Chandel",
    "acNumber": 41,
    "acName": "Chandel",
    "partNumber": 57,
    "partName": "Longja",
    "lat": 24.1651087,
    "lon": 93.8468724
  },
  {
    "partId": 862,
    "stateCode": "S14",
    "stateName": "Manipur",
    "districtCode": "S1405",
    "districtName": "Chandel",
    "acNumber": 41,
    "acName": "Chandel",
    "partNumber": 58,
    "partName": "Teiyang",
    "lat": 24.209098,
    "lon": 93.8707241
  },
  {
    "partId": 863,
    "stateCode": "S14",
    "stateName": "Manipur",
    "districtCode": "S1405",
    "districtName": "Chandel",
    "acNumber": 41,
    "acName": "Chandel",
    "partNumber": 59,
    "partName": "Khubung Khunou",
    "lat": 24.3312009,
    "lon": 94.0011081
  },
  {
    "partId": 864,
    "stateCode": "S14",
    "stateName": "Manipur",
    "districtCode": "S1405",
    "districtName": "Chandel",
    "acNumber": 41,
    "acName": "Chandel",
    "partNumber": 60,
    "partName": "Khubung Khullen",
    "lat": 24.3312009,
    "lon": 94.0011081
  },
  {
    "partId": 865,
    "stateCode": "S14",
    "stateName": "Manipur",
    "districtCode": "S1405",
    "districtName": "Chandel",
    "acNumber": 41,
    "acName": "Chandel",
    "partNumber": 61,
    "partName": "Paldai",
    "lat": 24.1484158,
    "lon": 93.8414796
  },
  {
    "partId": 866,
    "stateCode": "S14",
    "stateName": "Manipur",
    "districtCode": "S1405",
    "districtName": "Chandel",
    "acNumber": 41,
    "acName": "Chandel",
    "partNumber": 62,
    "partName": "Molphei",
    "lat": 24.3312009,
    "lon": 94.0011081
  },
  {
    "partId": 867,
    "stateCode": "S14",
    "stateName": "Manipur",
    "districtCode": "S1405",
    "districtName": "Chandel",
    "acNumber": 41,
    "acName": "Chandel",
    "partNumber": 63,
    "partName": "Mombi",
    "lat": 24.1101604,
    "lon": 93.9389398
  },
  {
    "partId": 868,
    "stateCode": "S14",
    "stateName": "Manipur",
    "districtCode": "S1405",
    "districtName": "Chandel",
    "acNumber": 41,
    "acName": "Chandel",
    "partNumber": 64,
    "partName": "Khangbarol",
    "lat": 24.1060743,
    "lon": 94.0392378
  },
  {
    "partId": 869,
    "stateCode": "S14",
    "stateName": "Manipur",
    "districtCode": "S1405",
    "districtName": "Chandel",
    "acNumber": 41,
    "acName": "Chandel",
    "partNumber": 65,
    "partName": "Lamphei",
    "lat": 24.3312009,
    "lon": 94.0011081
  },
  {
    "partId": 870,
    "stateCode": "S14",
    "stateName": "Manipur",
    "districtCode": "S1405",
    "districtName": "Chandel",
    "acNumber": 41,
    "acName": "Chandel",
    "partNumber": 66,
    "partName": "K Savompa",
    "lat": 24.3312009,
    "lon": 94.0011081
  },
  {
    "partId": 871,
    "stateCode": "S14",
    "stateName": "Manipur",
    "districtCode": "S1405",
    "districtName": "Chandel",
    "acNumber": 41,
    "acName": "Chandel",
    "partNumber": 67,
    "partName": "New Songjang",
    "lat": 24.3312009,
    "lon": 94.0011081
  },
  {
    "partId": 872,
    "stateCode": "S14",
    "stateName": "Manipur",
    "districtCode": "S1405",
    "districtName": "Chandel",
    "acNumber": 41,
    "acName": "Chandel",
    "partNumber": 68,
    "partName": "Sajik Tampak",
    "lat": 24.1385817,
    "lon": 93.8399765
  },
  {
    "partId": 873,
    "stateCode": "S14",
    "stateName": "Manipur",
    "districtCode": "S1405",
    "districtName": "Chandel",
    "acNumber": 41,
    "acName": "Chandel",
    "partNumber": 69,
    "partName": "Joupi",
    "lat": 24.3312009,
    "lon": 94.0011081
  },
  {
    "partId": 874,
    "stateCode": "S14",
    "stateName": "Manipur",
    "districtCode": "S1405",
    "districtName": "Chandel",
    "acNumber": 41,
    "acName": "Chandel",
    "partNumber": 70,
    "partName": "Changpol",
    "lat": 24.3312009,
    "lon": 94.0011081
  },
  {
    "partId": 875,
    "stateCode": "S14",
    "stateName": "Manipur",
    "districtCode": "S1405",
    "districtName": "Chandel",
    "acNumber": 41,
    "acName": "Chandel",
    "partNumber": 71,
    "partName": "Gamphajol",
    "lat": 24.3312009,
    "lon": 94.0011081
  },
  {
    "partId": 876,
    "stateCode": "S14",
    "stateName": "Manipur",
    "districtCode": "S1405",
    "districtName": "Chandel",
    "acNumber": 41,
    "acName": "Chandel",
    "partNumber": 72,
    "partName": "Khengjoi",
    "lat": 24.3312009,
    "lon": 94.0011081
  },
  {
    "partId": 877,
    "stateCode": "S14",
    "stateName": "Manipur",
    "districtCode": "S1405",
    "districtName": "Chandel",
    "acNumber": 41,
    "acName": "Chandel",
    "partNumber": 73,
    "partName": "Sehlon",
    "lat": 23.9926319,
    "lon": 94.0369683
  },
  {
    "partId": 878,
    "stateCode": "S14",
    "stateName": "Manipur",
    "districtCode": "S1405",
    "districtName": "Chandel",
    "acNumber": 41,
    "acName": "Chandel",
    "partNumber": 74,
    "partName": "Hengsi",
    "lat": 24.3312009,
    "lon": 94.0011081
  },
  {
    "partId": 879,
    "stateCode": "S14",
    "stateName": "Manipur",
    "districtCode": "S1405",
    "districtName": "Chandel",
    "acNumber": 41,
    "acName": "Chandel",
    "partNumber": 75,
    "partName": "Aisi",
    "lat": 24.3312009,
    "lon": 94.0011081
  },
  {
    "partId": 880,
    "stateCode": "S14",
    "stateName": "Manipur",
    "districtCode": "S1405",
    "districtName": "Chandel",
    "acNumber": 41,
    "acName": "Chandel",
    "partNumber": 76,
    "partName": "Molngat",
    "lat": 24.3312009,
    "lon": 94.0011081
  },
  {
    "partId": 881,
    "stateCode": "S14",
    "stateName": "Manipur",
    "districtCode": "S1405",
    "districtName": "Chandel",
    "acNumber": 41,
    "acName": "Chandel",
    "partNumber": 77,
    "partName": "Wayang",
    "lat": 24.3312009,
    "lon": 94.0011081
  },
  {
    "partId": 882,
    "stateCode": "S14",
    "stateName": "Manipur",
    "districtCode": "S1405",
    "districtName": "Chandel",
    "acNumber": 41,
    "acName": "Chandel",
    "partNumber": 78,
    "partName": "Yangoulen",
    "lat": 23.9656177,
    "lon": 94.181257
  },
  {
    "partId": 883,
    "stateCode": "S14",
    "stateName": "Manipur",
    "districtCode": "S1405",
    "districtName": "Chandel",
    "acNumber": 41,
    "acName": "Chandel",
    "partNumber": 79,
    "partName": "Molcham",
    "lat": 23.9377141,
    "lon": 94.1877821
  },
  {
    "partId": 884,
    "stateCode": "S14",
    "stateName": "Manipur",
    "districtCode": "S1405",
    "districtName": "Chandel",
    "acNumber": 41,
    "acName": "Chandel",
    "partNumber": 80,
    "partName": "New Samtal",
    "lat": 23.8753602,
    "lon": 94.1536441
  }
]