[
  {
    "partId": 3250,
    "stateCode": "S14",
    "stateName": "Manipur",
    "districtCode": "S1415",
    "districtName": "Noney",
    "acNumber": 54,
    "acName": "Nungba",
    "partNumber": 1,
    "partName": "Khongsang",
    "lat": 24.8229869,
    "lon": 93.4754176
  },
  {
    "partId": 3251,
    "stateCode": "S14",
    "stateName": "Manipur",
    "districtCode": "S1415",
    "districtName": "Noney",
    "acNumber": 54,
    "acName": "Nungba",
    "partNumber": 2,
    "partName": "Longmai A",
    "lat": 24.7435152,
    "lon": 93.4175039
  },
  {
    "partId": 3295,
    "stateCode": "S14",
    "stateName": "Manipur",
    "districtCode": "S1415",
    "districtName": "Noney",
    "acNumber": 54,
    "acName": "Nungba",
    "partNumber": 3,
    "partName": "Longmai C",
    "lat": 24.7435152,
    "lon": 93.4175039
  },
  {
    "partId": 3252,
    "stateCode": "S14",
    "stateName": "Manipur",
    "districtCode": "S1415",
    "districtName": "Noney",
    "acNumber": 54,
    "acName": "Nungba",
    "partNumber": 4,
    "partName": "Longmai (B)",
    "lat": 24.7435152,
    "lon": 93.4175039
  },
  {
    "partId": 3296,
    "stateCode": "S14",
    "stateName": "Manipur",
    "districtCode": "S1415",
    "districtName": "Noney",
    "acNumber": 54,
    "acName": "Nungba",
    "partNumber": 5,
    "partName": "Longmai-D",
    "lat": 24.7435152,
    "lon": 93.4175039
  },
  {
    "partId": 3253,
    "stateCode": "S14",
    "stateName": "Manipur",
    "districtCode": "S1415",
    "districtName": "Noney",
    "acNumber": 54,
    "acName": "Nungba",
    "partNumber": 6,
    "partName": "Longmai IV (B)",
    "lat": 24.7435152,
    "lon": 93.4175039
  },
  {
    "partId": 3254,
    "stateCode": "S14",
    "stateName": "Manipur",
    "districtCode": "S1415",
    "districtName": "Noney",
    "acNumber": 54,
    "acName": "Nungba",
    "partNumber": 7,
    "partName": "Okoklong",
    "lat": 24.7840852,
    "lon": 93.4022426
  },
  {
    "partId": 3255,
    "stateCode": "S14",
    "stateName": "Manipur",
    "districtCode": "S1415",
    "districtName": "Noney",
    "acNumber": 54,
    "acName": "Nungba",
    "partNumber": 8,
    "partName": "Thingou",
    "lat": 24.8069931,
    "lon": 93.426361
  },
  {
    "partId": 3256,
    "stateCode": "S14",
    "stateName": "Manipur",
    "districtCode": "S1415",
    "districtName": "Noney",
    "acNumber": 54,
    "acName": "Nungba",
    "partNumber": 9,
    "partName": "Rengpang",
    "lat": 24.7435152,
    "lon": 93.4175039
  },
  {
    "partId": 3297,
    "stateCode": "S14",
    "stateName": "Manipur",
    "districtCode": "S1415",
    "districtName": "Noney",
    "acNumber": 54,
    "acName": "Nungba",
    "partNumber": 10,
    "partName": "Mongjarong khunou",
    "lat": 24.7435152,
    "lon": 93.4175039
  },
  {
    "partId": 3257,
    "stateCode": "S14",
    "stateName": "Manipur",
    "districtCode": "S1415",
    "districtName": "Noney",
    "acNumber": 54,
    "acName": "Nungba",
    "partNumber": 11,
    "partName": "Nungnang (A)",
    "lat": 24.7755207,
    "lon": 93.5273861
  },
  {
    "partId": 3258,
    "stateCode": "S14",
    "stateName": "Manipur",
    "districtCode": "S1415",
    "districtName": "Noney",
    "acNumber": 54,
    "acName": "Nungba",
    "partNumber": 12,
    "partName": "Nungnang (B)",
    "lat": 24.7755207,
    "lon": 93.5273861
  },
  {
    "partId": 3259,
    "stateCode": "S14",
    "stateName": "Manipur",
    "districtCode": "S1415",
    "districtName": "Noney",
    "acNumber": 54,
    "acName": "Nungba",
    "partNumber": 13,
    "partName": "Tupul",
    "lat": 24.7822241,
    "lon": 93.6631495
  },
  {
    "partId": 3298,
    "stateCode": "S14",
    "stateName": "Manipur",
    "districtCode": "S1415",
    "districtName": "Noney",
    "acNumber": 54,
    "acName": "Nungba",
    "partNumber": 14,
    "partName": "Tupul B",
    "lat": 24.7822241,
    "lon": 93.6631495
  },
  {
    "partId": 3260,
    "stateCode": "S14",
    "stateName": "Manipur",
    "districtCode": "S1415",
    "districtName": "Noney",
    "acNumber": 54,
    "acName": "Nungba",
    "partNumber": 15,
    "partName": "Taosang Khullen",
    "lat": 24.7435152,
    "lon": 93.4175039
  },
  {
    "partId": 3261,
    "stateCode": "S14",
    "stateName": "Manipur",
    "districtCode": "S1415",
    "districtName": "Noney",
    "acNumber": 54,
    "acName": "Nungba",
    "partNumber": 16,
    "partName": "Taosang Khunou",
    "lat": 24.7435152,
    "lon": 93.4175039
  },
  {
    "partId": 3262,
    "stateCode": "S14",
    "stateName": "Manipur",
    "districtCode": "S1415",
    "districtName": "Noney",
    "acNumber": 54,
    "acName": "Nungba",
    "partNumber": 17,
    "partName": "Leishok",
    "lat": 24.7435152,
    "lon": 93.4175039
  },
  {
    "partId": 3263,
    "stateCode": "S14",
    "stateName": "Manipur",
    "districtCode": "S1415",
    "districtName": "Noney",
    "acNumber": 54,
    "acName": "Nungba",
    "partNumber": 18,
    "partName": "Taodaijang",
    "lat": 24.6786742,
    "lon": 93.4930166
  },
  {
    "partId": 3264,
    "stateCode": "S14",
    "stateName": "Manipur",
    "districtCode": "S1415",
    "districtName": "Noney",
    "acNumber": 54,
    "acName": "Nungba",
    "partNumber": 19,
    "partName": "Nungba (A)",
    "lat": 24.7435152,
    "lon": 93.4175039
  },
  {
    "partId": 3265,
    "stateCode": "S14",
    "stateName": "Manipur",
    "districtCode": "S1415",
    "districtName": "Noney",
    "acNumber": 54,
    "acName": "Nungba",
    "partNumber": 20,
    "partName": "Nungba (B)",
    "lat": 24.7435152,
    "lon": 93.4175039
  },
  {
    "partId": 3266,
    "stateCode": "S14",
    "stateName": "Manipur",
    "districtCode": "S1415",
    "districtName": "Noney",
    "acNumber": 54,
    "acName": "Nungba",
    "partNumber": 21,
    "partName": "Tajeiphun (Kekru)",
    "lat": 24.7435152,
    "lon": 93.4175039
  },
  {
    "partId": 3267,
    "stateCode": "S14",
    "stateName": "Manipur",
    "districtCode": "S1415",
    "districtName": "Noney",
    "acNumber": 54,
    "acName": "Nungba",
    "partNumber": 22,
    "partName": "Bolongdai",
    "lat": 24.777924,
    "lon": 93.4514397
  },
  {
    "partId": 3268,
    "stateCode": "S14",
    "stateName": "Manipur",
    "districtCode": "S1415",
    "districtName": "Noney",
    "acNumber": 54,
    "acName": "Nungba",
    "partNumber": 23,
    "partName": "Kambiron",
    "lat": 24.7435152,
    "lon": 93.4175039
  },
  {
    "partId": 3269,
    "stateCode": "S14",
    "stateName": "Manipur",
    "districtCode": "S1415",
    "districtName": "Noney",
    "acNumber": 54,
    "acName": "Nungba",
    "partNumber": 24,
    "partName": "Thangal",
    "lat": 24.7435152,
    "lon": 93.4175039
  },
  {
    "partId": 3270,
    "stateCode": "S14",
    "stateName": "Manipur",
    "districtCode": "S1415",
    "districtName": "Noney",
    "acNumber": 54,
    "acName": "Nungba",
    "partNumber": 25,
    "partName": "Lamdangmei",
    "lat": 24.7435152,
    "lon": 93.4175039
  },
  {
    "partId": 3271,
    "stateCode": "S14",
    "stateName": "Manipur",
    "districtCode": "S1415",
    "districtName": "Noney",
    "acNumber": 54,
    "acName": "Nungba",
    "partNumber": 26,
    "partName": "Lubanglong",
    "lat": 24.7435152,
    "lon": 93.4175039
  },
  {
    "partId": 3299,
    "stateCode": "S14",
    "stateName": "Manipur",
    "districtCode": "S1415",
    "districtName": "Noney",
    "acNumber": 54,
    "acName": "Nungba",
    "partNumber": 27,
    "partName": "Gahtao",
    "lat": 24.7435152,
    "lon": 93.4175039
  },
  {
    "partId": 3272,
    "stateCode": "S14",
    "stateName": "Manipur",
    "districtCode": "S1415",
    "districtName": "Noney",
    "acNumber": 54,
    "acName": "Nungba",
    "partNumber": 28,
    "partName": "Dollang",
    "lat": 24.6733857,
    "lon": 93.674618
  },
  {
    "partId": 3273,
    "stateCode": "S14",
    "stateName": "Manipur",
    "districtCode": "S1415",
    "districtName": "Noney",
    "acNumber": 54,
    "acName": "Nungba",
    "partNumber": 29,
    "partName": "Sangji",
    "lat": 24.7435152,
    "lon": 93.4175039
  },
  {
    "partId": 3274,
    "stateCode": "S14",
    "stateName": "Manipur",
    "districtCode": "S1415",
    "districtName": "Noney",
    "acNumber": 54,
    "acName": "Nungba",
    "partNumber": 30,
    "partName": "Namkaolong",
    "lat": 24.7435152,
    "lon": 93.4175039
  },
  {
    "partId": 3275,
    "stateCode": "S14",
    "stateName": "Manipur",
    "districtCode": "S1415",
    "districtName": "Noney",
    "acNumber": 54,
    "acName": "Nungba",
    "partNumber": 31,
    "partName": "Thanagong",
    "lat": 24.7435152,
    "lon": 93.4175039
  },
  {
    "partId": 3276,
    "stateCode": "S14",
    "stateName": "Manipur",
    "districtCode": "S1415",
    "districtName": "Noney",
    "acNumber": 54,
    "acName": "Nungba",
    "partNumber": 32,
    "partName": "Gaidimjang (A)",
    "lat": 24.6827768,
    "lon": 93.5181296
  },
  {
    "partId": 3277,
    "stateCode": "S14",
    "stateName": "Manipur",
    "districtCode": "S1415",
    "districtName": "Noney",
    "acNumber": 54,
    "acName": "Nungba",
    "partNumber": 33,
    "partName": "Gaidimjang (B)",
    "lat": 24.6827768,
    "lon": 93.5181296
  },
  {
    "partId": 3278,
    "stateCode": "S14",
    "stateName": "Manipur",
    "districtCode": "S1415",
    "districtName": "Noney",
    "acNumber": 54,
    "acName": "Nungba",
    "partNumber": 34,
    "partName": "Satudai",
    "lat": 24.7435152,
    "lon": 93.4175039
  },
  {
    "partId": 3279,
    "stateCode": "S14",
    "stateName": "Manipur",
    "districtCode": "S1415",
    "districtName": "Noney",
    "acNumber": 54,
    "acName": "Nungba",
    "partNumber": 35,
    "partName": "Khoupum  Taodaijang",
    "lat": 24.7435152,
    "lon": 93.4175039
  },
  {
    "partId": 3280,
    "stateCode": "S14",
    "stateName": "Manipur",
    "districtCode": "S1415",
    "districtName": "Noney",
    "acNumber": 54,
    "acName": "Nungba",
    "partNumber": 36,
    "partName": "Mukti khullen",
    "lat": 24.7435152,
    "lon": 93.4175039
  },
  {
    "partId": 3281,
    "stateCode": "S14",
    "stateName": "Manipur",
    "districtCode": "S1415",
    "districtName": "Noney",
    "acNumber": 54,
    "acName": "Nungba",
    "partNumber": 37,
    "partName": "Muktina",
    "lat": 24.7435152,
    "lon": 93.4175039
  },
  {
    "partId": 3282,
    "stateCode": "S14",
    "stateName": "Manipur",
    "districtCode": "S1415",
    "districtName": "Noney",
    "acNumber": 54,
    "acName": "Nungba",
    "partNumber": 38,
    "partName": "Longkaiphun",
    "lat": 24.7435152,
    "lon": 93.4175039
  },
  {
    "partId": 3283,
    "stateCode": "S14",
    "stateName": "Manipur",
    "districtCode": "S1415",
    "districtName": "Noney",
    "acNumber": 54,
    "acName": "Nungba",
    "partNumber": 39,
    "partName": "Nungbai",
    "lat": 24.7435152,
    "lon": 93.4175039
  },
  {
    "partId": 3284,
    "stateCode": "S14",
    "stateName": "Manipur",
    "districtCode": "S1415",
    "districtName": "Noney",
    "acNumber": 54,
    "acName": "Nungba",
    "partNumber": 40,
    "partName": "Nungadang",
    "lat": 24.7435152,
    "lon": 93.4175039
  },
  {
    "partId": 3285,
    "stateCode": "S14",
    "stateName": "Manipur",
    "districtCode": "S1415",
    "districtName": "Noney",
    "acNumber": 54,
    "acName": "Nungba",
    "partNumber": 41,
    "partName": "Gangluan-A",
    "lat": 24.6550629,
    "lon": 93.5929048
  },
  {
    "partId": 3300,
    "stateCode": "S14",
    "stateName": "Manipur",
    "districtCode": "S1415",
    "districtName": "Noney",
    "acNumber": 54,
    "acName": "Nungba",
    "partNumber": 42,
    "partName": "Gangluan-B",
    "lat": 24.6550629,
    "lon": 93.5929048
  },
  {
    "partId": 3286,
    "stateCode": "S14",
    "stateName": "Manipur",
    "districtCode": "S1415",
    "districtName": "Noney",
    "acNumber": 54,
    "acName": "Nungba",
    "partNumber": 43,
    "partName": "Nungsai-A",
    "lat": 24.6429738,
    "lon": 93.6670559
  },
  {
    "partId": 3301,
    "stateCode": "S14",
    "stateName": "Manipur",
    "districtCode": "S1415",
    "districtName": "Noney",
    "acNumber": 54,
    "acName": "Nungba",
    "partNumber": 44,
    "partName": "Nungsai-B",
    "lat": 24.6429738,
    "lon": 93.6670559
  },
  {
    "partId": 3287,
    "stateCode": "S14",
    "stateName": "Manipur",
    "districtCode": "S1415",
    "districtName": "Noney",
    "acNumber": 54,
    "acName": "Nungba",
    "partNumber": 45,
    "partName": "Joujangtek",
    "lat": 24.6526225,
    "lon": 93.6865886
  },
  {
    "partId": 3288,
    "stateCode": "S14",
    "stateName": "Manipur",
    "districtCode": "S1415",
    "districtName": "Noney",
    "acNumber": 54,
    "acName": "Nungba",
    "partNumber": 46,
    "partName": "Longpi",
    "lat": 24.7435152,
    "lon": 93.4175039
  },
  {
    "partId": 3289,
    "stateCode": "S14",
    "stateName": "Manipur",
    "districtCode": "S1415",
    "districtName": "Noney",
    "acNumber": 54,
    "acName": "Nungba",
    "partNumber": 47,
    "partName": "Teikhang",
    "lat": 24.7435152,
    "lon": 93.4175039
  },
  {
    "partId": 3290,
    "stateCode": "S14",
    "stateName": "Manipur",
    "districtCode": "S1415",
    "districtName": "Noney",
    "acNumber": 54,
    "acName": "Nungba",
    "partNumber": 48,
    "partName": "Sempat Gangte",
    "lat": 24.7435152,
    "lon": 93.4175039
  },
  {
    "partId": 3291,
    "stateCode": "S14",
    "stateName": "Manipur",
    "districtCode": "S1415",
    "districtName": "Noney",
    "acNumber": 54,
    "acName": "Nungba",
    "partNumber": 49,
    "partName": "Chongmun",
    "lat": 24.7435152,
    "lon": 93.4175039
  },
  {
    "partId": 3292,
    "stateCode": "S14",
    "stateName": "Manipur",
    "districtCode": "S1415",
    "districtName": "Noney",
    "acNumber": 54,
    "acName": "Nungba",
    "partNumber": 50,
    "partName": "Tuiphai",
    "lat": 24.7320133,
    "lon": 93.6716274
  },
  {
    "partId": 3293,
    "stateCode": "S14",
    "stateName": "Manipur",
    "districtCode": "S1415",
    "districtName": "Noney",
    "acNumber": 54,
    "acName": "Nungba",
    "partNumber": 51,
    "partName": "Longphailum",
    "lat": 24.7435152,
    "lon": 93.4175039
  },
  {
    "partId": 3294,
    "stateCode": "S14",
    "stateName": "Manipur",
    "districtCode": "S1415",
    "districtName": "Noney",
    "acNumber": 54,
    "acName": "Nungba",
    "partNumber": 52,
    "partName": "Gallon",
    "lat": 24.7435152,
    "lon": 93.4175039
  }
]