[
  {
    "partId": 3098,
    "stateCode": "S14",
    "stateName": "Manipur",
    "districtCode": "S1413",
    "districtName": "Tengnoupal",
    "acNumber": 42,
    "acName": "Tengnoupal",
    "partNumber": 1,
    "partName": "Tollen",
    "lat": 24.3847802,
    "lon": 94.1472634
  },
  {
    "partId": 3099,
    "stateCode": "S14",
    "stateName": "Manipur",
    "districtCode": "S1413",
    "districtName": "Tengnoupal",
    "acNumber": 42,
    "acName": "Tengnoupal",
    "partNumber": 2,
    "partName": "Khoibu",
    "lat": 24.5547023,
    "lon": 94.1809535
  },
  {
    "partId": 3100,
    "stateCode": "S14",
    "stateName": "Manipur",
    "districtCode": "S1413",
    "districtName": "Tengnoupal",
    "acNumber": 42,
    "acName": "Tengnoupal",
    "partNumber": 3,
    "partName": "Heinoukhong",
    "lat": 24.3847802,
    "lon": 94.1472634
  },
  {
    "partId": 3101,
    "stateCode": "S14",
    "stateName": "Manipur",
    "districtCode": "S1413",
    "districtName": "Tengnoupal",
    "acNumber": 42,
    "acName": "Tengnoupal",
    "partNumber": 4,
    "partName": "Mumlo Ringpam",
    "lat": 24.3847802,
    "lon": 94.1472634
  },
  {
    "partId": 3102,
    "stateCode": "S14",
    "stateName": "Manipur",
    "districtCode": "S1413",
    "districtName": "Tengnoupal",
    "acNumber": 42,
    "acName": "Tengnoupal",
    "partNumber": 5,
    "partName": "Laiching Minou",
    "lat": 24.3847802,
    "lon": 94.1472634
  },
  {
    "partId": 3103,
    "stateCode": "S14",
    "stateName": "Manipur",
    "districtCode": "S1413",
    "districtName": "Tengnoupal",
    "acNumber": 42,
    "acName": "Tengnoupal",
    "partNumber": 6,
    "partName": "Khangshim",
    "lat": 24.3847802,
    "lon": 94.1472634
  },
  {
    "partId": 3104,
    "stateCode": "S14",
    "stateName": "Manipur",
    "districtCode": "S1413",
    "districtName": "Tengnoupal",
    "acNumber": 42,
    "acName": "Tengnoupal",
    "partNumber": 7,
    "partName": "Nungourok",
    "lat": 24.3847802,
    "lon": 94.1472634
  },
  {
    "partId": 3105,
    "stateCode": "S14",
    "stateName": "Manipur",
    "districtCode": "S1413",
    "districtName": "Tengnoupal",
    "acNumber": 42,
    "acName": "Tengnoupal",
    "partNumber": 8,
    "partName": "Kangsang",
    "lat": 24.4694363,
    "lon": 94.038904
  },
  {
    "partId": 3106,
    "stateCode": "S14",
    "stateName": "Manipur",
    "districtCode": "S1413",
    "districtName": "Tengnoupal",
    "acNumber": 42,
    "acName": "Tengnoupal",
    "partNumber": 9,
    "partName": "Maipouching",
    "lat": 24.3847802,
    "lon": 94.1472634
  },
  {
    "partId": 3107,
    "stateCode": "S14",
    "stateName": "Manipur",
    "districtCode": "S1413",
    "districtName": "Tengnoupal",
    "acNumber": 42,
    "acName": "Tengnoupal",
    "partNumber": 10,
    "partName": "Khunbi Khunou",
    "lat": 24.4712128,
    "lon": 94.049029
  },
  {
    "partId": 3108,
    "stateCode": "S14",
    "stateName": "Manipur",
    "districtCode": "S1413",
    "districtName": "Tengnoupal",
    "acNumber": 42,
    "acName": "Tengnoupal",
    "partNumber": 11,
    "partName": "Tuishimi",
    "lat": 24.3847802,
    "lon": 94.1472634
  },
  {
    "partId": 3109,
    "stateCode": "S14",
    "stateName": "Manipur",
    "districtCode": "S1413",
    "districtName": "Tengnoupal",
    "acNumber": 42,
    "acName": "Tengnoupal",
    "partNumber": 12,
    "partName": "Maringphai",
    "lat": 24.3847802,
    "lon": 94.1472634
  },
  {
    "partId": 3110,
    "stateCode": "S14",
    "stateName": "Manipur",
    "districtCode": "S1413",
    "districtName": "Tengnoupal",
    "acNumber": 42,
    "acName": "Tengnoupal",
    "partNumber": 13,
    "partName": "Saibol",
    "lat": 24.4897134,
    "lon": 94.3378261
  },
  {
    "partId": 3111,
    "stateCode": "S14",
    "stateName": "Manipur",
    "districtCode": "S1413",
    "districtName": "Tengnoupal",
    "acNumber": 42,
    "acName": "Tengnoupal",
    "partNumber": 14,
    "partName": "Khulsaibung (A)",
    "lat": 24.51548,
    "lon": 94.1010912
  },
  {
    "partId": 3112,
    "stateCode": "S14",
    "stateName": "Manipur",
    "districtCode": "S1413",
    "districtName": "Tengnoupal",
    "acNumber": 42,
    "acName": "Tengnoupal",
    "partNumber": 15,
    "partName": "Khulsaibung (B)",
    "lat": 24.51548,
    "lon": 94.1010912
  },
  {
    "partId": 3113,
    "stateCode": "S14",
    "stateName": "Manipur",
    "districtCode": "S1413",
    "districtName": "Tengnoupal",
    "acNumber": 42,
    "acName": "Tengnoupal",
    "partNumber": 16,
    "partName": "Machi (A)",
    "lat": 24.5101466,
    "lon": 94.1422363
  },
  {
    "partId": 3114,
    "stateCode": "S14",
    "stateName": "Manipur",
    "districtCode": "S1413",
    "districtName": "Tengnoupal",
    "acNumber": 42,
    "acName": "Tengnoupal",
    "partNumber": 17,
    "partName": "Machi (B)",
    "lat": 24.5101466,
    "lon": 94.1422363
  },
  {
    "partId": 3115,
    "stateCode": "S14",
    "stateName": "Manipur",
    "districtCode": "S1413",
    "districtName": "Tengnoupal",
    "acNumber": 42,
    "acName": "Tengnoupal",
    "partNumber": 18,
    "partName": "Konaitong",
    "lat": 24.5512607,
    "lon": 94.1286326
  },
  {
    "partId": 3116,
    "stateCode": "S14",
    "stateName": "Manipur",
    "districtCode": "S1413",
    "districtName": "Tengnoupal",
    "acNumber": 42,
    "acName": "Tengnoupal",
    "partNumber": 19,
    "partName": "Lamlong Khullen (A)",
    "lat": 24.5111174,
    "lon": 94.1107906
  },
  {
    "partId": 3117,
    "stateCode": "S14",
    "stateName": "Manipur",
    "districtCode": "S1413",
    "districtName": "Tengnoupal",
    "acNumber": 42,
    "acName": "Tengnoupal",
    "partNumber": 20,
    "partName": "Lamlong Khullen (B)",
    "lat": 24.5111174,
    "lon": 94.1107906
  },
  {
    "partId": 3118,
    "stateCode": "S14",
    "stateName": "Manipur",
    "districtCode": "S1413",
    "districtName": "Tengnoupal",
    "acNumber": 42,
    "acName": "Tengnoupal",
    "partNumber": 21,
    "partName": "Langol (A)",
    "lat": 24.4976629,
    "lon": 94.0753982
  },
  {
    "partId": 3119,
    "stateCode": "S14",
    "stateName": "Manipur",
    "districtCode": "S1413",
    "districtName": "Tengnoupal",
    "acNumber": 42,
    "acName": "Tengnoupal",
    "partNumber": 22,
    "partName": "Langol (B)",
    "lat": 24.4976629,
    "lon": 94.0753982
  },
  {
    "partId": 3120,
    "stateCode": "S14",
    "stateName": "Manipur",
    "districtCode": "S1413",
    "districtName": "Tengnoupal",
    "acNumber": 42,
    "acName": "Tengnoupal",
    "partNumber": 23,
    "partName": "Khunbi",
    "lat": 24.4902491,
    "lon": 94.0870923
  },
  {
    "partId": 3121,
    "stateCode": "S14",
    "stateName": "Manipur",
    "districtCode": "S1413",
    "districtName": "Tengnoupal",
    "acNumber": 42,
    "acName": "Tengnoupal",
    "partNumber": 24,
    "partName": "Kangoi",
    "lat": 24.460286,
    "lon": 94.0788269
  },
  {
    "partId": 3122,
    "stateCode": "S14",
    "stateName": "Manipur",
    "districtCode": "S1413",
    "districtName": "Tengnoupal",
    "acNumber": 42,
    "acName": "Tengnoupal",
    "partNumber": 25,
    "partName": "Phunchong",
    "lat": 24.3847802,
    "lon": 94.1472634
  },
  {
    "partId": 3123,
    "stateCode": "S14",
    "stateName": "Manipur",
    "districtCode": "S1413",
    "districtName": "Tengnoupal",
    "acNumber": 42,
    "acName": "Tengnoupal",
    "partNumber": 26,
    "partName": "Kangoi Khuningsi",
    "lat": 24.3847802,
    "lon": 94.1472634
  },
  {
    "partId": 3124,
    "stateCode": "S14",
    "stateName": "Manipur",
    "districtCode": "S1413",
    "districtName": "Tengnoupal",
    "acNumber": 42,
    "acName": "Tengnoupal",
    "partNumber": 27,
    "partName": "Sita",
    "lat": 24.4552944,
    "lon": 94.2237895
  },
  {
    "partId": 3125,
    "stateCode": "S14",
    "stateName": "Manipur",
    "districtCode": "S1413",
    "districtName": "Tengnoupal",
    "acNumber": 42,
    "acName": "Tengnoupal",
    "partNumber": 28,
    "partName": "Bongli",
    "lat": 24.5382492,
    "lon": 94.247913
  },
  {
    "partId": 3126,
    "stateCode": "S14",
    "stateName": "Manipur",
    "districtCode": "S1413",
    "districtName": "Tengnoupal",
    "acNumber": 42,
    "acName": "Tengnoupal",
    "partNumber": 29,
    "partName": "Khudei Khullen",
    "lat": 24.4521489,
    "lon": 94.152005
  },
  {
    "partId": 3127,
    "stateCode": "S14",
    "stateName": "Manipur",
    "districtCode": "S1413",
    "districtName": "Tengnoupal",
    "acNumber": 42,
    "acName": "Tengnoupal",
    "partNumber": 30,
    "partName": "Aimol Khullen",
    "lat": 24.3847802,
    "lon": 94.1472634
  },
  {
    "partId": 3128,
    "stateCode": "S14",
    "stateName": "Manipur",
    "districtCode": "S1413",
    "districtName": "Tengnoupal",
    "acNumber": 42,
    "acName": "Tengnoupal",
    "partNumber": 31,
    "partName": "Aimol Chingnunghut",
    "lat": 24.4498434,
    "lon": 94.0419852
  },
  {
    "partId": 3129,
    "stateCode": "S14",
    "stateName": "Manipur",
    "districtCode": "S1413",
    "districtName": "Tengnoupal",
    "acNumber": 42,
    "acName": "Tengnoupal",
    "partNumber": 32,
    "partName": "Molnom",
    "lat": 24.4434788,
    "lon": 94.0461041
  },
  {
    "partId": 3130,
    "stateCode": "S14",
    "stateName": "Manipur",
    "districtCode": "S1413",
    "districtName": "Tengnoupal",
    "acNumber": 42,
    "acName": "Tengnoupal",
    "partNumber": 33,
    "partName": "Molnoi",
    "lat": 24.3847802,
    "lon": 94.1472634
  },
  {
    "partId": 3131,
    "stateCode": "S14",
    "stateName": "Manipur",
    "districtCode": "S1413",
    "districtName": "Tengnoupal",
    "acNumber": 42,
    "acName": "Tengnoupal",
    "partNumber": 34,
    "partName": "Phunal Sambum",
    "lat": 24.3847802,
    "lon": 94.1472634
  },
  {
    "partId": 3132,
    "stateCode": "S14",
    "stateName": "Manipur",
    "districtCode": "S1413",
    "districtName": "Tengnoupal",
    "acNumber": 42,
    "acName": "Tengnoupal",
    "partNumber": 35,
    "partName": "Khudei Khunou",
    "lat": 24.3847802,
    "lon": 94.1472634
  },
  {
    "partId": 3133,
    "stateCode": "S14",
    "stateName": "Manipur",
    "districtCode": "S1413",
    "districtName": "Tengnoupal",
    "acNumber": 42,
    "acName": "Tengnoupal",
    "partNumber": 36,
    "partName": "Purum Tampak",
    "lat": 24.3847802,
    "lon": 94.1472634
  },
  {
    "partId": 3134,
    "stateCode": "S14",
    "stateName": "Manipur",
    "districtCode": "S1413",
    "districtName": "Tengnoupal",
    "acNumber": 42,
    "acName": "Tengnoupal",
    "partNumber": 37,
    "partName": "Komlathabi",
    "lat": 24.3847802,
    "lon": 94.1472634
  },
  {
    "partId": 3135,
    "stateCode": "S14",
    "stateName": "Manipur",
    "districtCode": "S1413",
    "districtName": "Tengnoupal",
    "acNumber": 42,
    "acName": "Tengnoupal",
    "partNumber": 38,
    "partName": "Liwa Changning",
    "lat": 24.3847802,
    "lon": 94.1472634
  },
  {
    "partId": 3136,
    "stateCode": "S14",
    "stateName": "Manipur",
    "districtCode": "S1413",
    "districtName": "Tengnoupal",
    "acNumber": 42,
    "acName": "Tengnoupal",
    "partNumber": 39,
    "partName": "Purum Chumbang",
    "lat": 24.3847802,
    "lon": 94.1472634
  },
  {
    "partId": 3137,
    "stateCode": "S14",
    "stateName": "Manipur",
    "districtCode": "S1413",
    "districtName": "Tengnoupal",
    "acNumber": 42,
    "acName": "Tengnoupal",
    "partNumber": 40,
    "partName": "Saivom",
    "lat": 24.3847802,
    "lon": 94.1472634
  },
  {
    "partId": 3138,
    "stateCode": "S14",
    "stateName": "Manipur",
    "districtCode": "S1413",
    "districtName": "Tengnoupal",
    "acNumber": 42,
    "acName": "Tengnoupal",
    "partNumber": 41,
    "partName": "Chellep",
    "lat": 24.4112361,
    "lon": 94.19454
  },
  {
    "partId": 3139,
    "stateCode": "S14",
    "stateName": "Manipur",
    "districtCode": "S1413",
    "districtName": "Tengnoupal",
    "acNumber": 42,
    "acName": "Tengnoupal",
    "partNumber": 42,
    "partName": "Rilram Centre",
    "lat": 24.3847802,
    "lon": 94.1472634
  },
  {
    "partId": 3140,
    "stateCode": "S14",
    "stateName": "Manipur",
    "districtCode": "S1413",
    "districtName": "Tengnoupal",
    "acNumber": 42,
    "acName": "Tengnoupal",
    "partNumber": 43,
    "partName": "Kambang Khulen",
    "lat": 24.3847802,
    "lon": 94.1472634
  },
  {
    "partId": 3141,
    "stateCode": "S14",
    "stateName": "Manipur",
    "districtCode": "S1413",
    "districtName": "Tengnoupal",
    "acNumber": 42,
    "acName": "Tengnoupal",
    "partNumber": 44,
    "partName": "Lamlong Khunou",
    "lat": 24.4181016,
    "lon": 94.321213
  },
  {
    "partId": 3168,
    "stateCode": "S14",
    "stateName": "Manipur",
    "districtCode": "S1413",
    "districtName": "Tengnoupal",
    "acNumber": 42,
    "acName": "Tengnoupal",
    "partNumber": 45,
    "partName": "Satang",
    "lat": 24.3573327,
    "lon": 94.3534185
  },
  {
    "partId": 3142,
    "stateCode": "S14",
    "stateName": "Manipur",
    "districtCode": "S1413",
    "districtName": "Tengnoupal",
    "acNumber": 42,
    "acName": "Tengnoupal",
    "partNumber": 46,
    "partName": "Leibi",
    "lat": 24.3952623,
    "lon": 94.2532031
  },
  {
    "partId": 3143,
    "stateCode": "S14",
    "stateName": "Manipur",
    "districtCode": "S1413",
    "districtName": "Tengnoupal",
    "acNumber": 42,
    "acName": "Tengnoupal",
    "partNumber": 47,
    "partName": "Tengnoupal (A)",
    "lat": 24.3847802,
    "lon": 94.1472634
  },
  {
    "partId": 3169,
    "stateCode": "S14",
    "stateName": "Manipur",
    "districtCode": "S1413",
    "districtName": "Tengnoupal",
    "acNumber": 42,
    "acName": "Tengnoupal",
    "partNumber": 48,
    "partName": "Tengnoupal (B)",
    "lat": 24.3847802,
    "lon": 94.1472634
  },
  {
    "partId": 3144,
    "stateCode": "S14",
    "stateName": "Manipur",
    "districtCode": "S1413",
    "districtName": "Tengnoupal",
    "acNumber": 42,
    "acName": "Tengnoupal",
    "partNumber": 49,
    "partName": "Khongkhang",
    "lat": 24.3567334,
    "lon": 94.1925765
  },
  {
    "partId": 3145,
    "stateCode": "S14",
    "stateName": "Manipur",
    "districtCode": "S1413",
    "districtName": "Tengnoupal",
    "acNumber": 42,
    "acName": "Tengnoupal",
    "partNumber": 50,
    "partName": "Angbrasu",
    "lat": 24.3847802,
    "lon": 94.1472634
  },
  {
    "partId": 3146,
    "stateCode": "S14",
    "stateName": "Manipur",
    "districtCode": "S1413",
    "districtName": "Tengnoupal",
    "acNumber": 42,
    "acName": "Tengnoupal",
    "partNumber": 51,
    "partName": "Kwatha",
    "lat": 24.3359345,
    "lon": 94.2779608
  },
  {
    "partId": 3170,
    "stateCode": "S14",
    "stateName": "Manipur",
    "districtCode": "S1413",
    "districtName": "Tengnoupal",
    "acNumber": 42,
    "acName": "Tengnoupal",
    "partNumber": 52,
    "partName": "Sibong Khudengthabi",
    "lat": 24.3847802,
    "lon": 94.1472634
  },
  {
    "partId": 3147,
    "stateCode": "S14",
    "stateName": "Manipur",
    "districtCode": "S1413",
    "districtName": "Tengnoupal",
    "acNumber": 42,
    "acName": "Tengnoupal",
    "partNumber": 53,
    "partName": "Moreh Ward No. I (A)",
    "lat": 24.3847802,
    "lon": 94.1472634
  },
  {
    "partId": 3148,
    "stateCode": "S14",
    "stateName": "Manipur",
    "districtCode": "S1413",
    "districtName": "Tengnoupal",
    "acNumber": 42,
    "acName": "Tengnoupal",
    "partNumber": 54,
    "partName": "Moreh Ward No. I (B)",
    "lat": 24.3847802,
    "lon": 94.1472634
  },
  {
    "partId": 3149,
    "stateCode": "S14",
    "stateName": "Manipur",
    "districtCode": "S1413",
    "districtName": "Tengnoupal",
    "acNumber": 42,
    "acName": "Tengnoupal",
    "partNumber": 55,
    "partName": "Moreh Ward No. II (A)",
    "lat": 24.3847802,
    "lon": 94.1472634
  },
  {
    "partId": 3150,
    "stateCode": "S14",
    "stateName": "Manipur",
    "districtCode": "S1413",
    "districtName": "Tengnoupal",
    "acNumber": 42,
    "acName": "Tengnoupal",
    "partNumber": 56,
    "partName": "Moreh Ward No. II (B)",
    "lat": 24.3847802,
    "lon": 94.1472634
  },
  {
    "partId": 3151,
    "stateCode": "S14",
    "stateName": "Manipur",
    "districtCode": "S1413",
    "districtName": "Tengnoupal",
    "acNumber": 42,
    "acName": "Tengnoupal",
    "partNumber": 57,
    "partName": "Moreh Ward No. II (C)",
    "lat": 24.3847802,
    "lon": 94.1472634
  },
  {
    "partId": 3152,
    "stateCode": "S14",
    "stateName": "Manipur",
    "districtCode": "S1413",
    "districtName": "Tengnoupal",
    "acNumber": 42,
    "acName": "Tengnoupal",
    "partNumber": 58,
    "partName": "Moreh Ward No. II (D)",
    "lat": 24.3847802,
    "lon": 94.1472634
  },
  {
    "partId": 3153,
    "stateCode": "S14",
    "stateName": "Manipur",
    "districtCode": "S1413",
    "districtName": "Tengnoupal",
    "acNumber": 42,
    "acName": "Tengnoupal",
    "partNumber": 59,
    "partName": "Moreh Ward No. III (A)",
    "lat": 24.3847802,
    "lon": 94.1472634
  },
  {
    "partId": 3154,
    "stateCode": "S14",
    "stateName": "Manipur",
    "districtCode": "S1413",
    "districtName": "Tengnoupal",
    "acNumber": 42,
    "acName": "Tengnoupal",
    "partNumber": 60,
    "partName": "Moreh Ward No. III (B)",
    "lat": 24.3847802,
    "lon": 94.1472634
  },
  {
    "partId": 3155,
    "stateCode": "S14",
    "stateName": "Manipur",
    "districtCode": "S1413",
    "districtName": "Tengnoupal",
    "acNumber": 42,
    "acName": "Tengnoupal",
    "partNumber": 61,
    "partName": "Moreh Ward No. IV",
    "lat": 24.3847802,
    "lon": 94.1472634
  },
  {
    "partId": 3156,
    "stateCode": "S14",
    "stateName": "Manipur",
    "districtCode": "S1413",
    "districtName": "Tengnoupal",
    "acNumber": 42,
    "acName": "Tengnoupal",
    "partNumber": 62,
    "partName": "Moreh Ward No. V (A)",
    "lat": 24.3847802,
    "lon": 94.1472634
  },
  {
    "partId": 3157,
    "stateCode": "S14",
    "stateName": "Manipur",
    "districtCode": "S1413",
    "districtName": "Tengnoupal",
    "acNumber": 42,
    "acName": "Tengnoupal",
    "partNumber": 63,
    "partName": "Moreh Ward No. V (B)",
    "lat": 24.3847802,
    "lon": 94.1472634
  },
  {
    "partId": 3158,
    "stateCode": "S14",
    "stateName": "Manipur",
    "districtCode": "S1413",
    "districtName": "Tengnoupal",
    "acNumber": 42,
    "acName": "Tengnoupal",
    "partNumber": 64,
    "partName": "Moreh Ward No. VI",
    "lat": 24.3847802,
    "lon": 94.1472634
  },
  {
    "partId": 3159,
    "stateCode": "S14",
    "stateName": "Manipur",
    "districtCode": "S1413",
    "districtName": "Tengnoupal",
    "acNumber": 42,
    "acName": "Tengnoupal",
    "partNumber": 65,
    "partName": "Moreh Ward No. VII (A)",
    "lat": 24.3847802,
    "lon": 94.1472634
  },
  {
    "partId": 3160,
    "stateCode": "S14",
    "stateName": "Manipur",
    "districtCode": "S1413",
    "districtName": "Tengnoupal",
    "acNumber": 42,
    "acName": "Tengnoupal",
    "partNumber": 66,
    "partName": "Moreh Ward No. VII (B)",
    "lat": 24.3847802,
    "lon": 94.1472634
  },
  {
    "partId": 3161,
    "stateCode": "S14",
    "stateName": "Manipur",
    "districtCode": "S1413",
    "districtName": "Tengnoupal",
    "acNumber": 42,
    "acName": "Tengnoupal",
    "partNumber": 67,
    "partName": "Moreh Ward No. VII (C)",
    "lat": 24.3847802,
    "lon": 94.1472634
  },
  {
    "partId": 3162,
    "stateCode": "S14",
    "stateName": "Manipur",
    "districtCode": "S1413",
    "districtName": "Tengnoupal",
    "acNumber": 42,
    "acName": "Tengnoupal",
    "partNumber": 68,
    "partName": "Moreh Ward No. VII (D)",
    "lat": 24.3847802,
    "lon": 94.1472634
  },
  {
    "partId": 3163,
    "stateCode": "S14",
    "stateName": "Manipur",
    "districtCode": "S1413",
    "districtName": "Tengnoupal",
    "acNumber": 42,
    "acName": "Tengnoupal",
    "partNumber": 69,
    "partName": "Moreh Ward No. VIII",
    "lat": 24.3847802,
    "lon": 94.1472634
  },
  {
    "partId": 3164,
    "stateCode": "S14",
    "stateName": "Manipur",
    "districtCode": "S1413",
    "districtName": "Tengnoupal",
    "acNumber": 42,
    "acName": "Tengnoupal",
    "partNumber": 70,
    "partName": "Moreh Ward No. IX (A)",
    "lat": 24.3847802,
    "lon": 94.1472634
  },
  {
    "partId": 3165,
    "stateCode": "S14",
    "stateName": "Manipur",
    "districtCode": "S1413",
    "districtName": "Tengnoupal",
    "acNumber": 42,
    "acName": "Tengnoupal",
    "partNumber": 71,
    "partName": "Moreh Ward No. IX (B)",
    "lat": 24.3847802,
    "lon": 94.1472634
  },
  {
    "partId": 3166,
    "stateCode": "S14",
    "stateName": "Manipur",
    "districtCode": "S1413",
    "districtName": "Tengnoupal",
    "acNumber": 42,
    "acName": "Tengnoupal",
    "partNumber": 72,
    "partName": "T. Bongmol",
    "lat": 24.530138,
    "lon": 94.2036449
  },
  {
    "partId": 3167,
    "stateCode": "S14",
    "stateName": "Manipur",
    "districtCode": "S1413",
    "districtName": "Tengnoupal",
    "acNumber": 42,
    "acName": "Tengnoupal",
    "partNumber": 73,
    "partName": "T. Khonomjang",
    "lat": 24.3847802,
    "lon": 94.1472634
  },
  {
    "partId": 3171,
    "stateCode": "S14",
    "stateName": "Manipur",
    "districtCode": "S1413",
    "districtName": "Tengnoupal",
    "acNumber": 42,
    "acName": "Tengnoupal",
    "partNumber": 74,
    "partName": "D. Mounnaphai",
    "lat": 24.3847802,
    "lon": 94.1472634
  }
]