[
  {
    "partId": 35756,
    "stateCode": "S19",
    "stateName": "Punjab",
    "districtCode": "S1915",
    "districtName": "Faridkot",
    "acNumber": 87,
    "acName": "Faridkot",
    "partNumber": 1,
    "partName": "Araian Wala Khurd",
    "lat": 30.6729772,
    "lon": 74.7517033
  },
  {
    "partId": 35757,
    "stateCode": "S19",
    "stateName": "Punjab",
    "districtCode": "S1915",
    "districtName": "Faridkot",
    "acNumber": 87,
    "acName": "Faridkot",
    "partNumber": 2,
    "partName": "Gujjar",
    "lat": 30.7860874,
    "lon": 74.576869
  },
  {
    "partId": 35758,
    "stateCode": "S19",
    "stateName": "Punjab",
    "districtCode": "S1915",
    "districtName": "Faridkot",
    "acNumber": 87,
    "acName": "Faridkot",
    "partNumber": 3,
    "partName": "Mumara",
    "lat": 30.7925022,
    "lon": 74.5891856
  },
  {
    "partId": 35759,
    "stateCode": "S19",
    "stateName": "Punjab",
    "districtCode": "S1915",
    "districtName": "Faridkot",
    "acNumber": 87,
    "acName": "Faridkot",
    "partNumber": 4,
    "partName": "Sadhanwala",
    "lat": 30.8147664,
    "lon": 74.6375083
  },
  {
    "partId": 35760,
    "stateCode": "S19",
    "stateName": "Punjab",
    "districtCode": "S1915",
    "districtName": "Faridkot",
    "acNumber": 87,
    "acName": "Faridkot",
    "partNumber": 5,
    "partName": "Sadhanwala",
    "lat": 30.8147664,
    "lon": 74.6375083
  },
  {
    "partId": 35761,
    "stateCode": "S19",
    "stateName": "Punjab",
    "districtCode": "S1915",
    "districtName": "Faridkot",
    "acNumber": 87,
    "acName": "Faridkot",
    "partNumber": 6,
    "partName": "Jhariwala",
    "lat": 30.8252884,
    "lon": 74.6659183
  },
  {
    "partId": 35762,
    "stateCode": "S19",
    "stateName": "Punjab",
    "districtCode": "S1915",
    "districtName": "Faridkot",
    "acNumber": 87,
    "acName": "Faridkot",
    "partNumber": 7,
    "partName": "Kabalwala",
    "lat": 30.8184229,
    "lon": 74.7155982
  },
  {
    "partId": 35763,
    "stateCode": "S19",
    "stateName": "Punjab",
    "districtCode": "S1915",
    "districtName": "Faridkot",
    "acNumber": 87,
    "acName": "Faridkot",
    "partNumber": 8,
    "partName": "Hassan Bhatti",
    "lat": 30.809904,
    "lon": 74.7393401
  },
  {
    "partId": 35764,
    "stateCode": "S19",
    "stateName": "Punjab",
    "districtCode": "S1915",
    "districtName": "Faridkot",
    "acNumber": 87,
    "acName": "Faridkot",
    "partNumber": 9,
    "partName": "Pehluwala",
    "lat": 30.8008433,
    "lon": 74.7663634
  },
  {
    "partId": 35765,
    "stateCode": "S19",
    "stateName": "Punjab",
    "districtCode": "S1915",
    "districtName": "Faridkot",
    "acNumber": 87,
    "acName": "Faridkot",
    "partNumber": 10,
    "partName": "Pehluwala",
    "lat": 30.8008433,
    "lon": 74.7663634
  },
  {
    "partId": 35766,
    "stateCode": "S19",
    "stateName": "Punjab",
    "districtCode": "S1915",
    "districtName": "Faridkot",
    "acNumber": 87,
    "acName": "Faridkot",
    "partNumber": 11,
    "partName": "Bhagthala Khurd",
    "lat": 30.779939,
    "lon": 74.7865416
  },
  {
    "partId": 35767,
    "stateCode": "S19",
    "stateName": "Punjab",
    "districtCode": "S1915",
    "districtName": "Faridkot",
    "acNumber": 87,
    "acName": "Faridkot",
    "partNumber": 12,
    "partName": "Bhagthala Kalan",
    "lat": 30.7747839,
    "lon": 74.7893043
  },
  {
    "partId": 35768,
    "stateCode": "S19",
    "stateName": "Punjab",
    "districtCode": "S1915",
    "districtName": "Faridkot",
    "acNumber": 87,
    "acName": "Faridkot",
    "partNumber": 13,
    "partName": "Pakhi Kalan",
    "lat": 30.7538479,
    "lon": 74.758998
  },
  {
    "partId": 35769,
    "stateCode": "S19",
    "stateName": "Punjab",
    "districtCode": "S1915",
    "districtName": "Faridkot",
    "acNumber": 87,
    "acName": "Faridkot",
    "partNumber": 14,
    "partName": "Pakhi Kalan",
    "lat": 30.7538479,
    "lon": 74.758998
  },
  {
    "partId": 35770,
    "stateCode": "S19",
    "stateName": "Punjab",
    "districtCode": "S1915",
    "districtName": "Faridkot",
    "acNumber": 87,
    "acName": "Faridkot",
    "partNumber": 15,
    "partName": "Pakhi Kalan",
    "lat": 30.7538479,
    "lon": 74.758998
  },
  {
    "partId": 35771,
    "stateCode": "S19",
    "stateName": "Punjab",
    "districtCode": "S1915",
    "districtName": "Faridkot",
    "acNumber": 87,
    "acName": "Faridkot",
    "partNumber": 16,
    "partName": "Pakhi Kalan",
    "lat": 30.7538479,
    "lon": 74.758998
  },
  {
    "partId": 35772,
    "stateCode": "S19",
    "stateName": "Punjab",
    "districtCode": "S1915",
    "districtName": "Faridkot",
    "acNumber": 87,
    "acName": "Faridkot",
    "partNumber": 17,
    "partName": "Hardyaleana",
    "lat": 30.6729772,
    "lon": 74.7517033
  },
  {
    "partId": 35773,
    "stateCode": "S19",
    "stateName": "Punjab",
    "districtCode": "S1915",
    "districtName": "Faridkot",
    "acNumber": 87,
    "acName": "Faridkot",
    "partNumber": 18,
    "partName": "Golewala",
    "lat": 30.7880782,
    "lon": 74.7027612
  },
  {
    "partId": 35774,
    "stateCode": "S19",
    "stateName": "Punjab",
    "districtCode": "S1915",
    "districtName": "Faridkot",
    "acNumber": 87,
    "acName": "Faridkot",
    "partNumber": 19,
    "partName": "Golewala",
    "lat": 30.7880782,
    "lon": 74.7027612
  },
  {
    "partId": 35775,
    "stateCode": "S19",
    "stateName": "Punjab",
    "districtCode": "S1915",
    "districtName": "Faridkot",
    "acNumber": 87,
    "acName": "Faridkot",
    "partNumber": 20,
    "partName": "Golewala",
    "lat": 30.7880782,
    "lon": 74.7027612
  },
  {
    "partId": 35776,
    "stateCode": "S19",
    "stateName": "Punjab",
    "districtCode": "S1915",
    "districtName": "Faridkot",
    "acNumber": 87,
    "acName": "Faridkot",
    "partNumber": 21,
    "partName": "Golewala",
    "lat": 30.7880782,
    "lon": 74.7027612
  },
  {
    "partId": 35777,
    "stateCode": "S19",
    "stateName": "Punjab",
    "districtCode": "S1915",
    "districtName": "Faridkot",
    "acNumber": 87,
    "acName": "Faridkot",
    "partNumber": 22,
    "partName": "Golewala",
    "lat": 30.7880782,
    "lon": 74.7027612
  },
  {
    "partId": 35778,
    "stateCode": "S19",
    "stateName": "Punjab",
    "districtCode": "S1915",
    "districtName": "Faridkot",
    "acNumber": 87,
    "acName": "Faridkot",
    "partNumber": 23,
    "partName": "Golewala",
    "lat": 30.7880782,
    "lon": 74.7027612
  },
  {
    "partId": 35779,
    "stateCode": "S19",
    "stateName": "Punjab",
    "districtCode": "S1915",
    "districtName": "Faridkot",
    "acNumber": 87,
    "acName": "Faridkot",
    "partNumber": 24,
    "partName": "Dalewala",
    "lat": 30.6729772,
    "lon": 74.7517033
  },
  {
    "partId": 35780,
    "stateCode": "S19",
    "stateName": "Punjab",
    "districtCode": "S1915",
    "districtName": "Faridkot",
    "acNumber": 87,
    "acName": "Faridkot",
    "partNumber": 25,
    "partName": "Nathalwala",
    "lat": 30.7888857,
    "lon": 74.6747446
  },
  {
    "partId": 35781,
    "stateCode": "S19",
    "stateName": "Punjab",
    "districtCode": "S1915",
    "districtName": "Faridkot",
    "acNumber": 87,
    "acName": "Faridkot",
    "partNumber": 26,
    "partName": "Pakhi KHURD",
    "lat": 30.7930367,
    "lon": 74.6435487
  },
  {
    "partId": 35782,
    "stateCode": "S19",
    "stateName": "Punjab",
    "districtCode": "S1915",
    "districtName": "Faridkot",
    "acNumber": 87,
    "acName": "Faridkot",
    "partNumber": 27,
    "partName": "Channian",
    "lat": 30.7760219,
    "lon": 74.5869112
  },
  {
    "partId": 35783,
    "stateCode": "S19",
    "stateName": "Punjab",
    "districtCode": "S1915",
    "districtName": "Faridkot",
    "acNumber": 87,
    "acName": "Faridkot",
    "partNumber": 28,
    "partName": "Butter",
    "lat": 30.7754389,
    "lon": 74.5610922
  },
  {
    "partId": 35784,
    "stateCode": "S19",
    "stateName": "Punjab",
    "districtCode": "S1915",
    "districtName": "Faridkot",
    "acNumber": 87,
    "acName": "Faridkot",
    "partNumber": 29,
    "partName": "Jhok Sarkari",
    "lat": 30.766398,
    "lon": 74.5428371
  },
  {
    "partId": 35785,
    "stateCode": "S19",
    "stateName": "Punjab",
    "districtCode": "S1915",
    "districtName": "Faridkot",
    "acNumber": 87,
    "acName": "Faridkot",
    "partNumber": 30,
    "partName": "Saide Ke",
    "lat": 30.763331,
    "lon": 74.5149091
  },
  {
    "partId": 35786,
    "stateCode": "S19",
    "stateName": "Punjab",
    "districtCode": "S1915",
    "districtName": "Faridkot",
    "acNumber": 87,
    "acName": "Faridkot",
    "partNumber": 31,
    "partName": "Deep Singh Wala",
    "lat": 30.7429784,
    "lon": 74.4814199
  },
  {
    "partId": 35787,
    "stateCode": "S19",
    "stateName": "Punjab",
    "districtCode": "S1915",
    "districtName": "Faridkot",
    "acNumber": 87,
    "acName": "Faridkot",
    "partNumber": 32,
    "partName": "Deep Singh Wala",
    "lat": 30.7429784,
    "lon": 74.4814199
  },
  {
    "partId": 35788,
    "stateCode": "S19",
    "stateName": "Punjab",
    "districtCode": "S1915",
    "districtName": "Faridkot",
    "acNumber": 87,
    "acName": "Faridkot",
    "partNumber": 33,
    "partName": "Deep Singh Wala",
    "lat": 30.7429784,
    "lon": 74.4814199
  },
  {
    "partId": 35789,
    "stateCode": "S19",
    "stateName": "Punjab",
    "districtCode": "S1915",
    "districtName": "Faridkot",
    "acNumber": 87,
    "acName": "Faridkot",
    "partNumber": 34,
    "partName": "Kauni",
    "lat": 30.7579684,
    "lon": 74.5438038
  },
  {
    "partId": 35790,
    "stateCode": "S19",
    "stateName": "Punjab",
    "districtCode": "S1915",
    "districtName": "Faridkot",
    "acNumber": 87,
    "acName": "Faridkot",
    "partNumber": 35,
    "partName": "Kauni",
    "lat": 30.7579684,
    "lon": 74.5438038
  },
  {
    "partId": 35791,
    "stateCode": "S19",
    "stateName": "Punjab",
    "districtCode": "S1915",
    "districtName": "Faridkot",
    "acNumber": 87,
    "acName": "Faridkot",
    "partNumber": 36,
    "partName": "Sangrahur",
    "lat": 30.7588751,
    "lon": 74.5770835
  },
  {
    "partId": 35792,
    "stateCode": "S19",
    "stateName": "Punjab",
    "districtCode": "S1915",
    "districtName": "Faridkot",
    "acNumber": 87,
    "acName": "Faridkot",
    "partNumber": 37,
    "partName": "Dod",
    "lat": 30.4705741,
    "lon": 75.0153941
  },
  {
    "partId": 35793,
    "stateCode": "S19",
    "stateName": "Punjab",
    "districtCode": "S1915",
    "districtName": "Faridkot",
    "acNumber": 87,
    "acName": "Faridkot",
    "partNumber": 38,
    "partName": "Dod",
    "lat": 30.4705741,
    "lon": 75.0153941
  },
  {
    "partId": 35794,
    "stateCode": "S19",
    "stateName": "Punjab",
    "districtCode": "S1915",
    "districtName": "Faridkot",
    "acNumber": 87,
    "acName": "Faridkot",
    "partNumber": 39,
    "partName": "Simrewala",
    "lat": 30.6729772,
    "lon": 74.7517033
  },
  {
    "partId": 35795,
    "stateCode": "S19",
    "stateName": "Punjab",
    "districtCode": "S1915",
    "districtName": "Faridkot",
    "acNumber": 87,
    "acName": "Faridkot",
    "partNumber": 40,
    "partName": "Ghugiana",
    "lat": 30.7447127,
    "lon": 74.6433448
  },
  {
    "partId": 35796,
    "stateCode": "S19",
    "stateName": "Punjab",
    "districtCode": "S1915",
    "districtName": "Faridkot",
    "acNumber": 87,
    "acName": "Faridkot",
    "partNumber": 41,
    "partName": "Ghugiana",
    "lat": 30.7447127,
    "lon": 74.6433448
  },
  {
    "partId": 35797,
    "stateCode": "S19",
    "stateName": "Punjab",
    "districtCode": "S1915",
    "districtName": "Faridkot",
    "acNumber": 87,
    "acName": "Faridkot",
    "partNumber": 42,
    "partName": "Beguwala",
    "lat": 30.7623784,
    "lon": 74.6594381
  },
  {
    "partId": 35798,
    "stateCode": "S19",
    "stateName": "Punjab",
    "districtCode": "S1915",
    "districtName": "Faridkot",
    "acNumber": 87,
    "acName": "Faridkot",
    "partNumber": 43,
    "partName": "Rajowala",
    "lat": 30.7689574,
    "lon": 74.7123934
  },
  {
    "partId": 35799,
    "stateCode": "S19",
    "stateName": "Punjab",
    "districtCode": "S1915",
    "districtName": "Faridkot",
    "acNumber": 87,
    "acName": "Faridkot",
    "partNumber": 44,
    "partName": "Pipli",
    "lat": 30.7345777,
    "lon": 74.7351341
  },
  {
    "partId": 35800,
    "stateCode": "S19",
    "stateName": "Punjab",
    "districtCode": "S1915",
    "districtName": "Faridkot",
    "acNumber": 87,
    "acName": "Faridkot",
    "partNumber": 45,
    "partName": "Pipli",
    "lat": 30.7345777,
    "lon": 74.7351341
  },
  {
    "partId": 35801,
    "stateCode": "S19",
    "stateName": "Punjab",
    "districtCode": "S1915",
    "districtName": "Faridkot",
    "acNumber": 87,
    "acName": "Faridkot",
    "partNumber": 46,
    "partName": "Pipli",
    "lat": 30.7345777,
    "lon": 74.7351341
  },
  {
    "partId": 35802,
    "stateCode": "S19",
    "stateName": "Punjab",
    "districtCode": "S1915",
    "districtName": "Faridkot",
    "acNumber": 87,
    "acName": "Faridkot",
    "partNumber": 47,
    "partName": "Bholuwala",
    "lat": 30.7326467,
    "lon": 74.7765326
  },
  {
    "partId": 35803,
    "stateCode": "S19",
    "stateName": "Punjab",
    "districtCode": "S1915",
    "districtName": "Faridkot",
    "acNumber": 87,
    "acName": "Faridkot",
    "partNumber": 48,
    "partName": "Araian Wala Kalan",
    "lat": 30.6729772,
    "lon": 74.7517033
  },
  {
    "partId": 35804,
    "stateCode": "S19",
    "stateName": "Punjab",
    "districtCode": "S1915",
    "districtName": "Faridkot",
    "acNumber": 87,
    "acName": "Faridkot",
    "partNumber": 49,
    "partName": "Araian Wala Kalan",
    "lat": 30.6729772,
    "lon": 74.7517033
  },
  {
    "partId": 35805,
    "stateCode": "S19",
    "stateName": "Punjab",
    "districtCode": "S1915",
    "districtName": "Faridkot",
    "acNumber": 87,
    "acName": "Faridkot",
    "partNumber": 50,
    "partName": "Araian Wala Kalan",
    "lat": 30.6729772,
    "lon": 74.7517033
  },
  {
    "partId": 35806,
    "stateCode": "S19",
    "stateName": "Punjab",
    "districtCode": "S1915",
    "districtName": "Faridkot",
    "acNumber": 87,
    "acName": "Faridkot",
    "partNumber": 51,
    "partName": "Araian Wala Kalan",
    "lat": 30.6729772,
    "lon": 74.7517033
  },
  {
    "partId": 35807,
    "stateCode": "S19",
    "stateName": "Punjab",
    "districtCode": "S1915",
    "districtName": "Faridkot",
    "acNumber": 87,
    "acName": "Faridkot",
    "partNumber": 52,
    "partName": "Araian Wala Kalan",
    "lat": 30.6729772,
    "lon": 74.7517033
  },
  {
    "partId": 35808,
    "stateCode": "S19",
    "stateName": "Punjab",
    "districtCode": "S1915",
    "districtName": "Faridkot",
    "acNumber": 87,
    "acName": "Faridkot",
    "partNumber": 53,
    "partName": "Burj Masta",
    "lat": 30.7282076,
    "lon": 74.6721855
  },
  {
    "partId": 35809,
    "stateCode": "S19",
    "stateName": "Punjab",
    "districtCode": "S1915",
    "districtName": "Faridkot",
    "acNumber": 87,
    "acName": "Faridkot",
    "partNumber": 54,
    "partName": "Jhotiwala",
    "lat": 30.7270807,
    "lon": 74.6431303
  },
  {
    "partId": 35810,
    "stateCode": "S19",
    "stateName": "Punjab",
    "districtCode": "S1915",
    "districtName": "Faridkot",
    "acNumber": 87,
    "acName": "Faridkot",
    "partNumber": 55,
    "partName": "Jhotiwala",
    "lat": 30.7270807,
    "lon": 74.6431303
  },
  {
    "partId": 35811,
    "stateCode": "S19",
    "stateName": "Punjab",
    "districtCode": "S1915",
    "districtName": "Faridkot",
    "acNumber": 87,
    "acName": "Faridkot",
    "partNumber": 56,
    "partName": "Dhilwan Khurd",
    "lat": 30.7406923,
    "lon": 74.604721
  },
  {
    "partId": 35812,
    "stateCode": "S19",
    "stateName": "Punjab",
    "districtCode": "S1915",
    "districtName": "Faridkot",
    "acNumber": 87,
    "acName": "Faridkot",
    "partNumber": 57,
    "partName": "Janerian",
    "lat": 30.7403604,
    "lon": 74.5842074
  },
  {
    "partId": 35813,
    "stateCode": "S19",
    "stateName": "Punjab",
    "districtCode": "S1915",
    "districtName": "Faridkot",
    "acNumber": 87,
    "acName": "Faridkot",
    "partNumber": 58,
    "partName": "Rupaian Wali",
    "lat": 30.6729772,
    "lon": 74.7517033
  },
  {
    "partId": 35814,
    "stateCode": "S19",
    "stateName": "Punjab",
    "districtCode": "S1915",
    "districtName": "Faridkot",
    "acNumber": 87,
    "acName": "Faridkot",
    "partNumber": 59,
    "partName": "Ahel",
    "lat": 30.711828,
    "lon": 74.5040658
  },
  {
    "partId": 35815,
    "stateCode": "S19",
    "stateName": "Punjab",
    "districtCode": "S1915",
    "districtName": "Faridkot",
    "acNumber": 87,
    "acName": "Faridkot",
    "partNumber": 60,
    "partName": "Kanian Wali",
    "lat": 30.6970441,
    "lon": 74.4809425
  },
  {
    "partId": 35816,
    "stateCode": "S19",
    "stateName": "Punjab",
    "districtCode": "S1915",
    "districtName": "Faridkot",
    "acNumber": 87,
    "acName": "Faridkot",
    "partNumber": 61,
    "partName": "Sangatpura",
    "lat": 30.7143069,
    "lon": 74.545966
  },
  {
    "partId": 35817,
    "stateCode": "S19",
    "stateName": "Punjab",
    "districtCode": "S1915",
    "districtName": "Faridkot",
    "acNumber": 87,
    "acName": "Faridkot",
    "partNumber": 62,
    "partName": "Sadiq",
    "lat": 30.7122762,
    "lon": 74.580524
  },
  {
    "partId": 35818,
    "stateCode": "S19",
    "stateName": "Punjab",
    "districtCode": "S1915",
    "districtName": "Faridkot",
    "acNumber": 87,
    "acName": "Faridkot",
    "partNumber": 63,
    "partName": "Sadiq",
    "lat": 30.7122762,
    "lon": 74.580524
  },
  {
    "partId": 35819,
    "stateCode": "S19",
    "stateName": "Punjab",
    "districtCode": "S1915",
    "districtName": "Faridkot",
    "acNumber": 87,
    "acName": "Faridkot",
    "partNumber": 64,
    "partName": "Sadiq",
    "lat": 30.7122762,
    "lon": 74.580524
  },
  {
    "partId": 35820,
    "stateCode": "S19",
    "stateName": "Punjab",
    "districtCode": "S1915",
    "districtName": "Faridkot",
    "acNumber": 87,
    "acName": "Faridkot",
    "partNumber": 65,
    "partName": "Sadiq",
    "lat": 30.7122762,
    "lon": 74.580524
  },
  {
    "partId": 35821,
    "stateCode": "S19",
    "stateName": "Punjab",
    "districtCode": "S1915",
    "districtName": "Faridkot",
    "acNumber": 87,
    "acName": "Faridkot",
    "partNumber": 66,
    "partName": "Sadiq",
    "lat": 30.7122762,
    "lon": 74.580524
  },
  {
    "partId": 35822,
    "stateCode": "S19",
    "stateName": "Punjab",
    "districtCode": "S1915",
    "districtName": "Faridkot",
    "acNumber": 87,
    "acName": "Faridkot",
    "partNumber": 67,
    "partName": "Sadiq",
    "lat": 30.7122762,
    "lon": 74.580524
  },
  {
    "partId": 35823,
    "stateCode": "S19",
    "stateName": "Punjab",
    "districtCode": "S1915",
    "districtName": "Faridkot",
    "acNumber": 87,
    "acName": "Faridkot",
    "partNumber": 68,
    "partName": "Sadhu Wala",
    "lat": 30.6729772,
    "lon": 74.7517033
  },
  {
    "partId": 35824,
    "stateCode": "S19",
    "stateName": "Punjab",
    "districtCode": "S1915",
    "districtName": "Faridkot",
    "acNumber": 87,
    "acName": "Faridkot",
    "partNumber": 69,
    "partName": "Jand wala",
    "lat": 30.6907771,
    "lon": 74.5266092
  },
  {
    "partId": 35825,
    "stateCode": "S19",
    "stateName": "Punjab",
    "districtCode": "S1915",
    "districtName": "Faridkot",
    "acNumber": 87,
    "acName": "Faridkot",
    "partNumber": 70,
    "partName": "Midumaan",
    "lat": 30.6729772,
    "lon": 74.7517033
  },
  {
    "partId": 35826,
    "stateCode": "S19",
    "stateName": "Punjab",
    "districtCode": "S1915",
    "districtName": "Faridkot",
    "acNumber": 87,
    "acName": "Faridkot",
    "partNumber": 71,
    "partName": "Machaki Khurd",
    "lat": 30.7063047,
    "lon": 74.6739009
  },
  {
    "partId": 35827,
    "stateCode": "S19",
    "stateName": "Punjab",
    "districtCode": "S1915",
    "districtName": "Faridkot",
    "acNumber": 87,
    "acName": "Faridkot",
    "partNumber": 72,
    "partName": "Mahimuana",
    "lat": 30.6729772,
    "lon": 74.7517033
  },
  {
    "partId": 35828,
    "stateCode": "S19",
    "stateName": "Punjab",
    "districtCode": "S1915",
    "districtName": "Faridkot",
    "acNumber": 87,
    "acName": "Faridkot",
    "partNumber": 73,
    "partName": "Mahimuana",
    "lat": 30.6729772,
    "lon": 74.7517033
  },
  {
    "partId": 35829,
    "stateCode": "S19",
    "stateName": "Punjab",
    "districtCode": "S1915",
    "districtName": "Faridkot",
    "acNumber": 87,
    "acName": "Faridkot",
    "partNumber": 74,
    "partName": "Maani Singh Wala",
    "lat": 30.6729772,
    "lon": 74.7517033
  },
  {
    "partId": 35830,
    "stateCode": "S19",
    "stateName": "Punjab",
    "districtCode": "S1915",
    "districtName": "Faridkot",
    "acNumber": 87,
    "acName": "Faridkot",
    "partNumber": 75,
    "partName": "Maani Singh Wala",
    "lat": 30.6729772,
    "lon": 74.7517033
  },
  {
    "partId": 35831,
    "stateCode": "S19",
    "stateName": "Punjab",
    "districtCode": "S1915",
    "districtName": "Faridkot",
    "acNumber": 87,
    "acName": "Faridkot",
    "partNumber": 76,
    "partName": "Ghuduwala",
    "lat": 30.6984494,
    "lon": 74.5533942
  },
  {
    "partId": 35832,
    "stateCode": "S19",
    "stateName": "Punjab",
    "districtCode": "S1915",
    "districtName": "Faridkot",
    "acNumber": 87,
    "acName": "Faridkot",
    "partNumber": 77,
    "partName": "Marar",
    "lat": 30.709593,
    "lon": 74.5313357
  },
  {
    "partId": 35833,
    "stateCode": "S19",
    "stateName": "Punjab",
    "districtCode": "S1915",
    "districtName": "Faridkot",
    "acNumber": 87,
    "acName": "Faridkot",
    "partNumber": 78,
    "partName": "Marar",
    "lat": 30.709593,
    "lon": 74.5313357
  },
  {
    "partId": 35834,
    "stateCode": "S19",
    "stateName": "Punjab",
    "districtCode": "S1915",
    "districtName": "Faridkot",
    "acNumber": 87,
    "acName": "Faridkot",
    "partNumber": 79,
    "partName": "Pindi Balochan",
    "lat": 30.6878212,
    "lon": 74.5012092
  },
  {
    "partId": 35835,
    "stateCode": "S19",
    "stateName": "Punjab",
    "districtCode": "S1915",
    "districtName": "Faridkot",
    "acNumber": 87,
    "acName": "Faridkot",
    "partNumber": 80,
    "partName": "Pindi Balochan",
    "lat": 30.6878212,
    "lon": 74.5012092
  },
  {
    "partId": 35836,
    "stateCode": "S19",
    "stateName": "Punjab",
    "districtCode": "S1915",
    "districtName": "Faridkot",
    "acNumber": 87,
    "acName": "Faridkot",
    "partNumber": 81,
    "partName": "Veerewala Kalan",
    "lat": 30.6729772,
    "lon": 74.7517033
  },
  {
    "partId": 35837,
    "stateCode": "S19",
    "stateName": "Punjab",
    "districtCode": "S1915",
    "districtName": "Faridkot",
    "acNumber": 87,
    "acName": "Faridkot",
    "partNumber": 82,
    "partName": "Bhag Singh Wala",
    "lat": 30.6729772,
    "lon": 74.7517033
  },
  {
    "partId": 35838,
    "stateCode": "S19",
    "stateName": "Punjab",
    "districtCode": "S1915",
    "districtName": "Faridkot",
    "acNumber": 87,
    "acName": "Faridkot",
    "partNumber": 83,
    "partName": "Kingra",
    "lat": 30.6760108,
    "lon": 74.5692729
  },
  {
    "partId": 35839,
    "stateCode": "S19",
    "stateName": "Punjab",
    "districtCode": "S1915",
    "districtName": "Faridkot",
    "acNumber": 87,
    "acName": "Faridkot",
    "partNumber": 84,
    "partName": "Kingra",
    "lat": 30.6760108,
    "lon": 74.5692729
  },
  {
    "partId": 35840,
    "stateCode": "S19",
    "stateName": "Punjab",
    "districtCode": "S1915",
    "districtName": "Faridkot",
    "acNumber": 87,
    "acName": "Faridkot",
    "partNumber": 85,
    "partName": "Behlewala",
    "lat": 30.6729772,
    "lon": 74.7517033
  },
  {
    "partId": 35841,
    "stateCode": "S19",
    "stateName": "Punjab",
    "districtCode": "S1915",
    "districtName": "Faridkot",
    "acNumber": 87,
    "acName": "Faridkot",
    "partNumber": 86,
    "partName": "Behlewala",
    "lat": 30.6729772,
    "lon": 74.7517033
  },
  {
    "partId": 35842,
    "stateCode": "S19",
    "stateName": "Punjab",
    "districtCode": "S1915",
    "districtName": "Faridkot",
    "acNumber": 87,
    "acName": "Faridkot",
    "partNumber": 87,
    "partName": "Sher Singh Wala",
    "lat": 30.6729772,
    "lon": 74.7517033
  },
  {
    "partId": 35843,
    "stateCode": "S19",
    "stateName": "Punjab",
    "districtCode": "S1915",
    "districtName": "Faridkot",
    "acNumber": 87,
    "acName": "Faridkot",
    "partNumber": 88,
    "partName": "Sher Singh Wala",
    "lat": 30.6729772,
    "lon": 74.7517033
  },
  {
    "partId": 35844,
    "stateCode": "S19",
    "stateName": "Punjab",
    "districtCode": "S1915",
    "districtName": "Faridkot",
    "acNumber": 87,
    "acName": "Faridkot",
    "partNumber": 89,
    "partName": "Machaki Kalan",
    "lat": 30.6906998,
    "lon": 74.6646308
  },
  {
    "partId": 35845,
    "stateCode": "S19",
    "stateName": "Punjab",
    "districtCode": "S1915",
    "districtName": "Faridkot",
    "acNumber": 87,
    "acName": "Faridkot",
    "partNumber": 90,
    "partName": "Machaki Kalan",
    "lat": 30.6906998,
    "lon": 74.6646308
  },
  {
    "partId": 35846,
    "stateCode": "S19",
    "stateName": "Punjab",
    "districtCode": "S1915",
    "districtName": "Faridkot",
    "acNumber": 87,
    "acName": "Faridkot",
    "partNumber": 91,
    "partName": "Machaki Kalan",
    "lat": 30.6906998,
    "lon": 74.6646308
  },
  {
    "partId": 35847,
    "stateCode": "S19",
    "stateName": "Punjab",
    "districtCode": "S1915",
    "districtName": "Faridkot",
    "acNumber": 87,
    "acName": "Faridkot",
    "partNumber": 92,
    "partName": "Chet Singh Wala",
    "lat": 30.6620566,
    "lon": 74.6608503
  },
  {
    "partId": 35848,
    "stateCode": "S19",
    "stateName": "Punjab",
    "districtCode": "S1915",
    "districtName": "Faridkot",
    "acNumber": 87,
    "acName": "Faridkot",
    "partNumber": 93,
    "partName": "Dhab Sher Singh Wala",
    "lat": 30.6729772,
    "lon": 74.7517033
  },
  {
    "partId": 35849,
    "stateCode": "S19",
    "stateName": "Punjab",
    "districtCode": "S1915",
    "districtName": "Faridkot",
    "acNumber": 87,
    "acName": "Faridkot",
    "partNumber": 94,
    "partName": "Sukhanwala",
    "lat": 30.6353273,
    "lon": 74.6449756
  },
  {
    "partId": 35850,
    "stateCode": "S19",
    "stateName": "Punjab",
    "districtCode": "S1915",
    "districtName": "Faridkot",
    "acNumber": 87,
    "acName": "Faridkot",
    "partNumber": 95,
    "partName": "Sukhanwala",
    "lat": 30.6353273,
    "lon": 74.6449756
  },
  {
    "partId": 35851,
    "stateCode": "S19",
    "stateName": "Punjab",
    "districtCode": "S1915",
    "districtName": "Faridkot",
    "acNumber": 87,
    "acName": "Faridkot",
    "partNumber": 96,
    "partName": "Sukhanwala",
    "lat": 30.6353273,
    "lon": 74.6449756
  },
  {
    "partId": 35852,
    "stateCode": "S19",
    "stateName": "Punjab",
    "districtCode": "S1915",
    "districtName": "Faridkot",
    "acNumber": 87,
    "acName": "Faridkot",
    "partNumber": 97,
    "partName": "Qila Nau",
    "lat": 30.696997003910614,
    "lon": 74.70783898401055
  },
  {
    "partId": 35853,
    "stateCode": "S19",
    "stateName": "Punjab",
    "districtCode": "S1915",
    "districtName": "Faridkot",
    "acNumber": 87,
    "acName": "Faridkot",
    "partNumber": 98,
    "partName": "Qila Nau",
    "lat": 30.6014507,
    "lon": 74.79501756894368
  },
  {
    "partId": 35854,
    "stateCode": "S19",
    "stateName": "Punjab",
    "districtCode": "S1915",
    "districtName": "Faridkot",
    "acNumber": 87,
    "acName": "Faridkot",
    "partNumber": 99,
    "partName": "Qila Nau",
    "lat": 30.696997003910614,
    "lon": 74.70783898401055
  },
  {
    "partId": 35855,
    "stateCode": "S19",
    "stateName": "Punjab",
    "districtCode": "S1915",
    "districtName": "Faridkot",
    "acNumber": 87,
    "acName": "Faridkot",
    "partNumber": 100,
    "partName": "Faridkot",
    "lat": 30.696997003910614,
    "lon": 74.70783898401055
  },
  {
    "partId": 35856,
    "stateCode": "S19",
    "stateName": "Punjab",
    "districtCode": "S1915",
    "districtName": "Faridkot",
    "acNumber": 87,
    "acName": "Faridkot",
    "partNumber": 101,
    "partName": "Faridkot",
    "lat": 30.6729772,
    "lon": 74.7517033
  },
  {
    "partId": 35857,
    "stateCode": "S19",
    "stateName": "Punjab",
    "districtCode": "S1915",
    "districtName": "Faridkot",
    "acNumber": 87,
    "acName": "Faridkot",
    "partNumber": 102,
    "partName": "Faridkot",
    "lat": 30.6729772,
    "lon": 74.7517033
  },
  {
    "partId": 35858,
    "stateCode": "S19",
    "stateName": "Punjab",
    "districtCode": "S1915",
    "districtName": "Faridkot",
    "acNumber": 87,
    "acName": "Faridkot",
    "partNumber": 103,
    "partName": "Faridkot",
    "lat": 30.6729772,
    "lon": 74.7517033
  },
  {
    "partId": 35859,
    "stateCode": "S19",
    "stateName": "Punjab",
    "districtCode": "S1915",
    "districtName": "Faridkot",
    "acNumber": 87,
    "acName": "Faridkot",
    "partNumber": 104,
    "partName": "Faridkot",
    "lat": 30.6729772,
    "lon": 74.7517033
  },
  {
    "partId": 35860,
    "stateCode": "S19",
    "stateName": "Punjab",
    "districtCode": "S1915",
    "districtName": "Faridkot",
    "acNumber": 87,
    "acName": "Faridkot",
    "partNumber": 105,
    "partName": "Faridkot",
    "lat": 30.6729772,
    "lon": 74.7517033
  },
  {
    "partId": 35861,
    "stateCode": "S19",
    "stateName": "Punjab",
    "districtCode": "S1915",
    "districtName": "Faridkot",
    "acNumber": 87,
    "acName": "Faridkot",
    "partNumber": 106,
    "partName": "Faridkot",
    "lat": 30.6729772,
    "lon": 74.7517033
  },
  {
    "partId": 35862,
    "stateCode": "S19",
    "stateName": "Punjab",
    "districtCode": "S1915",
    "districtName": "Faridkot",
    "acNumber": 87,
    "acName": "Faridkot",
    "partNumber": 107,
    "partName": "Faridkot",
    "lat": 30.6729772,
    "lon": 74.7517033
  },
  {
    "partId": 35863,
    "stateCode": "S19",
    "stateName": "Punjab",
    "districtCode": "S1915",
    "districtName": "Faridkot",
    "acNumber": 87,
    "acName": "Faridkot",
    "partNumber": 108,
    "partName": "Faridkot",
    "lat": 30.6729772,
    "lon": 74.7517033
  },
  {
    "partId": 35864,
    "stateCode": "S19",
    "stateName": "Punjab",
    "districtCode": "S1915",
    "districtName": "Faridkot",
    "acNumber": 87,
    "acName": "Faridkot",
    "partNumber": 109,
    "partName": "Faridkot",
    "lat": 30.6729772,
    "lon": 74.7517033
  },
  {
    "partId": 35865,
    "stateCode": "S19",
    "stateName": "Punjab",
    "districtCode": "S1915",
    "districtName": "Faridkot",
    "acNumber": 87,
    "acName": "Faridkot",
    "partNumber": 110,
    "partName": "Faridkot",
    "lat": 30.6729772,
    "lon": 74.7517033
  },
  {
    "partId": 35866,
    "stateCode": "S19",
    "stateName": "Punjab",
    "districtCode": "S1915",
    "districtName": "Faridkot",
    "acNumber": 87,
    "acName": "Faridkot",
    "partNumber": 111,
    "partName": "Faridkot",
    "lat": 30.6729772,
    "lon": 74.7517033
  },
  {
    "partId": 35867,
    "stateCode": "S19",
    "stateName": "Punjab",
    "districtCode": "S1915",
    "districtName": "Faridkot",
    "acNumber": 87,
    "acName": "Faridkot",
    "partNumber": 112,
    "partName": "Faridkot",
    "lat": 30.6729772,
    "lon": 74.7517033
  },
  {
    "partId": 35683,
    "stateCode": "S19",
    "stateName": "Punjab",
    "districtCode": "S1915",
    "districtName": "Faridkot",
    "acNumber": 87,
    "acName": "Faridkot",
    "partNumber": 113,
    "partName": "Faridkot",
    "lat": 30.6729772,
    "lon": 74.7517033
  },
  {
    "partId": 35751,
    "stateCode": "S19",
    "stateName": "Punjab",
    "districtCode": "S1915",
    "districtName": "Faridkot",
    "acNumber": 87,
    "acName": "Faridkot",
    "partNumber": 114,
    "partName": "Faridkot",
    "lat": 30.6729772,
    "lon": 74.7517033
  },
  {
    "partId": 35688,
    "stateCode": "S19",
    "stateName": "Punjab",
    "districtCode": "S1915",
    "districtName": "Faridkot",
    "acNumber": 87,
    "acName": "Faridkot",
    "partNumber": 115,
    "partName": "Faridkot",
    "lat": 30.6729772,
    "lon": 74.7517033
  },
  {
    "partId": 35687,
    "stateCode": "S19",
    "stateName": "Punjab",
    "districtCode": "S1915",
    "districtName": "Faridkot",
    "acNumber": 87,
    "acName": "Faridkot",
    "partNumber": 116,
    "partName": "Faridkot",
    "lat": 30.6729772,
    "lon": 74.7517033
  },
  {
    "partId": 35693,
    "stateCode": "S19",
    "stateName": "Punjab",
    "districtCode": "S1915",
    "districtName": "Faridkot",
    "acNumber": 87,
    "acName": "Faridkot",
    "partNumber": 117,
    "partName": "Faridkot",
    "lat": 30.6729772,
    "lon": 74.7517033
  },
  {
    "partId": 35685,
    "stateCode": "S19",
    "stateName": "Punjab",
    "districtCode": "S1915",
    "districtName": "Faridkot",
    "acNumber": 87,
    "acName": "Faridkot",
    "partNumber": 118,
    "partName": "Faridkot",
    "lat": 30.6729772,
    "lon": 74.7517033
  },
  {
    "partId": 35709,
    "stateCode": "S19",
    "stateName": "Punjab",
    "districtCode": "S1915",
    "districtName": "Faridkot",
    "acNumber": 87,
    "acName": "Faridkot",
    "partNumber": 119,
    "partName": "Faridkot",
    "lat": 30.6729772,
    "lon": 74.7517033
  },
  {
    "partId": 35698,
    "stateCode": "S19",
    "stateName": "Punjab",
    "districtCode": "S1915",
    "districtName": "Faridkot",
    "acNumber": 87,
    "acName": "Faridkot",
    "partNumber": 120,
    "partName": "Faridkot",
    "lat": 30.6729772,
    "lon": 74.7517033
  },
  {
    "partId": 35684,
    "stateCode": "S19",
    "stateName": "Punjab",
    "districtCode": "S1915",
    "districtName": "Faridkot",
    "acNumber": 87,
    "acName": "Faridkot",
    "partNumber": 121,
    "partName": "Faridkot",
    "lat": 30.6729772,
    "lon": 74.7517033
  },
  {
    "partId": 35701,
    "stateCode": "S19",
    "stateName": "Punjab",
    "districtCode": "S1915",
    "districtName": "Faridkot",
    "acNumber": 87,
    "acName": "Faridkot",
    "partNumber": 122,
    "partName": "Faridkot",
    "lat": 30.6729772,
    "lon": 74.7517033
  },
  {
    "partId": 35691,
    "stateCode": "S19",
    "stateName": "Punjab",
    "districtCode": "S1915",
    "districtName": "Faridkot",
    "acNumber": 87,
    "acName": "Faridkot",
    "partNumber": 123,
    "partName": "Faridkot",
    "lat": 30.6729772,
    "lon": 74.7517033
  },
  {
    "partId": 35692,
    "stateCode": "S19",
    "stateName": "Punjab",
    "districtCode": "S1915",
    "districtName": "Faridkot",
    "acNumber": 87,
    "acName": "Faridkot",
    "partNumber": 124,
    "partName": "Faridkot",
    "lat": 30.6729772,
    "lon": 74.7517033
  },
  {
    "partId": 35686,
    "stateCode": "S19",
    "stateName": "Punjab",
    "districtCode": "S1915",
    "districtName": "Faridkot",
    "acNumber": 87,
    "acName": "Faridkot",
    "partNumber": 125,
    "partName": "Faridkot",
    "lat": 30.6729772,
    "lon": 74.7517033
  },
  {
    "partId": 35696,
    "stateCode": "S19",
    "stateName": "Punjab",
    "districtCode": "S1915",
    "districtName": "Faridkot",
    "acNumber": 87,
    "acName": "Faridkot",
    "partNumber": 126,
    "partName": "Faridkot",
    "lat": 30.6729772,
    "lon": 74.7517033
  },
  {
    "partId": 35695,
    "stateCode": "S19",
    "stateName": "Punjab",
    "districtCode": "S1915",
    "districtName": "Faridkot",
    "acNumber": 87,
    "acName": "Faridkot",
    "partNumber": 127,
    "partName": "Faridkot",
    "lat": 30.6729772,
    "lon": 74.7517033
  },
  {
    "partId": 35697,
    "stateCode": "S19",
    "stateName": "Punjab",
    "districtCode": "S1915",
    "districtName": "Faridkot",
    "acNumber": 87,
    "acName": "Faridkot",
    "partNumber": 128,
    "partName": "Faridkot",
    "lat": 30.6729772,
    "lon": 74.7517033
  },
  {
    "partId": 35718,
    "stateCode": "S19",
    "stateName": "Punjab",
    "districtCode": "S1915",
    "districtName": "Faridkot",
    "acNumber": 87,
    "acName": "Faridkot",
    "partNumber": 129,
    "partName": "Faridkot",
    "lat": 30.6729772,
    "lon": 74.7517033
  },
  {
    "partId": 35700,
    "stateCode": "S19",
    "stateName": "Punjab",
    "districtCode": "S1915",
    "districtName": "Faridkot",
    "acNumber": 87,
    "acName": "Faridkot",
    "partNumber": 130,
    "partName": "Faridkot",
    "lat": 30.6729772,
    "lon": 74.7517033
  },
  {
    "partId": 35699,
    "stateCode": "S19",
    "stateName": "Punjab",
    "districtCode": "S1915",
    "districtName": "Faridkot",
    "acNumber": 87,
    "acName": "Faridkot",
    "partNumber": 131,
    "partName": "Faridkot",
    "lat": 30.6729772,
    "lon": 74.7517033
  },
  {
    "partId": 35694,
    "stateCode": "S19",
    "stateName": "Punjab",
    "districtCode": "S1915",
    "districtName": "Faridkot",
    "acNumber": 87,
    "acName": "Faridkot",
    "partNumber": 132,
    "partName": "Faridkot",
    "lat": 30.6729772,
    "lon": 74.7517033
  },
  {
    "partId": 35690,
    "stateCode": "S19",
    "stateName": "Punjab",
    "districtCode": "S1915",
    "districtName": "Faridkot",
    "acNumber": 87,
    "acName": "Faridkot",
    "partNumber": 133,
    "partName": "Faridkot",
    "lat": 30.6729772,
    "lon": 74.7517033
  },
  {
    "partId": 35689,
    "stateCode": "S19",
    "stateName": "Punjab",
    "districtCode": "S1915",
    "districtName": "Faridkot",
    "acNumber": 87,
    "acName": "Faridkot",
    "partNumber": 134,
    "partName": "Faridkot",
    "lat": 30.6729772,
    "lon": 74.7517033
  },
  {
    "partId": 35752,
    "stateCode": "S19",
    "stateName": "Punjab",
    "districtCode": "S1915",
    "districtName": "Faridkot",
    "acNumber": 87,
    "acName": "Faridkot",
    "partNumber": 135,
    "partName": "Faridkot",
    "lat": 30.6729772,
    "lon": 74.7517033
  },
  {
    "partId": 35706,
    "stateCode": "S19",
    "stateName": "Punjab",
    "districtCode": "S1915",
    "districtName": "Faridkot",
    "acNumber": 87,
    "acName": "Faridkot",
    "partNumber": 136,
    "partName": "Faridkot",
    "lat": 30.6729772,
    "lon": 74.7517033
  },
  {
    "partId": 35708,
    "stateCode": "S19",
    "stateName": "Punjab",
    "districtCode": "S1915",
    "districtName": "Faridkot",
    "acNumber": 87,
    "acName": "Faridkot",
    "partNumber": 137,
    "partName": "Faridkot",
    "lat": 30.6729772,
    "lon": 74.7517033
  },
  {
    "partId": 35712,
    "stateCode": "S19",
    "stateName": "Punjab",
    "districtCode": "S1915",
    "districtName": "Faridkot",
    "acNumber": 87,
    "acName": "Faridkot",
    "partNumber": 138,
    "partName": "Faridkot",
    "lat": 30.696997003910614,
    "lon": 74.70783898401055
  },
  {
    "partId": 35741,
    "stateCode": "S19",
    "stateName": "Punjab",
    "districtCode": "S1915",
    "districtName": "Faridkot",
    "acNumber": 87,
    "acName": "Faridkot",
    "partNumber": 139,
    "partName": "Faridkot",
    "lat": 30.6729772,
    "lon": 74.7517033
  },
  {
    "partId": 35730,
    "stateCode": "S19",
    "stateName": "Punjab",
    "districtCode": "S1915",
    "districtName": "Faridkot",
    "acNumber": 87,
    "acName": "Faridkot",
    "partNumber": 140,
    "partName": "Faridkot",
    "lat": 30.696997003910614,
    "lon": 74.70783898401055
  },
  {
    "partId": 35707,
    "stateCode": "S19",
    "stateName": "Punjab",
    "districtCode": "S1915",
    "districtName": "Faridkot",
    "acNumber": 87,
    "acName": "Faridkot",
    "partNumber": 141,
    "partName": "Faridkot",
    "lat": 30.6729772,
    "lon": 74.7517033
  },
  {
    "partId": 35705,
    "stateCode": "S19",
    "stateName": "Punjab",
    "districtCode": "S1915",
    "districtName": "Faridkot",
    "acNumber": 87,
    "acName": "Faridkot",
    "partNumber": 142,
    "partName": "Faridkot",
    "lat": 30.6729772,
    "lon": 74.7517033
  },
  {
    "partId": 35704,
    "stateCode": "S19",
    "stateName": "Punjab",
    "districtCode": "S1915",
    "districtName": "Faridkot",
    "acNumber": 87,
    "acName": "Faridkot",
    "partNumber": 143,
    "partName": "Faridkot",
    "lat": 30.6729772,
    "lon": 74.7517033
  },
  {
    "partId": 35702,
    "stateCode": "S19",
    "stateName": "Punjab",
    "districtCode": "S1915",
    "districtName": "Faridkot",
    "acNumber": 87,
    "acName": "Faridkot",
    "partNumber": 144,
    "partName": "Faridkot",
    "lat": 30.6729772,
    "lon": 74.7517033
  },
  {
    "partId": 35738,
    "stateCode": "S19",
    "stateName": "Punjab",
    "districtCode": "S1915",
    "districtName": "Faridkot",
    "acNumber": 87,
    "acName": "Faridkot",
    "partNumber": 145,
    "partName": "Faridkot",
    "lat": 30.6014507,
    "lon": 74.79501756894368
  },
  {
    "partId": 35753,
    "stateCode": "S19",
    "stateName": "Punjab",
    "districtCode": "S1915",
    "districtName": "Faridkot",
    "acNumber": 87,
    "acName": "Faridkot",
    "partNumber": 146,
    "partName": "Faridkot",
    "lat": 30.6729772,
    "lon": 74.7517033
  },
  {
    "partId": 35716,
    "stateCode": "S19",
    "stateName": "Punjab",
    "districtCode": "S1915",
    "districtName": "Faridkot",
    "acNumber": 87,
    "acName": "Faridkot",
    "partNumber": 147,
    "partName": "Faridkot",
    "lat": 30.6729772,
    "lon": 74.7517033
  },
  {
    "partId": 35711,
    "stateCode": "S19",
    "stateName": "Punjab",
    "districtCode": "S1915",
    "districtName": "Faridkot",
    "acNumber": 87,
    "acName": "Faridkot",
    "partNumber": 148,
    "partName": "Faridkot",
    "lat": 30.6729772,
    "lon": 74.7517033
  },
  {
    "partId": 35703,
    "stateCode": "S19",
    "stateName": "Punjab",
    "districtCode": "S1915",
    "districtName": "Faridkot",
    "acNumber": 87,
    "acName": "Faridkot",
    "partNumber": 149,
    "partName": "Faridkot",
    "lat": 30.6729772,
    "lon": 74.7517033
  },
  {
    "partId": 35745,
    "stateCode": "S19",
    "stateName": "Punjab",
    "districtCode": "S1915",
    "districtName": "Faridkot",
    "acNumber": 87,
    "acName": "Faridkot",
    "partNumber": 150,
    "partName": "FARIDKOT",
    "lat": 30.6729772,
    "lon": 74.7517033
  },
  {
    "partId": 35721,
    "stateCode": "S19",
    "stateName": "Punjab",
    "districtCode": "S1915",
    "districtName": "Faridkot",
    "acNumber": 87,
    "acName": "Faridkot",
    "partNumber": 151,
    "partName": "Faridkot",
    "lat": 30.6729772,
    "lon": 74.7517033
  },
  {
    "partId": 35714,
    "stateCode": "S19",
    "stateName": "Punjab",
    "districtCode": "S1915",
    "districtName": "Faridkot",
    "acNumber": 87,
    "acName": "Faridkot",
    "partNumber": 152,
    "partName": "Faridkot",
    "lat": 30.6729772,
    "lon": 74.7517033
  },
  {
    "partId": 35717,
    "stateCode": "S19",
    "stateName": "Punjab",
    "districtCode": "S1915",
    "districtName": "Faridkot",
    "acNumber": 87,
    "acName": "Faridkot",
    "partNumber": 153,
    "partName": "Faridkot",
    "lat": 30.6729772,
    "lon": 74.7517033
  },
  {
    "partId": 35710,
    "stateCode": "S19",
    "stateName": "Punjab",
    "districtCode": "S1915",
    "districtName": "Faridkot",
    "acNumber": 87,
    "acName": "Faridkot",
    "partNumber": 154,
    "partName": "FARIDKOT",
    "lat": 30.6729772,
    "lon": 74.7517033
  },
  {
    "partId": 35722,
    "stateCode": "S19",
    "stateName": "Punjab",
    "districtCode": "S1915",
    "districtName": "Faridkot",
    "acNumber": 87,
    "acName": "Faridkot",
    "partNumber": 155,
    "partName": "Faridkot",
    "lat": 30.6729772,
    "lon": 74.7517033
  },
  {
    "partId": 35743,
    "stateCode": "S19",
    "stateName": "Punjab",
    "districtCode": "S1915",
    "districtName": "Faridkot",
    "acNumber": 87,
    "acName": "Faridkot",
    "partNumber": 156,
    "partName": "Faridkot",
    "lat": 30.696997003910614,
    "lon": 74.70783898401055
  },
  {
    "partId": 35754,
    "stateCode": "S19",
    "stateName": "Punjab",
    "districtCode": "S1915",
    "districtName": "Faridkot",
    "acNumber": 87,
    "acName": "Faridkot",
    "partNumber": 157,
    "partName": "Faridkot",
    "lat": 30.6729772,
    "lon": 74.7517033
  },
  {
    "partId": 35713,
    "stateCode": "S19",
    "stateName": "Punjab",
    "districtCode": "S1915",
    "districtName": "Faridkot",
    "acNumber": 87,
    "acName": "Faridkot",
    "partNumber": 158,
    "partName": "Faridkot",
    "lat": 30.6729772,
    "lon": 74.7517033
  },
  {
    "partId": 35719,
    "stateCode": "S19",
    "stateName": "Punjab",
    "districtCode": "S1915",
    "districtName": "Faridkot",
    "acNumber": 87,
    "acName": "Faridkot",
    "partNumber": 159,
    "partName": "Faridkot",
    "lat": 30.6729772,
    "lon": 74.7517033
  },
  {
    "partId": 35715,
    "stateCode": "S19",
    "stateName": "Punjab",
    "districtCode": "S1915",
    "districtName": "Faridkot",
    "acNumber": 87,
    "acName": "Faridkot",
    "partNumber": 160,
    "partName": "Faridkot",
    "lat": 30.6729772,
    "lon": 74.7517033
  },
  {
    "partId": 35725,
    "stateCode": "S19",
    "stateName": "Punjab",
    "districtCode": "S1915",
    "districtName": "Faridkot",
    "acNumber": 87,
    "acName": "Faridkot",
    "partNumber": 161,
    "partName": "Faridkot",
    "lat": 30.6729772,
    "lon": 74.7517033
  },
  {
    "partId": 35732,
    "stateCode": "S19",
    "stateName": "Punjab",
    "districtCode": "S1915",
    "districtName": "Faridkot",
    "acNumber": 87,
    "acName": "Faridkot",
    "partNumber": 162,
    "partName": "FARIDKOT",
    "lat": 30.6729772,
    "lon": 74.7517033
  },
  {
    "partId": 35724,
    "stateCode": "S19",
    "stateName": "Punjab",
    "districtCode": "S1915",
    "districtName": "Faridkot",
    "acNumber": 87,
    "acName": "Faridkot",
    "partNumber": 163,
    "partName": "Faridkot",
    "lat": 30.6729772,
    "lon": 74.7517033
  },
  {
    "partId": 35746,
    "stateCode": "S19",
    "stateName": "Punjab",
    "districtCode": "S1915",
    "districtName": "Faridkot",
    "acNumber": 87,
    "acName": "Faridkot",
    "partNumber": 164,
    "partName": "Faridkot",
    "lat": 30.6729772,
    "lon": 74.7517033
  },
  {
    "partId": 35726,
    "stateCode": "S19",
    "stateName": "Punjab",
    "districtCode": "S1915",
    "districtName": "Faridkot",
    "acNumber": 87,
    "acName": "Faridkot",
    "partNumber": 165,
    "partName": "Faridkot",
    "lat": 30.6729772,
    "lon": 74.7517033
  },
  {
    "partId": 35728,
    "stateCode": "S19",
    "stateName": "Punjab",
    "districtCode": "S1915",
    "districtName": "Faridkot",
    "acNumber": 87,
    "acName": "Faridkot",
    "partNumber": 166,
    "partName": "Faridkot",
    "lat": 30.6729772,
    "lon": 74.7517033
  },
  {
    "partId": 35747,
    "stateCode": "S19",
    "stateName": "Punjab",
    "districtCode": "S1915",
    "districtName": "Faridkot",
    "acNumber": 87,
    "acName": "Faridkot",
    "partNumber": 167,
    "partName": "Faridkot",
    "lat": 30.6729772,
    "lon": 74.7517033
  },
  {
    "partId": 35720,
    "stateCode": "S19",
    "stateName": "Punjab",
    "districtCode": "S1915",
    "districtName": "Faridkot",
    "acNumber": 87,
    "acName": "Faridkot",
    "partNumber": 168,
    "partName": "Faridkot",
    "lat": 30.6729772,
    "lon": 74.7517033
  },
  {
    "partId": 35723,
    "stateCode": "S19",
    "stateName": "Punjab",
    "districtCode": "S1915",
    "districtName": "Faridkot",
    "acNumber": 87,
    "acName": "Faridkot",
    "partNumber": 169,
    "partName": "Faridkot",
    "lat": 30.6729772,
    "lon": 74.7517033
  },
  {
    "partId": 35727,
    "stateCode": "S19",
    "stateName": "Punjab",
    "districtCode": "S1915",
    "districtName": "Faridkot",
    "acNumber": 87,
    "acName": "Faridkot",
    "partNumber": 170,
    "partName": "Faridkot",
    "lat": 30.6729772,
    "lon": 74.7517033
  },
  {
    "partId": 35736,
    "stateCode": "S19",
    "stateName": "Punjab",
    "districtCode": "S1915",
    "districtName": "Faridkot",
    "acNumber": 87,
    "acName": "Faridkot",
    "partNumber": 171,
    "partName": "Faridkot",
    "lat": 30.6729772,
    "lon": 74.7517033
  },
  {
    "partId": 35734,
    "stateCode": "S19",
    "stateName": "Punjab",
    "districtCode": "S1915",
    "districtName": "Faridkot",
    "acNumber": 87,
    "acName": "Faridkot",
    "partNumber": 172,
    "partName": "Faridkot",
    "lat": 30.6729772,
    "lon": 74.7517033
  },
  {
    "partId": 35739,
    "stateCode": "S19",
    "stateName": "Punjab",
    "districtCode": "S1915",
    "districtName": "Faridkot",
    "acNumber": 87,
    "acName": "Faridkot",
    "partNumber": 173,
    "partName": "Faridkot",
    "lat": 30.6729772,
    "lon": 74.7517033
  },
  {
    "partId": 35749,
    "stateCode": "S19",
    "stateName": "Punjab",
    "districtCode": "S1915",
    "districtName": "Faridkot",
    "acNumber": 87,
    "acName": "Faridkot",
    "partNumber": 174,
    "partName": "Faridkot",
    "lat": 30.6729772,
    "lon": 74.7517033
  },
  {
    "partId": 35748,
    "stateCode": "S19",
    "stateName": "Punjab",
    "districtCode": "S1915",
    "districtName": "Faridkot",
    "acNumber": 87,
    "acName": "Faridkot",
    "partNumber": 175,
    "partName": "Faridkot",
    "lat": 30.6729772,
    "lon": 74.7517033
  },
  {
    "partId": 35735,
    "stateCode": "S19",
    "stateName": "Punjab",
    "districtCode": "S1915",
    "districtName": "Faridkot",
    "acNumber": 87,
    "acName": "Faridkot",
    "partNumber": 176,
    "partName": "FARIDKOT",
    "lat": 30.6729772,
    "lon": 74.7517033
  },
  {
    "partId": 35742,
    "stateCode": "S19",
    "stateName": "Punjab",
    "districtCode": "S1915",
    "districtName": "Faridkot",
    "acNumber": 87,
    "acName": "Faridkot",
    "partNumber": 177,
    "partName": "Faridkot",
    "lat": 30.6729772,
    "lon": 74.7517033
  },
  {
    "partId": 35731,
    "stateCode": "S19",
    "stateName": "Punjab",
    "districtCode": "S1915",
    "districtName": "Faridkot",
    "acNumber": 87,
    "acName": "Faridkot",
    "partNumber": 178,
    "partName": "Faridkot",
    "lat": 30.6729772,
    "lon": 74.7517033
  },
  {
    "partId": 35729,
    "stateCode": "S19",
    "stateName": "Punjab",
    "districtCode": "S1915",
    "districtName": "Faridkot",
    "acNumber": 87,
    "acName": "Faridkot",
    "partNumber": 179,
    "partName": "Faridkot",
    "lat": 30.6729772,
    "lon": 74.7517033
  },
  {
    "partId": 35733,
    "stateCode": "S19",
    "stateName": "Punjab",
    "districtCode": "S1915",
    "districtName": "Faridkot",
    "acNumber": 87,
    "acName": "Faridkot",
    "partNumber": 180,
    "partName": "Faridkot",
    "lat": 30.6729772,
    "lon": 74.7517033
  },
  {
    "partId": 35755,
    "stateCode": "S19",
    "stateName": "Punjab",
    "districtCode": "S1915",
    "districtName": "Faridkot",
    "acNumber": 87,
    "acName": "Faridkot",
    "partNumber": 181,
    "partName": "Faridkot",
    "lat": 30.6729772,
    "lon": 74.7517033
  },
  {
    "partId": 35744,
    "stateCode": "S19",
    "stateName": "Punjab",
    "districtCode": "S1915",
    "districtName": "Faridkot",
    "acNumber": 87,
    "acName": "Faridkot",
    "partNumber": 182,
    "partName": "Faridkot",
    "lat": 30.6729772,
    "lon": 74.7517033
  },
  {
    "partId": 35740,
    "stateCode": "S19",
    "stateName": "Punjab",
    "districtCode": "S1915",
    "districtName": "Faridkot",
    "acNumber": 87,
    "acName": "Faridkot",
    "partNumber": 183,
    "partName": "Faridkot",
    "lat": 30.6729772,
    "lon": 74.7517033
  },
  {
    "partId": 35737,
    "stateCode": "S19",
    "stateName": "Punjab",
    "districtCode": "S1915",
    "districtName": "Faridkot",
    "acNumber": 87,
    "acName": "Faridkot",
    "partNumber": 184,
    "partName": "Faridkot",
    "lat": 30.6729772,
    "lon": 74.7517033
  },
  {
    "partId": 35750,
    "stateCode": "S19",
    "stateName": "Punjab",
    "districtCode": "S1915",
    "districtName": "Faridkot",
    "acNumber": 87,
    "acName": "Faridkot",
    "partNumber": 185,
    "partName": "Veere Wala khurd",
    "lat": 30.6729772,
    "lon": 74.7517033
  },
  {
    "partId": 41201,
    "stateCode": "S19",
    "stateName": "Punjab",
    "districtCode": "S1915",
    "districtName": "Faridkot",
    "acNumber": 89,
    "acName": "Jaitu",
    "partNumber": 1,
    "partName": "BAGGEANA",
    "lat": 30.469224,
    "lon": 74.89196853122348
  },
  {
    "partId": 41202,
    "stateCode": "S19",
    "stateName": "Punjab",
    "districtCode": "S1915",
    "districtName": "Faridkot",
    "acNumber": 89,
    "acName": "Jaitu",
    "partNumber": 2,
    "partName": "BAGGEAANA",
    "lat": 30.469224,
    "lon": 74.89196853122348
  },
  {
    "partId": 41172,
    "stateCode": "S19",
    "stateName": "Punjab",
    "districtCode": "S1915",
    "districtName": "Faridkot",
    "acNumber": 89,
    "acName": "Jaitu",
    "partNumber": 3,
    "partName": "Jeonwala",
    "lat": 30.493207236305736,
    "lon": 74.88276577030871
  },
  {
    "partId": 41173,
    "stateCode": "S19",
    "stateName": "Punjab",
    "districtCode": "S1915",
    "districtName": "Faridkot",
    "acNumber": 89,
    "acName": "Jaitu",
    "partNumber": 4,
    "partName": "Jeonwala",
    "lat": 30.469224,
    "lon": 74.89196853122348
  },
  {
    "partId": 41174,
    "stateCode": "S19",
    "stateName": "Punjab",
    "districtCode": "S1915",
    "districtName": "Faridkot",
    "acNumber": 89,
    "acName": "Jaitu",
    "partNumber": 5,
    "partName": "Jeonwala",
    "lat": 30.493207236305736,
    "lon": 74.88276577030871
  },
  {
    "partId": 41203,
    "stateCode": "S19",
    "stateName": "Punjab",
    "districtCode": "S1915",
    "districtName": "Faridkot",
    "acNumber": 89,
    "acName": "Jaitu",
    "partNumber": 6,
    "partName": "AULAKH",
    "lat": 30.6484589,
    "lon": 74.9141282
  },
  {
    "partId": 41204,
    "stateCode": "S19",
    "stateName": "Punjab",
    "districtCode": "S1915",
    "districtName": "Faridkot",
    "acNumber": 89,
    "acName": "Jaitu",
    "partNumber": 7,
    "partName": "AULAKH",
    "lat": 30.6484589,
    "lon": 74.9141282
  },
  {
    "partId": 41205,
    "stateCode": "S19",
    "stateName": "Punjab",
    "districtCode": "S1915",
    "districtName": "Faridkot",
    "acNumber": 89,
    "acName": "Jaitu",
    "partNumber": 8,
    "partName": "AULAKH",
    "lat": 30.6484589,
    "lon": 74.9141282
  },
  {
    "partId": 41206,
    "stateCode": "S19",
    "stateName": "Punjab",
    "districtCode": "S1915",
    "districtName": "Faridkot",
    "acNumber": 89,
    "acName": "Jaitu",
    "partNumber": 9,
    "partName": "GHANIEWALA",
    "lat": 30.6336204,
    "lon": 74.9385079
  },
  {
    "partId": 41207,
    "stateCode": "S19",
    "stateName": "Punjab",
    "districtCode": "S1915",
    "districtName": "Faridkot",
    "acNumber": 89,
    "acName": "Jaitu",
    "partNumber": 10,
    "partName": "GHANIEWALA",
    "lat": 30.6336204,
    "lon": 74.9385079
  },
  {
    "partId": 41175,
    "stateCode": "S19",
    "stateName": "Punjab",
    "districtCode": "S1915",
    "districtName": "Faridkot",
    "acNumber": 89,
    "acName": "Jaitu",
    "partNumber": 11,
    "partName": "Panjgrain Kalan",
    "lat": 30.6091039,
    "lon": 74.9139572
  },
  {
    "partId": 41176,
    "stateCode": "S19",
    "stateName": "Punjab",
    "districtCode": "S1915",
    "districtName": "Faridkot",
    "acNumber": 89,
    "acName": "Jaitu",
    "partNumber": 12,
    "partName": "Panjgrain Kalan",
    "lat": 30.6091039,
    "lon": 74.9139572
  },
  {
    "partId": 41178,
    "stateCode": "S19",
    "stateName": "Punjab",
    "districtCode": "S1915",
    "districtName": "Faridkot",
    "acNumber": 89,
    "acName": "Jaitu",
    "partNumber": 13,
    "partName": "Panjgrain Kalan",
    "lat": 30.6091039,
    "lon": 74.9139572
  },
  {
    "partId": 41177,
    "stateCode": "S19",
    "stateName": "Punjab",
    "districtCode": "S1915",
    "districtName": "Faridkot",
    "acNumber": 89,
    "acName": "Jaitu",
    "partNumber": 14,
    "partName": "Panjgrain Kalan",
    "lat": 30.6091039,
    "lon": 74.9139572
  },
  {
    "partId": 41180,
    "stateCode": "S19",
    "stateName": "Punjab",
    "districtCode": "S1915",
    "districtName": "Faridkot",
    "acNumber": 89,
    "acName": "Jaitu",
    "partNumber": 15,
    "partName": "Panjgrain Kalan",
    "lat": 30.6091039,
    "lon": 74.9139572
  },
  {
    "partId": 41183,
    "stateCode": "S19",
    "stateName": "Punjab",
    "districtCode": "S1915",
    "districtName": "Faridkot",
    "acNumber": 89,
    "acName": "Jaitu",
    "partNumber": 16,
    "partName": "Panjgrain Kalan",
    "lat": 30.6091039,
    "lon": 74.9139572
  },
  {
    "partId": 41181,
    "stateCode": "S19",
    "stateName": "Punjab",
    "districtCode": "S1915",
    "districtName": "Faridkot",
    "acNumber": 89,
    "acName": "Jaitu",
    "partNumber": 17,
    "partName": "Panjgrain Kalan",
    "lat": 30.6091039,
    "lon": 74.9139572
  },
  {
    "partId": 41185,
    "stateCode": "S19",
    "stateName": "Punjab",
    "districtCode": "S1915",
    "districtName": "Faridkot",
    "acNumber": 89,
    "acName": "Jaitu",
    "partNumber": 18,
    "partName": "Panjgrain Kalan",
    "lat": 30.6091039,
    "lon": 74.9139572
  },
  {
    "partId": 41182,
    "stateCode": "S19",
    "stateName": "Punjab",
    "districtCode": "S1915",
    "districtName": "Faridkot",
    "acNumber": 89,
    "acName": "Jaitu",
    "partNumber": 19,
    "partName": "SIBIAN",
    "lat": 30.5697636,
    "lon": 74.922752
  },
  {
    "partId": 41179,
    "stateCode": "S19",
    "stateName": "Punjab",
    "districtCode": "S1915",
    "districtName": "Faridkot",
    "acNumber": 89,
    "acName": "Jaitu",
    "partNumber": 20,
    "partName": "SIBIAN",
    "lat": 30.5697636,
    "lon": 74.922752
  },
  {
    "partId": 41187,
    "stateCode": "S19",
    "stateName": "Punjab",
    "districtCode": "S1915",
    "districtName": "Faridkot",
    "acNumber": 89,
    "acName": "Jaitu",
    "partNumber": 21,
    "partName": "SIBIAN",
    "lat": 30.5697636,
    "lon": 74.922752
  },
  {
    "partId": 41184,
    "stateCode": "S19",
    "stateName": "Punjab",
    "districtCode": "S1915",
    "districtName": "Faridkot",
    "acNumber": 89,
    "acName": "Jaitu",
    "partNumber": 22,
    "partName": "SIBIAN",
    "lat": 30.5697636,
    "lon": 74.922752
  },
  {
    "partId": 41198,
    "stateCode": "S19",
    "stateName": "Punjab",
    "districtCode": "S1915",
    "districtName": "Faridkot",
    "acNumber": 89,
    "acName": "Jaitu",
    "partNumber": 23,
    "partName": "Dhillwan Kalan",
    "lat": 30.469224,
    "lon": 74.89196853122348
  },
  {
    "partId": 41188,
    "stateCode": "S19",
    "stateName": "Punjab",
    "districtCode": "S1915",
    "districtName": "Faridkot",
    "acNumber": 89,
    "acName": "Jaitu",
    "partNumber": 24,
    "partName": "Dhillwan Kalan",
    "lat": 30.469224,
    "lon": 74.89196853122348
  },
  {
    "partId": 41190,
    "stateCode": "S19",
    "stateName": "Punjab",
    "districtCode": "S1915",
    "districtName": "Faridkot",
    "acNumber": 89,
    "acName": "Jaitu",
    "partNumber": 25,
    "partName": "DHILWAN KALAN",
    "lat": 30.5702012,
    "lon": 74.8665006
  },
  {
    "partId": 41199,
    "stateCode": "S19",
    "stateName": "Punjab",
    "districtCode": "S1915",
    "districtName": "Faridkot",
    "acNumber": 89,
    "acName": "Jaitu",
    "partNumber": 26,
    "partName": "DHILWAN KALAN",
    "lat": 30.5702012,
    "lon": 74.8665006
  },
  {
    "partId": 41186,
    "stateCode": "S19",
    "stateName": "Punjab",
    "districtCode": "S1915",
    "districtName": "Faridkot",
    "acNumber": 89,
    "acName": "Jaitu",
    "partNumber": 27,
    "partName": "DHILWAN KALAN",
    "lat": 30.5702012,
    "lon": 74.8665006
  },
  {
    "partId": 41191,
    "stateCode": "S19",
    "stateName": "Punjab",
    "districtCode": "S1915",
    "districtName": "Faridkot",
    "acNumber": 89,
    "acName": "Jaitu",
    "partNumber": 28,
    "partName": "DHILWAN KALAN",
    "lat": 30.5702012,
    "lon": 74.8665006
  },
  {
    "partId": 41189,
    "stateCode": "S19",
    "stateName": "Punjab",
    "districtCode": "S1915",
    "districtName": "Faridkot",
    "acNumber": 89,
    "acName": "Jaitu",
    "partNumber": 29,
    "partName": "DHILWAN KALAN",
    "lat": 30.5702012,
    "lon": 74.8665006
  },
  {
    "partId": 41208,
    "stateCode": "S19",
    "stateName": "Punjab",
    "districtCode": "S1915",
    "districtName": "Faridkot",
    "acNumber": 89,
    "acName": "Jaitu",
    "partNumber": 30,
    "partName": "BURJ HARIKA",
    "lat": 30.5570319,
    "lon": 74.9408113
  },
  {
    "partId": 41209,
    "stateCode": "S19",
    "stateName": "Punjab",
    "districtCode": "S1915",
    "districtName": "Faridkot",
    "acNumber": 89,
    "acName": "Jaitu",
    "partNumber": 31,
    "partName": "BURJ HARIKA",
    "lat": 30.6014507,
    "lon": 74.79501756894368
  },
  {
    "partId": 41210,
    "stateCode": "S19",
    "stateName": "Punjab",
    "districtCode": "S1915",
    "districtName": "Faridkot",
    "acNumber": 89,
    "acName": "Jaitu",
    "partNumber": 32,
    "partName": "BURJ JAWAHAR SINGH WALA",
    "lat": 30.5360252,
    "lon": 74.9868759
  },
  {
    "partId": 41211,
    "stateCode": "S19",
    "stateName": "Punjab",
    "districtCode": "S1915",
    "districtName": "Faridkot",
    "acNumber": 89,
    "acName": "Jaitu",
    "partNumber": 33,
    "partName": "BURJ JAWAHAR SINGH WALA",
    "lat": 30.5360252,
    "lon": 74.9868759
  },
  {
    "partId": 41212,
    "stateCode": "S19",
    "stateName": "Punjab",
    "districtCode": "S1915",
    "districtName": "Faridkot",
    "acNumber": 89,
    "acName": "Jaitu",
    "partNumber": 34,
    "partName": "BARGARHI",
    "lat": 30.469224,
    "lon": 74.89196853122348
  },
  {
    "partId": 41213,
    "stateCode": "S19",
    "stateName": "Punjab",
    "districtCode": "S1915",
    "districtName": "Faridkot",
    "acNumber": 89,
    "acName": "Jaitu",
    "partNumber": 35,
    "partName": "BARGARHI",
    "lat": 30.469224,
    "lon": 74.89196853122348
  },
  {
    "partId": 41214,
    "stateCode": "S19",
    "stateName": "Punjab",
    "districtCode": "S1915",
    "districtName": "Faridkot",
    "acNumber": 89,
    "acName": "Jaitu",
    "partNumber": 36,
    "partName": "BARGARHI",
    "lat": 30.469224,
    "lon": 74.89196853122348
  },
  {
    "partId": 41215,
    "stateCode": "S19",
    "stateName": "Punjab",
    "districtCode": "S1915",
    "districtName": "Faridkot",
    "acNumber": 89,
    "acName": "Jaitu",
    "partNumber": 37,
    "partName": "BARGARHI",
    "lat": 30.469224,
    "lon": 74.89196853122348
  },
  {
    "partId": 41216,
    "stateCode": "S19",
    "stateName": "Punjab",
    "districtCode": "S1915",
    "districtName": "Faridkot",
    "acNumber": 89,
    "acName": "Jaitu",
    "partNumber": 38,
    "partName": "BARGARHI",
    "lat": 30.6014507,
    "lon": 74.79501756894368
  },
  {
    "partId": 41217,
    "stateCode": "S19",
    "stateName": "Punjab",
    "districtCode": "S1915",
    "districtName": "Faridkot",
    "acNumber": 89,
    "acName": "Jaitu",
    "partNumber": 39,
    "partName": "BARGARHI",
    "lat": 30.469224,
    "lon": 74.89196853122348
  },
  {
    "partId": 41218,
    "stateCode": "S19",
    "stateName": "Punjab",
    "districtCode": "S1915",
    "districtName": "Faridkot",
    "acNumber": 89,
    "acName": "Jaitu",
    "partNumber": 40,
    "partName": "BARGARI",
    "lat": 30.523754,
    "lon": 74.9522219
  },
  {
    "partId": 41219,
    "stateCode": "S19",
    "stateName": "Punjab",
    "districtCode": "S1915",
    "districtName": "Faridkot",
    "acNumber": 89,
    "acName": "Jaitu",
    "partNumber": 41,
    "partName": "GURUSAR",
    "lat": 30.5291575,
    "lon": 74.8946254
  },
  {
    "partId": 41220,
    "stateCode": "S19",
    "stateName": "Punjab",
    "districtCode": "S1915",
    "districtName": "Faridkot",
    "acNumber": 89,
    "acName": "Jaitu",
    "partNumber": 42,
    "partName": "GURUSAR",
    "lat": 30.5291575,
    "lon": 74.8946254
  },
  {
    "partId": 41221,
    "stateCode": "S19",
    "stateName": "Punjab",
    "districtCode": "S1915",
    "districtName": "Faridkot",
    "acNumber": 89,
    "acName": "Jaitu",
    "partNumber": 43,
    "partName": "BEHBAL KHURD",
    "lat": 30.5004878,
    "lon": 74.9110219
  },
  {
    "partId": 41222,
    "stateCode": "S19",
    "stateName": "Punjab",
    "districtCode": "S1915",
    "districtName": "Faridkot",
    "acNumber": 89,
    "acName": "Jaitu",
    "partNumber": 44,
    "partName": "BEHIBAL KHURD",
    "lat": 30.469224,
    "lon": 74.89196853122348
  },
  {
    "partId": 41223,
    "stateCode": "S19",
    "stateName": "Punjab",
    "districtCode": "S1915",
    "districtName": "Faridkot",
    "acNumber": 89,
    "acName": "Jaitu",
    "partNumber": 45,
    "partName": "BAHIBAL KALAN",
    "lat": 30.469224,
    "lon": 74.89196853122348
  },
  {
    "partId": 41224,
    "stateCode": "S19",
    "stateName": "Punjab",
    "districtCode": "S1915",
    "districtName": "Faridkot",
    "acNumber": 89,
    "acName": "Jaitu",
    "partNumber": 46,
    "partName": "BAHIBAL KALAN",
    "lat": 30.469224,
    "lon": 74.89196853122348
  },
  {
    "partId": 41225,
    "stateCode": "S19",
    "stateName": "Punjab",
    "districtCode": "S1915",
    "districtName": "Faridkot",
    "acNumber": 89,
    "acName": "Jaitu",
    "partNumber": 47,
    "partName": "SARAWAN",
    "lat": 30.5246119,
    "lon": 74.8793387
  },
  {
    "partId": 41226,
    "stateCode": "S19",
    "stateName": "Punjab",
    "districtCode": "S1915",
    "districtName": "Faridkot",
    "acNumber": 89,
    "acName": "Jaitu",
    "partNumber": 48,
    "partName": "SARAWAN",
    "lat": 30.5246119,
    "lon": 74.8793387
  },
  {
    "partId": 41227,
    "stateCode": "S19",
    "stateName": "Punjab",
    "districtCode": "S1915",
    "districtName": "Faridkot",
    "acNumber": 89,
    "acName": "Jaitu",
    "partNumber": 49,
    "partName": "SARAWAN",
    "lat": 30.5246119,
    "lon": 74.8793387
  },
  {
    "partId": 41228,
    "stateCode": "S19",
    "stateName": "Punjab",
    "districtCode": "S1915",
    "districtName": "Faridkot",
    "acNumber": 89,
    "acName": "Jaitu",
    "partNumber": 50,
    "partName": "SARAWAN",
    "lat": 30.5246119,
    "lon": 74.8793387
  },
  {
    "partId": 41229,
    "stateCode": "S19",
    "stateName": "Punjab",
    "districtCode": "S1915",
    "districtName": "Faridkot",
    "acNumber": 89,
    "acName": "Jaitu",
    "partNumber": 51,
    "partName": "ROMANA ALBEL SINGH",
    "lat": 30.5094477,
    "lon": 74.8481637
  },
  {
    "partId": 41230,
    "stateCode": "S19",
    "stateName": "Punjab",
    "districtCode": "S1915",
    "districtName": "Faridkot",
    "acNumber": 89,
    "acName": "Jaitu",
    "partNumber": 52,
    "partName": "ROMANA ALBEL SINGH",
    "lat": 30.5094477,
    "lon": 74.8481637
  },
  {
    "partId": 41231,
    "stateCode": "S19",
    "stateName": "Punjab",
    "districtCode": "S1915",
    "districtName": "Faridkot",
    "acNumber": 89,
    "acName": "Jaitu",
    "partNumber": 53,
    "partName": "DHAIPAI",
    "lat": 30.5102397,
    "lon": 74.8280997
  },
  {
    "partId": 41232,
    "stateCode": "S19",
    "stateName": "Punjab",
    "districtCode": "S1915",
    "districtName": "Faridkot",
    "acNumber": 89,
    "acName": "Jaitu",
    "partNumber": 54,
    "partName": "DHAIPAI",
    "lat": 30.5102397,
    "lon": 74.8280997
  },
  {
    "partId": 41233,
    "stateCode": "S19",
    "stateName": "Punjab",
    "districtCode": "S1915",
    "districtName": "Faridkot",
    "acNumber": 89,
    "acName": "Jaitu",
    "partNumber": 55,
    "partName": "MADHAK",
    "lat": 30.4558296,
    "lon": 74.751987
  },
  {
    "partId": 41234,
    "stateCode": "S19",
    "stateName": "Punjab",
    "districtCode": "S1915",
    "districtName": "Faridkot",
    "acNumber": 89,
    "acName": "Jaitu",
    "partNumber": 56,
    "partName": "MADHAK",
    "lat": 30.4558296,
    "lon": 74.751987
  },
  {
    "partId": 41235,
    "stateCode": "S19",
    "stateName": "Punjab",
    "districtCode": "S1915",
    "districtName": "Faridkot",
    "acNumber": 89,
    "acName": "Jaitu",
    "partNumber": 57,
    "partName": "SURGHURI",
    "lat": 30.4672413,
    "lon": 74.7710757
  },
  {
    "partId": 41236,
    "stateCode": "S19",
    "stateName": "Punjab",
    "districtCode": "S1915",
    "districtName": "Faridkot",
    "acNumber": 89,
    "acName": "Jaitu",
    "partNumber": 58,
    "partName": "SURGHURI",
    "lat": 30.4672413,
    "lon": 74.7710757
  },
  {
    "partId": 41237,
    "stateCode": "S19",
    "stateName": "Punjab",
    "districtCode": "S1915",
    "districtName": "Faridkot",
    "acNumber": 89,
    "acName": "Jaitu",
    "partNumber": 59,
    "partName": "KASAM BHATTI",
    "lat": 30.4631936,
    "lon": 74.7877605
  },
  {
    "partId": 41238,
    "stateCode": "S19",
    "stateName": "Punjab",
    "districtCode": "S1915",
    "districtName": "Faridkot",
    "acNumber": 89,
    "acName": "Jaitu",
    "partNumber": 60,
    "partName": "KASAM BHATTI",
    "lat": 30.4631936,
    "lon": 74.7877605
  },
  {
    "partId": 41239,
    "stateCode": "S19",
    "stateName": "Punjab",
    "districtCode": "S1915",
    "districtName": "Faridkot",
    "acNumber": 89,
    "acName": "Jaitu",
    "partNumber": 61,
    "partName": "MATTA",
    "lat": 30.4836587,
    "lon": 74.8358476
  },
  {
    "partId": 41240,
    "stateCode": "S19",
    "stateName": "Punjab",
    "districtCode": "S1915",
    "districtName": "Faridkot",
    "acNumber": 89,
    "acName": "Jaitu",
    "partNumber": 62,
    "partName": "MATTA",
    "lat": 30.4836587,
    "lon": 74.8358476
  },
  {
    "partId": 41241,
    "stateCode": "S19",
    "stateName": "Punjab",
    "districtCode": "S1915",
    "districtName": "Faridkot",
    "acNumber": 89,
    "acName": "Jaitu",
    "partNumber": 63,
    "partName": "MATTA",
    "lat": 30.4836587,
    "lon": 74.8358476
  },
  {
    "partId": 41242,
    "stateCode": "S19",
    "stateName": "Punjab",
    "districtCode": "S1915",
    "districtName": "Faridkot",
    "acNumber": 89,
    "acName": "Jaitu",
    "partNumber": 64,
    "partName": "MATTA",
    "lat": 30.4836587,
    "lon": 74.8358476
  },
  {
    "partId": 41243,
    "stateCode": "S19",
    "stateName": "Punjab",
    "districtCode": "S1915",
    "districtName": "Faridkot",
    "acNumber": 89,
    "acName": "Jaitu",
    "partNumber": 65,
    "partName": "AJIT GILL",
    "lat": 30.480838,
    "lon": 74.8564041
  },
  {
    "partId": 41244,
    "stateCode": "S19",
    "stateName": "Punjab",
    "districtCode": "S1915",
    "districtName": "Faridkot",
    "acNumber": 89,
    "acName": "Jaitu",
    "partNumber": 66,
    "partName": "AJIT GILL",
    "lat": 30.480838,
    "lon": 74.8564041
  },
  {
    "partId": 41245,
    "stateCode": "S19",
    "stateName": "Punjab",
    "districtCode": "S1915",
    "districtName": "Faridkot",
    "acNumber": 89,
    "acName": "Jaitu",
    "partNumber": 67,
    "partName": "JAITO",
    "lat": 30.4485444,
    "lon": 74.8892204
  },
  {
    "partId": 41246,
    "stateCode": "S19",
    "stateName": "Punjab",
    "districtCode": "S1915",
    "districtName": "Faridkot",
    "acNumber": 89,
    "acName": "Jaitu",
    "partNumber": 68,
    "partName": "JAITO",
    "lat": 30.4485444,
    "lon": 74.8892204
  },
  {
    "partId": 41247,
    "stateCode": "S19",
    "stateName": "Punjab",
    "districtCode": "S1915",
    "districtName": "Faridkot",
    "acNumber": 89,
    "acName": "Jaitu",
    "partNumber": 69,
    "partName": "JAITO",
    "lat": 30.4485444,
    "lon": 74.8892204
  },
  {
    "partId": 41248,
    "stateCode": "S19",
    "stateName": "Punjab",
    "districtCode": "S1915",
    "districtName": "Faridkot",
    "acNumber": 89,
    "acName": "Jaitu",
    "partNumber": 70,
    "partName": "JAITO",
    "lat": 30.6014507,
    "lon": 74.79501756894368
  },
  {
    "partId": 41249,
    "stateCode": "S19",
    "stateName": "Punjab",
    "districtCode": "S1915",
    "districtName": "Faridkot",
    "acNumber": 89,
    "acName": "Jaitu",
    "partNumber": 71,
    "partName": "JAITO",
    "lat": 30.4485444,
    "lon": 74.8892204
  },
  {
    "partId": 41250,
    "stateCode": "S19",
    "stateName": "Punjab",
    "districtCode": "S1915",
    "districtName": "Faridkot",
    "acNumber": 89,
    "acName": "Jaitu",
    "partNumber": 72,
    "partName": "JAITO",
    "lat": 30.4485444,
    "lon": 74.8892204
  },
  {
    "partId": 41251,
    "stateCode": "S19",
    "stateName": "Punjab",
    "districtCode": "S1915",
    "districtName": "Faridkot",
    "acNumber": 89,
    "acName": "Jaitu",
    "partNumber": 73,
    "partName": "JAITO",
    "lat": 30.4485444,
    "lon": 74.8892204
  },
  {
    "partId": 41252,
    "stateCode": "S19",
    "stateName": "Punjab",
    "districtCode": "S1915",
    "districtName": "Faridkot",
    "acNumber": 89,
    "acName": "Jaitu",
    "partNumber": 74,
    "partName": "JAITO",
    "lat": 30.4485444,
    "lon": 74.8892204
  },
  {
    "partId": 41253,
    "stateCode": "S19",
    "stateName": "Punjab",
    "districtCode": "S1915",
    "districtName": "Faridkot",
    "acNumber": 89,
    "acName": "Jaitu",
    "partNumber": 75,
    "partName": "JAITO",
    "lat": 30.4485444,
    "lon": 74.8892204
  },
  {
    "partId": 41254,
    "stateCode": "S19",
    "stateName": "Punjab",
    "districtCode": "S1915",
    "districtName": "Faridkot",
    "acNumber": 89,
    "acName": "Jaitu",
    "partNumber": 76,
    "partName": "JAITO",
    "lat": 30.4485444,
    "lon": 74.8892204
  },
  {
    "partId": 41255,
    "stateCode": "S19",
    "stateName": "Punjab",
    "districtCode": "S1915",
    "districtName": "Faridkot",
    "acNumber": 89,
    "acName": "Jaitu",
    "partNumber": 77,
    "partName": "JAITO",
    "lat": 30.4485444,
    "lon": 74.8892204
  },
  {
    "partId": 41256,
    "stateCode": "S19",
    "stateName": "Punjab",
    "districtCode": "S1915",
    "districtName": "Faridkot",
    "acNumber": 89,
    "acName": "Jaitu",
    "partNumber": 78,
    "partName": "JAITO",
    "lat": 30.4485444,
    "lon": 74.8892204
  },
  {
    "partId": 41257,
    "stateCode": "S19",
    "stateName": "Punjab",
    "districtCode": "S1915",
    "districtName": "Faridkot",
    "acNumber": 89,
    "acName": "Jaitu",
    "partNumber": 79,
    "partName": "JAITO",
    "lat": 30.4485444,
    "lon": 74.8892204
  },
  {
    "partId": 41258,
    "stateCode": "S19",
    "stateName": "Punjab",
    "districtCode": "S1915",
    "districtName": "Faridkot",
    "acNumber": 89,
    "acName": "Jaitu",
    "partNumber": 80,
    "partName": "JAITO",
    "lat": 30.4485444,
    "lon": 74.8892204
  },
  {
    "partId": 41259,
    "stateCode": "S19",
    "stateName": "Punjab",
    "districtCode": "S1915",
    "districtName": "Faridkot",
    "acNumber": 89,
    "acName": "Jaitu",
    "partNumber": 81,
    "partName": "JAITO",
    "lat": 30.6014507,
    "lon": 74.79501756894368
  },
  {
    "partId": 41260,
    "stateCode": "S19",
    "stateName": "Punjab",
    "districtCode": "S1915",
    "districtName": "Faridkot",
    "acNumber": 89,
    "acName": "Jaitu",
    "partNumber": 82,
    "partName": "JAITO",
    "lat": 30.6014507,
    "lon": 74.79501756894368
  },
  {
    "partId": 41261,
    "stateCode": "S19",
    "stateName": "Punjab",
    "districtCode": "S1915",
    "districtName": "Faridkot",
    "acNumber": 89,
    "acName": "Jaitu",
    "partNumber": 83,
    "partName": "JAITO",
    "lat": 30.4485444,
    "lon": 74.8892204
  },
  {
    "partId": 41262,
    "stateCode": "S19",
    "stateName": "Punjab",
    "districtCode": "S1915",
    "districtName": "Faridkot",
    "acNumber": 89,
    "acName": "Jaitu",
    "partNumber": 84,
    "partName": "JAITO",
    "lat": 30.4485444,
    "lon": 74.8892204
  },
  {
    "partId": 41263,
    "stateCode": "S19",
    "stateName": "Punjab",
    "districtCode": "S1915",
    "districtName": "Faridkot",
    "acNumber": 89,
    "acName": "Jaitu",
    "partNumber": 85,
    "partName": "JAITO",
    "lat": 30.4485444,
    "lon": 74.8892204
  },
  {
    "partId": 41264,
    "stateCode": "S19",
    "stateName": "Punjab",
    "districtCode": "S1915",
    "districtName": "Faridkot",
    "acNumber": 89,
    "acName": "Jaitu",
    "partNumber": 86,
    "partName": "JAITO",
    "lat": 30.4485444,
    "lon": 74.8892204
  },
  {
    "partId": 41265,
    "stateCode": "S19",
    "stateName": "Punjab",
    "districtCode": "S1915",
    "districtName": "Faridkot",
    "acNumber": 89,
    "acName": "Jaitu",
    "partNumber": 87,
    "partName": "JAITO",
    "lat": 30.4485444,
    "lon": 74.8892204
  },
  {
    "partId": 41266,
    "stateCode": "S19",
    "stateName": "Punjab",
    "districtCode": "S1915",
    "districtName": "Faridkot",
    "acNumber": 89,
    "acName": "Jaitu",
    "partNumber": 88,
    "partName": "JAITO",
    "lat": 30.6014507,
    "lon": 74.79501756894368
  },
  {
    "partId": 41267,
    "stateCode": "S19",
    "stateName": "Punjab",
    "districtCode": "S1915",
    "districtName": "Faridkot",
    "acNumber": 89,
    "acName": "Jaitu",
    "partNumber": 89,
    "partName": "JAITO",
    "lat": 30.4485444,
    "lon": 74.8892204
  },
  {
    "partId": 41268,
    "stateCode": "S19",
    "stateName": "Punjab",
    "districtCode": "S1915",
    "districtName": "Faridkot",
    "acNumber": 89,
    "acName": "Jaitu",
    "partNumber": 90,
    "partName": "JAITO",
    "lat": 30.4485444,
    "lon": 74.8892204
  },
  {
    "partId": 41269,
    "stateCode": "S19",
    "stateName": "Punjab",
    "districtCode": "S1915",
    "districtName": "Faridkot",
    "acNumber": 89,
    "acName": "Jaitu",
    "partNumber": 91,
    "partName": "JAITO",
    "lat": 30.4485444,
    "lon": 74.8892204
  },
  {
    "partId": 41270,
    "stateCode": "S19",
    "stateName": "Punjab",
    "districtCode": "S1915",
    "districtName": "Faridkot",
    "acNumber": 89,
    "acName": "Jaitu",
    "partNumber": 92,
    "partName": "JAITO",
    "lat": 30.4485444,
    "lon": 74.8892204
  },
  {
    "partId": 41271,
    "stateCode": "S19",
    "stateName": "Punjab",
    "districtCode": "S1915",
    "districtName": "Faridkot",
    "acNumber": 89,
    "acName": "Jaitu",
    "partNumber": 93,
    "partName": "JAITO",
    "lat": 30.4485444,
    "lon": 74.8892204
  },
  {
    "partId": 41272,
    "stateCode": "S19",
    "stateName": "Punjab",
    "districtCode": "S1915",
    "districtName": "Faridkot",
    "acNumber": 89,
    "acName": "Jaitu",
    "partNumber": 94,
    "partName": "JAITO",
    "lat": 30.4485444,
    "lon": 74.8892204
  },
  {
    "partId": 41273,
    "stateCode": "S19",
    "stateName": "Punjab",
    "districtCode": "S1915",
    "districtName": "Faridkot",
    "acNumber": 89,
    "acName": "Jaitu",
    "partNumber": 95,
    "partName": "JAITO",
    "lat": 30.4485444,
    "lon": 74.8892204
  },
  {
    "partId": 41274,
    "stateCode": "S19",
    "stateName": "Punjab",
    "districtCode": "S1915",
    "districtName": "Faridkot",
    "acNumber": 89,
    "acName": "Jaitu",
    "partNumber": 96,
    "partName": "JAITO",
    "lat": 30.4485444,
    "lon": 74.8892204
  },
  {
    "partId": 41275,
    "stateCode": "S19",
    "stateName": "Punjab",
    "districtCode": "S1915",
    "districtName": "Faridkot",
    "acNumber": 89,
    "acName": "Jaitu",
    "partNumber": 97,
    "partName": "JAITO",
    "lat": 30.4485444,
    "lon": 74.8892204
  },
  {
    "partId": 41276,
    "stateCode": "S19",
    "stateName": "Punjab",
    "districtCode": "S1915",
    "districtName": "Faridkot",
    "acNumber": 89,
    "acName": "Jaitu",
    "partNumber": 98,
    "partName": "JAITO",
    "lat": 30.4485444,
    "lon": 74.8892204
  },
  {
    "partId": 41277,
    "stateCode": "S19",
    "stateName": "Punjab",
    "districtCode": "S1915",
    "districtName": "Faridkot",
    "acNumber": 89,
    "acName": "Jaitu",
    "partNumber": 99,
    "partName": "JAITO",
    "lat": 30.4485444,
    "lon": 74.8892204
  },
  {
    "partId": 41278,
    "stateCode": "S19",
    "stateName": "Punjab",
    "districtCode": "S1915",
    "districtName": "Faridkot",
    "acNumber": 89,
    "acName": "Jaitu",
    "partNumber": 100,
    "partName": "JAITO",
    "lat": 30.4485444,
    "lon": 74.8892204
  },
  {
    "partId": 41279,
    "stateCode": "S19",
    "stateName": "Punjab",
    "districtCode": "S1915",
    "districtName": "Faridkot",
    "acNumber": 89,
    "acName": "Jaitu",
    "partNumber": 101,
    "partName": "DAL SINGH WALA",
    "lat": 30.464843,
    "lon": 74.9293777
  },
  {
    "partId": 41280,
    "stateCode": "S19",
    "stateName": "Punjab",
    "districtCode": "S1915",
    "districtName": "Faridkot",
    "acNumber": 89,
    "acName": "Jaitu",
    "partNumber": 102,
    "partName": "DAL SINGH WALA",
    "lat": 30.464843,
    "lon": 74.9293777
  },
  {
    "partId": 41281,
    "stateCode": "S19",
    "stateName": "Punjab",
    "districtCode": "S1915",
    "districtName": "Faridkot",
    "acNumber": 89,
    "acName": "Jaitu",
    "partNumber": 103,
    "partName": "RAN SINGH WALA",
    "lat": 30.4997879,
    "lon": 74.9357106
  },
  {
    "partId": 41282,
    "stateCode": "S19",
    "stateName": "Punjab",
    "districtCode": "S1915",
    "districtName": "Faridkot",
    "acNumber": 89,
    "acName": "Jaitu",
    "partNumber": 104,
    "partName": "RAN SINGH WALA",
    "lat": 30.4997879,
    "lon": 74.9357106
  },
  {
    "partId": 41283,
    "stateCode": "S19",
    "stateName": "Punjab",
    "districtCode": "S1915",
    "districtName": "Faridkot",
    "acNumber": 89,
    "acName": "Jaitu",
    "partNumber": 105,
    "partName": "JHAKHARHWALA",
    "lat": 30.469224,
    "lon": 74.89196853122348
  },
  {
    "partId": 41284,
    "stateCode": "S19",
    "stateName": "Punjab",
    "districtCode": "S1915",
    "districtName": "Faridkot",
    "acNumber": 89,
    "acName": "Jaitu",
    "partNumber": 106,
    "partName": "JHAKHARWALA",
    "lat": 30.6014507,
    "lon": 74.79501756894368
  },
  {
    "partId": 41285,
    "stateCode": "S19",
    "stateName": "Punjab",
    "districtCode": "S1915",
    "districtName": "Faridkot",
    "acNumber": 89,
    "acName": "Jaitu",
    "partNumber": 107,
    "partName": "JHAKHARWALA",
    "lat": 30.4826696,
    "lon": 74.9603304
  },
  {
    "partId": 41286,
    "stateCode": "S19",
    "stateName": "Punjab",
    "districtCode": "S1915",
    "districtName": "Faridkot",
    "acNumber": 89,
    "acName": "Jaitu",
    "partNumber": 108,
    "partName": "GODARA",
    "lat": 30.469224,
    "lon": 74.89196853122348
  },
  {
    "partId": 41287,
    "stateCode": "S19",
    "stateName": "Punjab",
    "districtCode": "S1915",
    "districtName": "Faridkot",
    "acNumber": 89,
    "acName": "Jaitu",
    "partNumber": 109,
    "partName": "GODARA",
    "lat": 30.469224,
    "lon": 74.89196853122348
  },
  {
    "partId": 41288,
    "stateCode": "S19",
    "stateName": "Punjab",
    "districtCode": "S1915",
    "districtName": "Faridkot",
    "acNumber": 89,
    "acName": "Jaitu",
    "partNumber": 110,
    "partName": "DOD",
    "lat": 30.7670617,
    "lon": 74.5992922
  },
  {
    "partId": 41289,
    "stateCode": "S19",
    "stateName": "Punjab",
    "districtCode": "S1915",
    "districtName": "Faridkot",
    "acNumber": 89,
    "acName": "Jaitu",
    "partNumber": 111,
    "partName": "DOD",
    "lat": 30.7670617,
    "lon": 74.5992922
  },
  {
    "partId": 41290,
    "stateCode": "S19",
    "stateName": "Punjab",
    "districtCode": "S1915",
    "districtName": "Faridkot",
    "acNumber": 89,
    "acName": "Jaitu",
    "partNumber": 112,
    "partName": "DOD",
    "lat": 30.7670617,
    "lon": 74.5992922
  },
  {
    "partId": 41291,
    "stateCode": "S19",
    "stateName": "Punjab",
    "districtCode": "S1915",
    "districtName": "Faridkot",
    "acNumber": 89,
    "acName": "Jaitu",
    "partNumber": 113,
    "partName": "DOD",
    "lat": 30.7670617,
    "lon": 74.5992922
  },
  {
    "partId": 41292,
    "stateCode": "S19",
    "stateName": "Punjab",
    "districtCode": "S1915",
    "districtName": "Faridkot",
    "acNumber": 89,
    "acName": "Jaitu",
    "partNumber": 114,
    "partName": "LAMBWALI",
    "lat": 30.4760788,
    "lon": 74.9879578
  },
  {
    "partId": 41293,
    "stateCode": "S19",
    "stateName": "Punjab",
    "districtCode": "S1915",
    "districtName": "Faridkot",
    "acNumber": 89,
    "acName": "Jaitu",
    "partNumber": 115,
    "partName": "LAMBWALI",
    "lat": 30.4760788,
    "lon": 74.9879578
  },
  {
    "partId": 41294,
    "stateCode": "S19",
    "stateName": "Punjab",
    "districtCode": "S1915",
    "districtName": "Faridkot",
    "acNumber": 89,
    "acName": "Jaitu",
    "partNumber": 116,
    "partName": "MALLA",
    "lat": 30.450925,
    "lon": 75.0108857
  },
  {
    "partId": 41295,
    "stateCode": "S19",
    "stateName": "Punjab",
    "districtCode": "S1915",
    "districtName": "Faridkot",
    "acNumber": 89,
    "acName": "Jaitu",
    "partNumber": 117,
    "partName": "MALLA",
    "lat": 30.450925,
    "lon": 75.0108857
  },
  {
    "partId": 41296,
    "stateCode": "S19",
    "stateName": "Punjab",
    "districtCode": "S1915",
    "districtName": "Faridkot",
    "acNumber": 89,
    "acName": "Jaitu",
    "partNumber": 118,
    "partName": "BAJAKHANA",
    "lat": 30.4553574,
    "lon": 74.980469
  },
  {
    "partId": 41297,
    "stateCode": "S19",
    "stateName": "Punjab",
    "districtCode": "S1915",
    "districtName": "Faridkot",
    "acNumber": 89,
    "acName": "Jaitu",
    "partNumber": 119,
    "partName": "BAJAKHANA",
    "lat": 30.4553574,
    "lon": 74.980469
  },
  {
    "partId": 41298,
    "stateCode": "S19",
    "stateName": "Punjab",
    "districtCode": "S1915",
    "districtName": "Faridkot",
    "acNumber": 89,
    "acName": "Jaitu",
    "partNumber": 120,
    "partName": "BAJAKHANA",
    "lat": 30.4553574,
    "lon": 74.980469
  },
  {
    "partId": 41299,
    "stateCode": "S19",
    "stateName": "Punjab",
    "districtCode": "S1915",
    "districtName": "Faridkot",
    "acNumber": 89,
    "acName": "Jaitu",
    "partNumber": 121,
    "partName": "BAJAKHANA",
    "lat": 30.4553574,
    "lon": 74.980469
  },
  {
    "partId": 41300,
    "stateCode": "S19",
    "stateName": "Punjab",
    "districtCode": "S1915",
    "districtName": "Faridkot",
    "acNumber": 89,
    "acName": "Jaitu",
    "partNumber": 122,
    "partName": "BAJAKHANA",
    "lat": 30.4553574,
    "lon": 74.980469
  },
  {
    "partId": 41301,
    "stateCode": "S19",
    "stateName": "Punjab",
    "districtCode": "S1915",
    "districtName": "Faridkot",
    "acNumber": 89,
    "acName": "Jaitu",
    "partNumber": 123,
    "partName": "SEDHA SINGH WALA",
    "lat": 30.469224,
    "lon": 74.89196853122348
  },
  {
    "partId": 41302,
    "stateCode": "S19",
    "stateName": "Punjab",
    "districtCode": "S1915",
    "districtName": "Faridkot",
    "acNumber": 89,
    "acName": "Jaitu",
    "partNumber": 124,
    "partName": "RAUWALA",
    "lat": 30.4467843,
    "lon": 74.949122
  },
  {
    "partId": 41303,
    "stateCode": "S19",
    "stateName": "Punjab",
    "districtCode": "S1915",
    "districtName": "Faridkot",
    "acNumber": 89,
    "acName": "Jaitu",
    "partNumber": 125,
    "partName": "RAMUWALA",
    "lat": 30.4528944,
    "lon": 74.8439122
  },
  {
    "partId": 41304,
    "stateCode": "S19",
    "stateName": "Punjab",
    "districtCode": "S1915",
    "districtName": "Faridkot",
    "acNumber": 89,
    "acName": "Jaitu",
    "partNumber": 126,
    "partName": "RAMUWALA",
    "lat": 30.4528944,
    "lon": 74.8439122
  },
  {
    "partId": 41305,
    "stateCode": "S19",
    "stateName": "Punjab",
    "districtCode": "S1915",
    "districtName": "Faridkot",
    "acNumber": 89,
    "acName": "Jaitu",
    "partNumber": 127,
    "partName": "CHAINA",
    "lat": 30.4218226,
    "lon": 74.8408992
  },
  {
    "partId": 41306,
    "stateCode": "S19",
    "stateName": "Punjab",
    "districtCode": "S1915",
    "districtName": "Faridkot",
    "acNumber": 89,
    "acName": "Jaitu",
    "partNumber": 128,
    "partName": "CHAINA",
    "lat": 30.4218226,
    "lon": 74.8408992
  },
  {
    "partId": 41307,
    "stateCode": "S19",
    "stateName": "Punjab",
    "districtCode": "S1915",
    "districtName": "Faridkot",
    "acNumber": 89,
    "acName": "Jaitu",
    "partNumber": 129,
    "partName": "RAMGARH",
    "lat": 30.4170614,
    "lon": 74.8628737
  },
  {
    "partId": 41308,
    "stateCode": "S19",
    "stateName": "Punjab",
    "districtCode": "S1915",
    "districtName": "Faridkot",
    "acNumber": 89,
    "acName": "Jaitu",
    "partNumber": 130,
    "partName": "RORHIKAPURA",
    "lat": 30.469224,
    "lon": 74.89196853122348
  },
  {
    "partId": 41309,
    "stateCode": "S19",
    "stateName": "Punjab",
    "districtCode": "S1915",
    "districtName": "Faridkot",
    "acNumber": 89,
    "acName": "Jaitu",
    "partNumber": 131,
    "partName": "RORIKAPURA",
    "lat": 30.4431511,
    "lon": 74.8174697
  },
  {
    "partId": 41310,
    "stateCode": "S19",
    "stateName": "Punjab",
    "districtCode": "S1915",
    "districtName": "Faridkot",
    "acNumber": 89,
    "acName": "Jaitu",
    "partNumber": 132,
    "partName": "RORIKAPURA",
    "lat": 30.4431511,
    "lon": 74.8174697
  },
  {
    "partId": 41311,
    "stateCode": "S19",
    "stateName": "Punjab",
    "districtCode": "S1915",
    "districtName": "Faridkot",
    "acNumber": 89,
    "acName": "Jaitu",
    "partNumber": 133,
    "partName": "RORIKAPURA",
    "lat": 30.4431511,
    "lon": 74.8174697
  },
  {
    "partId": 41312,
    "stateCode": "S19",
    "stateName": "Punjab",
    "districtCode": "S1915",
    "districtName": "Faridkot",
    "acNumber": 89,
    "acName": "Jaitu",
    "partNumber": 134,
    "partName": "KHACHRAN",
    "lat": 30.4390901,
    "lon": 74.7714947
  },
  {
    "partId": 41313,
    "stateCode": "S19",
    "stateName": "Punjab",
    "districtCode": "S1915",
    "districtName": "Faridkot",
    "acNumber": 89,
    "acName": "Jaitu",
    "partNumber": 135,
    "partName": "RAMEANA",
    "lat": 30.4175281,
    "lon": 74.7849998
  },
  {
    "partId": 41314,
    "stateCode": "S19",
    "stateName": "Punjab",
    "districtCode": "S1915",
    "districtName": "Faridkot",
    "acNumber": 89,
    "acName": "Jaitu",
    "partNumber": 136,
    "partName": "RAMEAANA",
    "lat": 30.469224,
    "lon": 74.89196853122348
  },
  {
    "partId": 41315,
    "stateCode": "S19",
    "stateName": "Punjab",
    "districtCode": "S1915",
    "districtName": "Faridkot",
    "acNumber": 89,
    "acName": "Jaitu",
    "partNumber": 137,
    "partName": "RAMEAANA",
    "lat": 30.469224,
    "lon": 74.89196853122348
  },
  {
    "partId": 41316,
    "stateCode": "S19",
    "stateName": "Punjab",
    "districtCode": "S1915",
    "districtName": "Faridkot",
    "acNumber": 89,
    "acName": "Jaitu",
    "partNumber": 138,
    "partName": "KARIRWALI",
    "lat": 30.4071122,
    "lon": 74.8267246
  },
  {
    "partId": 41317,
    "stateCode": "S19",
    "stateName": "Punjab",
    "districtCode": "S1915",
    "districtName": "Faridkot",
    "acNumber": 89,
    "acName": "Jaitu",
    "partNumber": 139,
    "partName": "KARIRWALI",
    "lat": 30.4071122,
    "lon": 74.8267246
  },
  {
    "partId": 41318,
    "stateCode": "S19",
    "stateName": "Punjab",
    "districtCode": "S1915",
    "districtName": "Faridkot",
    "acNumber": 89,
    "acName": "Jaitu",
    "partNumber": 140,
    "partName": "BISHNANDI",
    "lat": 30.3925241,
    "lon": 74.8558913
  },
  {
    "partId": 41319,
    "stateCode": "S19",
    "stateName": "Punjab",
    "districtCode": "S1915",
    "districtName": "Faridkot",
    "acNumber": 89,
    "acName": "Jaitu",
    "partNumber": 141,
    "partName": "BISHNANDI",
    "lat": 30.3925241,
    "lon": 74.8558913
  },
  {
    "partId": 41320,
    "stateCode": "S19",
    "stateName": "Punjab",
    "districtCode": "S1915",
    "districtName": "Faridkot",
    "acNumber": 89,
    "acName": "Jaitu",
    "partNumber": 142,
    "partName": "GUMTI KHURD",
    "lat": 30.4159003,
    "lon": 74.8895705
  },
  {
    "partId": 41321,
    "stateCode": "S19",
    "stateName": "Punjab",
    "districtCode": "S1915",
    "districtName": "Faridkot",
    "acNumber": 89,
    "acName": "Jaitu",
    "partNumber": 143,
    "partName": "GUMTI KHURD",
    "lat": 30.4159003,
    "lon": 74.8895705
  },
  {
    "partId": 41322,
    "stateCode": "S19",
    "stateName": "Punjab",
    "districtCode": "S1915",
    "districtName": "Faridkot",
    "acNumber": 89,
    "acName": "Jaitu",
    "partNumber": 144,
    "partName": "CHANDBHAN",
    "lat": 30.6014507,
    "lon": 74.79501756894368
  },
  {
    "partId": 41323,
    "stateCode": "S19",
    "stateName": "Punjab",
    "districtCode": "S1915",
    "districtName": "Faridkot",
    "acNumber": 89,
    "acName": "Jaitu",
    "partNumber": 145,
    "partName": "CHANDBHAN",
    "lat": 30.3849622,
    "lon": 74.8970291
  },
  {
    "partId": 41324,
    "stateCode": "S19",
    "stateName": "Punjab",
    "districtCode": "S1915",
    "districtName": "Faridkot",
    "acNumber": 89,
    "acName": "Jaitu",
    "partNumber": 146,
    "partName": "CHANDBHAN",
    "lat": 30.3849622,
    "lon": 74.8970291
  },
  {
    "partId": 41325,
    "stateCode": "S19",
    "stateName": "Punjab",
    "districtCode": "S1915",
    "districtName": "Faridkot",
    "acNumber": 89,
    "acName": "Jaitu",
    "partNumber": 147,
    "partName": "CHANDBHAN",
    "lat": 30.3849622,
    "lon": 74.8970291
  },
  {
    "partId": 41326,
    "stateCode": "S19",
    "stateName": "Punjab",
    "districtCode": "S1915",
    "districtName": "Faridkot",
    "acNumber": 89,
    "acName": "Jaitu",
    "partNumber": 148,
    "partName": "FATEHGARH",
    "lat": 30.4079539,
    "lon": 74.9437461
  },
  {
    "partId": 41327,
    "stateCode": "S19",
    "stateName": "Punjab",
    "districtCode": "S1915",
    "districtName": "Faridkot",
    "acNumber": 89,
    "acName": "Jaitu",
    "partNumber": 149,
    "partName": "FATEHGARH",
    "lat": 30.4079539,
    "lon": 74.9437461
  },
  {
    "partId": 41328,
    "stateCode": "S19",
    "stateName": "Punjab",
    "districtCode": "S1915",
    "districtName": "Faridkot",
    "acNumber": 89,
    "acName": "Jaitu",
    "partNumber": 150,
    "partName": "UKANDWALA",
    "lat": 30.4363159,
    "lon": 74.9507954
  },
  {
    "partId": 41329,
    "stateCode": "S19",
    "stateName": "Punjab",
    "districtCode": "S1915",
    "districtName": "Faridkot",
    "acNumber": 89,
    "acName": "Jaitu",
    "partNumber": 151,
    "partName": "GOBINDGARH",
    "lat": 30.4079539,
    "lon": 74.9437461
  },
  {
    "partId": 41330,
    "stateCode": "S19",
    "stateName": "Punjab",
    "districtCode": "S1915",
    "districtName": "Faridkot",
    "acNumber": 89,
    "acName": "Jaitu",
    "partNumber": 152,
    "partName": "GOBINDGARH",
    "lat": 30.4079539,
    "lon": 74.9437461
  },
  {
    "partId": 41193,
    "stateCode": "S19",
    "stateName": "Punjab",
    "districtCode": "S1915",
    "districtName": "Faridkot",
    "acNumber": 89,
    "acName": "Jaitu",
    "partNumber": 153,
    "partName": "Wara Bahi Ka",
    "lat": 30.469224,
    "lon": 74.89196853122348
  },
  {
    "partId": 41195,
    "stateCode": "S19",
    "stateName": "Punjab",
    "districtCode": "S1915",
    "districtName": "Faridkot",
    "acNumber": 89,
    "acName": "Jaitu",
    "partNumber": 154,
    "partName": "Wara Bahi Ka",
    "lat": 30.469224,
    "lon": 74.89196853122348
  },
  {
    "partId": 41197,
    "stateCode": "S19",
    "stateName": "Punjab",
    "districtCode": "S1915",
    "districtName": "Faridkot",
    "acNumber": 89,
    "acName": "Jaitu",
    "partNumber": 155,
    "partName": "Romana Ajit Singh",
    "lat": 30.4030244,
    "lon": 75.0198896
  },
  {
    "partId": 41192,
    "stateCode": "S19",
    "stateName": "Punjab",
    "districtCode": "S1915",
    "districtName": "Faridkot",
    "acNumber": 89,
    "acName": "Jaitu",
    "partNumber": 156,
    "partName": "Romana Ajit Singh",
    "lat": 30.4030244,
    "lon": 75.0198896
  },
  {
    "partId": 41194,
    "stateCode": "S19",
    "stateName": "Punjab",
    "districtCode": "S1915",
    "districtName": "Faridkot",
    "acNumber": 89,
    "acName": "Jaitu",
    "partNumber": 157,
    "partName": "Romana Ajit Singh",
    "lat": 30.4030244,
    "lon": 75.0198896
  },
  {
    "partId": 41196,
    "stateCode": "S19",
    "stateName": "Punjab",
    "districtCode": "S1915",
    "districtName": "Faridkot",
    "acNumber": 89,
    "acName": "Jaitu",
    "partNumber": 158,
    "partName": "Ghania",
    "lat": 30.4176858,
    "lon": 75.0328369
  },
  {
    "partId": 41200,
    "stateCode": "S19",
    "stateName": "Punjab",
    "districtCode": "S1915",
    "districtName": "Faridkot",
    "acNumber": 89,
    "acName": "Jaitu",
    "partNumber": 159,
    "partName": "Ghania",
    "lat": 30.4176858,
    "lon": 75.0328369
  },
  {
    "partId": 35003,
    "stateCode": "S19",
    "stateName": "Punjab",
    "districtCode": "S1915",
    "districtName": "Faridkot",
    "acNumber": 88,
    "acName": "Kotkapura",
    "partNumber": 1,
    "partName": "Tehna",
    "lat": 30.6910856,
    "lon": 74.7981224
  },
  {
    "partId": 35004,
    "stateCode": "S19",
    "stateName": "Punjab",
    "districtCode": "S1915",
    "districtName": "Faridkot",
    "acNumber": 88,
    "acName": "Kotkapura",
    "partNumber": 2,
    "partName": "Tehna",
    "lat": 30.6910856,
    "lon": 74.7981224
  },
  {
    "partId": 35005,
    "stateCode": "S19",
    "stateName": "Punjab",
    "districtCode": "S1915",
    "districtName": "Faridkot",
    "acNumber": 88,
    "acName": "Kotkapura",
    "partNumber": 3,
    "partName": "Tehna",
    "lat": 30.6910856,
    "lon": 74.7981224
  },
  {
    "partId": 35006,
    "stateCode": "S19",
    "stateName": "Punjab",
    "districtCode": "S1915",
    "districtName": "Faridkot",
    "acNumber": 88,
    "acName": "Kotkapura",
    "partNumber": 4,
    "partName": "Pakka",
    "lat": 30.7077379,
    "lon": 74.8071073
  },
  {
    "partId": 35007,
    "stateCode": "S19",
    "stateName": "Punjab",
    "districtCode": "S1915",
    "districtName": "Faridkot",
    "acNumber": 88,
    "acName": "Kotkapura",
    "partNumber": 5,
    "partName": "Pakka",
    "lat": 30.7077379,
    "lon": 74.8071073
  },
  {
    "partId": 35008,
    "stateCode": "S19",
    "stateName": "Punjab",
    "districtCode": "S1915",
    "districtName": "Faridkot",
    "acNumber": 88,
    "acName": "Kotkapura",
    "partNumber": 6,
    "partName": "Pakka",
    "lat": 30.7077379,
    "lon": 74.8071073
  },
  {
    "partId": 35009,
    "stateCode": "S19",
    "stateName": "Punjab",
    "districtCode": "S1915",
    "districtName": "Faridkot",
    "acNumber": 88,
    "acName": "Kotkapura",
    "partNumber": 7,
    "partName": "Pakka",
    "lat": 30.7077379,
    "lon": 74.8071073
  },
  {
    "partId": 35010,
    "stateCode": "S19",
    "stateName": "Punjab",
    "districtCode": "S1915",
    "districtName": "Faridkot",
    "acNumber": 88,
    "acName": "Kotkapura",
    "partNumber": 8,
    "partName": "Moranwali",
    "lat": 30.7407294,
    "lon": 74.8121633
  },