[
  {
    "partId": 41428,
    "stateCode": "S19",
    "stateName": "Punjab",
    "districtCode": "S1906",
    "districtName": "Hoshiarpur",
    "acNumber": 44,
    "acName": "Chabbewal",
    "partNumber": 1,
    "partName": "SAHRI",
    "lat": 31.4654948,
    "lon": 75.8499741
  },
  {
    "partId": 41427,
    "stateCode": "S19",
    "stateName": "Punjab",
    "districtCode": "S1906",
    "districtName": "Hoshiarpur",
    "acNumber": 44,
    "acName": "Chabbewal",
    "partNumber": 2,
    "partName": "SAHRI",
    "lat": 31.4654948,
    "lon": 75.8499741
  },
  {
    "partId": 41429,
    "stateCode": "S19",
    "stateName": "Punjab",
    "districtCode": "S1906",
    "districtName": "Hoshiarpur",
    "acNumber": 44,
    "acName": "Chabbewal",
    "partNumber": 3,
    "partName": "SAHRI",
    "lat": 31.4654948,
    "lon": 75.8499741
  },
  {
    "partId": 41431,
    "stateCode": "S19",
    "stateName": "Punjab",
    "districtCode": "S1906",
    "districtName": "Hoshiarpur",
    "acNumber": 44,
    "acName": "Chabbewal",
    "partNumber": 4,
    "partName": "KAHRI",
    "lat": 31.4736208,
    "lon": 75.8563041
  },
  {
    "partId": 41433,
    "stateCode": "S19",
    "stateName": "Punjab",
    "districtCode": "S1906",
    "districtName": "Hoshiarpur",
    "acNumber": 44,
    "acName": "Chabbewal",
    "partNumber": 5,
    "partName": "MARHULI BRAHMANA",
    "lat": 31.4449097,
    "lon": 75.9879297
  },
  {
    "partId": 41430,
    "stateCode": "S19",
    "stateName": "Punjab",
    "districtCode": "S1906",
    "districtName": "Hoshiarpur",
    "acNumber": 44,
    "acName": "Chabbewal",
    "partNumber": 6,
    "partName": "BASSI DAULAT KHAN",
    "lat": 31.4449097,
    "lon": 75.9879297
  },
  {
    "partId": 41619,
    "stateCode": "S19",
    "stateName": "Punjab",
    "districtCode": "S1906",
    "districtName": "Hoshiarpur",
    "acNumber": 44,
    "acName": "Chabbewal",
    "partNumber": 7,
    "partName": "BASSI DAULAT KHAN",
    "lat": 31.4449097,
    "lon": 75.9879297
  },
  {
    "partId": 41432,
    "stateCode": "S19",
    "stateName": "Punjab",
    "districtCode": "S1906",
    "districtName": "Hoshiarpur",
    "acNumber": 44,
    "acName": "Chabbewal",
    "partNumber": 8,
    "partName": "ATTALGARH",
    "lat": 31.4449097,
    "lon": 75.9879297
  },
  {
    "partId": 41434,
    "stateCode": "S19",
    "stateName": "Punjab",
    "districtCode": "S1906",
    "districtName": "Hoshiarpur",
    "acNumber": 44,
    "acName": "Chabbewal",
    "partNumber": 9,
    "partName": "MEHMOWAL",
    "lat": 31.4449097,
    "lon": 75.9879297
  },
  {
    "partId": 41436,
    "stateCode": "S19",
    "stateName": "Punjab",
    "districtCode": "S1906",
    "districtName": "Hoshiarpur",
    "acNumber": 44,
    "acName": "Chabbewal",
    "partNumber": 10,
    "partName": "RAURIAN",
    "lat": 31.4449097,
    "lon": 75.9879297
  },
  {
    "partId": 41437,
    "stateCode": "S19",
    "stateName": "Punjab",
    "districtCode": "S1906",
    "districtName": "Hoshiarpur",
    "acNumber": 44,
    "acName": "Chabbewal",
    "partNumber": 11,
    "partName": "MANNA",
    "lat": 31.4449097,
    "lon": 75.9879297
  },
  {
    "partId": 41435,
    "stateCode": "S19",
    "stateName": "Punjab",
    "districtCode": "S1906",
    "districtName": "Hoshiarpur",
    "acNumber": 44,
    "acName": "Chabbewal",
    "partNumber": 12,
    "partName": "ATTOWAL",
    "lat": 31.4582371,
    "lon": 75.8700826
  },
  {
    "partId": 41438,
    "stateCode": "S19",
    "stateName": "Punjab",
    "districtCode": "S1906",
    "districtName": "Hoshiarpur",
    "acNumber": 44,
    "acName": "Chabbewal",
    "partNumber": 13,
    "partName": "MARNAIAN KALAN",
    "lat": 31.4501253,
    "lon": 75.8564155
  },
  {
    "partId": 41445,
    "stateCode": "S19",
    "stateName": "Punjab",
    "districtCode": "S1906",
    "districtName": "Hoshiarpur",
    "acNumber": 44,
    "acName": "Chabbewal",
    "partNumber": 14,
    "partName": "DHAKOWAL",
    "lat": 31.4632436,
    "lon": 75.8777189
  },
  {
    "partId": 41443,
    "stateCode": "S19",
    "stateName": "Punjab",
    "districtCode": "S1906",
    "districtName": "Hoshiarpur",
    "acNumber": 44,
    "acName": "Chabbewal",
    "partNumber": 15,
    "partName": "BATHIAN BRAHMANA",
    "lat": 31.4449097,
    "lon": 75.9879297
  },
  {
    "partId": 41439,
    "stateCode": "S19",
    "stateName": "Punjab",
    "districtCode": "S1906",
    "districtName": "Hoshiarpur",
    "acNumber": 44,
    "acName": "Chabbewal",
    "partNumber": 16,
    "partName": "PHULAHI",
    "lat": 31.4449097,
    "lon": 75.9879297
  },
  {
    "partId": 41446,
    "stateCode": "S19",
    "stateName": "Punjab",
    "districtCode": "S1906",
    "districtName": "Hoshiarpur",
    "acNumber": 44,
    "acName": "Chabbewal",
    "partNumber": 17,
    "partName": "SALEMPUR",
    "lat": 31.6702277,
    "lon": 75.5271826
  },
  {
    "partId": 41442,
    "stateCode": "S19",
    "stateName": "Punjab",
    "districtCode": "S1906",
    "districtName": "Hoshiarpur",
    "acNumber": 44,
    "acName": "Chabbewal",
    "partNumber": 18,
    "partName": "SALEMPUR",
    "lat": 31.6702277,
    "lon": 75.5271826
  },
  {
    "partId": 41440,
    "stateCode": "S19",
    "stateName": "Punjab",
    "districtCode": "S1906",
    "districtName": "Hoshiarpur",
    "acNumber": 44,
    "acName": "Chabbewal",
    "partNumber": 19,
    "partName": "CHAGGRAN",
    "lat": 31.4449097,
    "lon": 75.9879297
  },
  {
    "partId": 41447,
    "stateCode": "S19",
    "stateName": "Punjab",
    "districtCode": "S1906",
    "districtName": "Hoshiarpur",
    "acNumber": 44,
    "acName": "Chabbewal",
    "partNumber": 20,
    "partName": "CHAGGRAN",
    "lat": 31.4449097,
    "lon": 75.9879297
  },
  {
    "partId": 41448,
    "stateCode": "S19",
    "stateName": "Punjab",
    "districtCode": "S1906",
    "districtName": "Hoshiarpur",
    "acNumber": 44,
    "acName": "Chabbewal",
    "partNumber": 21,
    "partName": "MAL MAJARA",
    "lat": 31.4449097,
    "lon": 75.9879297
  },
  {
    "partId": 41620,
    "stateCode": "S19",
    "stateName": "Punjab",
    "districtCode": "S1906",
    "districtName": "Hoshiarpur",
    "acNumber": 44,
    "acName": "Chabbewal",
    "partNumber": 22,
    "partName": "JATTPUR",
    "lat": 31.4449097,
    "lon": 75.9879297
  },
  {
    "partId": 41441,
    "stateCode": "S19",
    "stateName": "Punjab",
    "districtCode": "S1906",
    "districtName": "Hoshiarpur",
    "acNumber": 44,
    "acName": "Chabbewal",
    "partNumber": 23,
    "partName": "BOHAN",
    "lat": 31.4610839,
    "lon": 75.9517264
  },
  {
    "partId": 41451,
    "stateCode": "S19",
    "stateName": "Punjab",
    "districtCode": "S1906",
    "districtName": "Hoshiarpur",
    "acNumber": 44,
    "acName": "Chabbewal",
    "partNumber": 24,
    "partName": "BOHAN",
    "lat": 31.4610839,
    "lon": 75.9517264
  },
  {
    "partId": 41449,
    "stateCode": "S19",
    "stateName": "Punjab",
    "districtCode": "S1906",
    "districtName": "Hoshiarpur",
    "acNumber": 44,
    "acName": "Chabbewal",
    "partNumber": 25,
    "partName": "BAJRAWAR",
    "lat": 31.441003,
    "lon": 75.9640217
  },
  {
    "partId": 41444,
    "stateCode": "S19",
    "stateName": "Punjab",
    "districtCode": "S1906",
    "districtName": "Hoshiarpur",
    "acNumber": 44,
    "acName": "Chabbewal",
    "partNumber": 26,
    "partName": "BAJRAWAR",
    "lat": 31.441003,
    "lon": 75.9640217
  },
  {
    "partId": 41453,
    "stateCode": "S19",
    "stateName": "Punjab",
    "districtCode": "S1906",
    "districtName": "Hoshiarpur",
    "acNumber": 44,
    "acName": "Chabbewal",
    "partNumber": 27,
    "partName": "BAJRAWAR",
    "lat": 31.441003,
    "lon": 75.9640217
  },
  {
    "partId": 41450,
    "stateCode": "S19",
    "stateName": "Punjab",
    "districtCode": "S1906",
    "districtName": "Hoshiarpur",
    "acNumber": 44,
    "acName": "Chabbewal",
    "partNumber": 28,
    "partName": "BADIAL",
    "lat": 31.4588325,
    "lon": 75.9172868
  },
  {
    "partId": 41456,
    "stateCode": "S19",
    "stateName": "Punjab",
    "districtCode": "S1906",
    "districtName": "Hoshiarpur",
    "acNumber": 44,
    "acName": "Chabbewal",
    "partNumber": 29,
    "partName": "BHATRANA",
    "lat": 31.4455694,
    "lon": 75.8965521
  },
  {
    "partId": 41454,
    "stateCode": "S19",
    "stateName": "Punjab",
    "districtCode": "S1906",
    "districtName": "Hoshiarpur",
    "acNumber": 44,
    "acName": "Chabbewal",
    "partNumber": 30,
    "partName": "HARKHOWAL",
    "lat": 31.4538016,
    "lon": 75.878514
  },
  {
    "partId": 41455,
    "stateCode": "S19",
    "stateName": "Punjab",
    "districtCode": "S1906",
    "districtName": "Hoshiarpur",
    "acNumber": 44,
    "acName": "Chabbewal",
    "partNumber": 31,
    "partName": "PANDORI BIBI",
    "lat": 31.4449097,
    "lon": 75.9879297
  },
  {
    "partId": 41457,
    "stateCode": "S19",
    "stateName": "Punjab",
    "districtCode": "S1906",
    "districtName": "Hoshiarpur",
    "acNumber": 44,
    "acName": "Chabbewal",
    "partNumber": 32,
    "partName": "PANDORI BIBI",
    "lat": 31.4449097,
    "lon": 75.9879297
  },
  {
    "partId": 41452,
    "stateCode": "S19",
    "stateName": "Punjab",
    "districtCode": "S1906",
    "districtName": "Hoshiarpur",
    "acNumber": 44,
    "acName": "Chabbewal",
    "partNumber": 33,
    "partName": "TANULI",
    "lat": 31.4338996,
    "lon": 75.8544588
  },
  {
    "partId": 41458,
    "stateCode": "S19",
    "stateName": "Punjab",
    "districtCode": "S1906",
    "districtName": "Hoshiarpur",
    "acNumber": 44,
    "acName": "Chabbewal",
    "partNumber": 34,
    "partName": "TANULI",
    "lat": 31.4338996,
    "lon": 75.8544588
  },
  {
    "partId": 41621,
    "stateCode": "S19",
    "stateName": "Punjab",
    "districtCode": "S1906",
    "districtName": "Hoshiarpur",
    "acNumber": 44,
    "acName": "Chabbewal",
    "partNumber": 35,
    "partName": "AHIRANA KALAN",
    "lat": 31.4449097,
    "lon": 75.9879297
  },
  {
    "partId": 41460,
    "stateCode": "S19",
    "stateName": "Punjab",
    "districtCode": "S1906",
    "districtName": "Hoshiarpur",
    "acNumber": 44,
    "acName": "Chabbewal",
    "partNumber": 36,
    "partName": "AHIRANA KALAN",
    "lat": 31.4449097,
    "lon": 75.9879297
  },
  {
    "partId": 41459,
    "stateCode": "S19",
    "stateName": "Punjab",
    "districtCode": "S1906",
    "districtName": "Hoshiarpur",
    "acNumber": 44,
    "acName": "Chabbewal",
    "partNumber": 37,
    "partName": "Ahirana khurd",
    "lat": 31.4449097,
    "lon": 75.9879297
  },
  {
    "partId": 41463,
    "stateCode": "S19",
    "stateName": "Punjab",
    "districtCode": "S1906",
    "districtName": "Hoshiarpur",
    "acNumber": 44,
    "acName": "Chabbewal",
    "partNumber": 38,
    "partName": "AHIRANA Khurd",
    "lat": 31.4449097,
    "lon": 75.9879297
  },
  {
    "partId": 41464,
    "stateCode": "S19",
    "stateName": "Punjab",
    "districtCode": "S1906",
    "districtName": "Hoshiarpur",
    "acNumber": 44,
    "acName": "Chabbewal",
    "partNumber": 39,
    "partName": "KHANAURA",
    "lat": 31.392644,
    "lon": 75.8172043
  },
  {
    "partId": 41462,
    "stateCode": "S19",
    "stateName": "Punjab",
    "districtCode": "S1906",
    "districtName": "Hoshiarpur",
    "acNumber": 44,
    "acName": "Chabbewal",
    "partNumber": 40,
    "partName": "KHANAURA",
    "lat": 31.392644,
    "lon": 75.8172043
  },
  {
    "partId": 41622,
    "stateCode": "S19",
    "stateName": "Punjab",
    "districtCode": "S1906",
    "districtName": "Hoshiarpur",
    "acNumber": 44,
    "acName": "Chabbewal",
    "partNumber": 41,
    "partName": "MEHTIANA",
    "lat": 31.3739815,
    "lon": 75.8197297
  },
  {
    "partId": 41466,
    "stateCode": "S19",
    "stateName": "Punjab",
    "districtCode": "S1906",
    "districtName": "Hoshiarpur",
    "acNumber": 44,
    "acName": "Chabbewal",
    "partNumber": 42,
    "partName": "MEHTIANA",
    "lat": 31.3739815,
    "lon": 75.8197297
  },
  {
    "partId": 41465,
    "stateCode": "S19",
    "stateName": "Punjab",
    "districtCode": "S1906",
    "districtName": "Hoshiarpur",
    "acNumber": 44,
    "acName": "Chabbewal",
    "partNumber": 43,
    "partName": "SIMBLI",
    "lat": 31.4449097,
    "lon": 75.9879297
  },
  {
    "partId": 41486,
    "stateCode": "S19",
    "stateName": "Punjab",
    "districtCode": "S1906",
    "districtName": "Hoshiarpur",
    "acNumber": 44,
    "acName": "Chabbewal",
    "partNumber": 44,
    "partName": "PHUGLANA",
    "lat": 31.4449097,
    "lon": 75.9879297
  },
  {
    "partId": 41469,
    "stateCode": "S19",
    "stateName": "Punjab",
    "districtCode": "S1906",
    "districtName": "Hoshiarpur",
    "acNumber": 44,
    "acName": "Chabbewal",
    "partNumber": 45,
    "partName": "PHUGLANA",
    "lat": 31.4449097,
    "lon": 75.9879297
  },
  {
    "partId": 41470,
    "stateCode": "S19",
    "stateName": "Punjab",
    "districtCode": "S1906",
    "districtName": "Hoshiarpur",
    "acNumber": 44,
    "acName": "Chabbewal",
    "partNumber": 46,
    "partName": "PHUGLANA",
    "lat": 31.4449097,
    "lon": 75.9879297
  },
  {
    "partId": 41461,
    "stateCode": "S19",
    "stateName": "Punjab",
    "districtCode": "S1906",
    "districtName": "Hoshiarpur",
    "acNumber": 44,
    "acName": "Chabbewal",
    "partNumber": 47,
    "partName": "MONAN KALAN",
    "lat": 31.4449097,
    "lon": 75.9879297
  },
  {
    "partId": 41480,
    "stateCode": "S19",
    "stateName": "Punjab",
    "districtCode": "S1906",
    "districtName": "Hoshiarpur",
    "acNumber": 44,
    "acName": "Chabbewal",
    "partNumber": 48,
    "partName": "MONAN KALAN",
    "lat": 31.4449097,
    "lon": 75.9879297
  },
  {
    "partId": 41468,
    "stateCode": "S19",
    "stateName": "Punjab",
    "districtCode": "S1906",
    "districtName": "Hoshiarpur",
    "acNumber": 44,
    "acName": "Chabbewal",
    "partNumber": 49,
    "partName": "PHADMA",
    "lat": 31.4449097,
    "lon": 75.9879297
  },
  {
    "partId": 41490,
    "stateCode": "S19",
    "stateName": "Punjab",
    "districtCode": "S1906",
    "districtName": "Hoshiarpur",
    "acNumber": 44,
    "acName": "Chabbewal",
    "partNumber": 50,
    "partName": "MONAN KHURD",
    "lat": 31.4449097,
    "lon": 75.9879297
  },
  {
    "partId": 41467,
    "stateCode": "S19",
    "stateName": "Punjab",
    "districtCode": "S1906",
    "districtName": "Hoshiarpur",
    "acNumber": 44,
    "acName": "Chabbewal",
    "partNumber": 51,
    "partName": "HUKRAN",
    "lat": 31.4449097,
    "lon": 75.9879297
  },
  {
    "partId": 41474,
    "stateCode": "S19",
    "stateName": "Punjab",
    "districtCode": "S1906",
    "districtName": "Hoshiarpur",
    "acNumber": 44,
    "acName": "Chabbewal",
    "partNumber": 52,
    "partName": "TAJOWAL",
    "lat": 31.4275279,
    "lon": 75.8947563
  },
  {
    "partId": 41471,
    "stateCode": "S19",
    "stateName": "Punjab",
    "districtCode": "S1906",
    "districtName": "Hoshiarpur",
    "acNumber": 44,
    "acName": "Chabbewal",
    "partNumber": 53,
    "partName": "HARMOYA",
    "lat": 31.4309518,
    "lon": 75.916214
  },
  {
    "partId": 41488,
    "stateCode": "S19",
    "stateName": "Punjab",
    "districtCode": "S1906",
    "districtName": "Hoshiarpur",
    "acNumber": 44,
    "acName": "Chabbewal",
    "partNumber": 54,
    "partName": "PATTI",
    "lat": 31.4419916,
    "lon": 75.9308052
  },
  {
    "partId": 41483,
    "stateCode": "S19",
    "stateName": "Punjab",
    "districtCode": "S1906",
    "districtName": "Hoshiarpur",
    "acNumber": 44,
    "acName": "Chabbewal",
    "partNumber": 55,
    "partName": "PATTI",
    "lat": 31.4419916,
    "lon": 75.9308052
  },
  {
    "partId": 41472,
    "stateCode": "S19",
    "stateName": "Punjab",
    "districtCode": "S1906",
    "districtName": "Hoshiarpur",
    "acNumber": 44,
    "acName": "Chabbewal",
    "partNumber": 56,
    "partName": "PATTI",
    "lat": 31.4419916,
    "lon": 75.9308052
  },
  {
    "partId": 41473,
    "stateCode": "S19",
    "stateName": "Punjab",
    "districtCode": "S1906",
    "districtName": "Hoshiarpur",
    "acNumber": 44,
    "acName": "Chabbewal",
    "partNumber": 57,
    "partName": "CHABBEWAL",
    "lat": 31.4449097,
    "lon": 75.9879297
  },
  {
    "partId": 41484,
    "stateCode": "S19",
    "stateName": "Punjab",
    "districtCode": "S1906",
    "districtName": "Hoshiarpur",
    "acNumber": 44,
    "acName": "Chabbewal",
    "partNumber": 58,
    "partName": "CHABBEWAL",
    "lat": 31.4449097,
    "lon": 75.9879297
  },
  {
    "partId": 41476,
    "stateCode": "S19",
    "stateName": "Punjab",
    "districtCode": "S1906",
    "districtName": "Hoshiarpur",
    "acNumber": 44,
    "acName": "Chabbewal",
    "partNumber": 59,
    "partName": "MEHNA",
    "lat": 31.4449097,
    "lon": 75.9879297
  },
  {
    "partId": 41482,
    "stateCode": "S19",
    "stateName": "Punjab",
    "districtCode": "S1906",
    "districtName": "Hoshiarpur",
    "acNumber": 44,
    "acName": "Chabbewal",
    "partNumber": 60,
    "partName": "BASSI JAURA",
    "lat": 31.4449097,
    "lon": 75.9879297
  },
  {
    "partId": 41479,
    "stateCode": "S19",
    "stateName": "Punjab",
    "districtCode": "S1906",
    "districtName": "Hoshiarpur",
    "acNumber": 44,
    "acName": "Chabbewal",
    "partNumber": 61,
    "partName": "BASSI KALAN",
    "lat": 31.4449097,
    "lon": 75.9879297
  },
  {
    "partId": 41475,
    "stateCode": "S19",
    "stateName": "Punjab",
    "districtCode": "S1906",
    "districtName": "Hoshiarpur",
    "acNumber": 44,
    "acName": "Chabbewal",
    "partNumber": 62,
    "partName": "BASSI KALAN",
    "lat": 31.4449097,
    "lon": 75.9879297
  },
  {
    "partId": 41477,
    "stateCode": "S19",
    "stateName": "Punjab",
    "districtCode": "S1906",
    "districtName": "Hoshiarpur",
    "acNumber": 44,
    "acName": "Chabbewal",
    "partNumber": 63,
    "partName": "BATHULA",
    "lat": 31.4449097,
    "lon": 75.9879297
  },
  {
    "partId": 41623,
    "stateCode": "S19",
    "stateName": "Punjab",
    "districtCode": "S1906",
    "districtName": "Hoshiarpur",
    "acNumber": 44,
    "acName": "Chabbewal",
    "partNumber": 64,
    "partName": "PARSOWAL",
    "lat": 31.4406369,
    "lon": 76.0244894
  },
  {
    "partId": 41478,
    "stateCode": "S19",
    "stateName": "Punjab",
    "districtCode": "S1906",
    "districtName": "Hoshiarpur",
    "acNumber": 44,
    "acName": "Chabbewal",
    "partNumber": 65,
    "partName": "TAJEWAL",
    "lat": 31.4449097,
    "lon": 75.9879297
  },
  {
    "partId": 41489,
    "stateCode": "S19",
    "stateName": "Punjab",
    "districtCode": "S1906",
    "districtName": "Hoshiarpur",
    "acNumber": 44,
    "acName": "Chabbewal",
    "partNumber": 66,
    "partName": "Nasran",
    "lat": 31.4449097,
    "lon": 75.9879297
  },
  {
    "partId": 41501,
    "stateCode": "S19",
    "stateName": "Punjab",
    "districtCode": "S1906",
    "districtName": "Hoshiarpur",
    "acNumber": 44,
    "acName": "Chabbewal",
    "partNumber": 67,
    "partName": "BICHHOHI",
    "lat": 31.4449097,
    "lon": 75.9879297
  },
  {
    "partId": 41481,
    "stateCode": "S19",
    "stateName": "Punjab",
    "districtCode": "S1906",
    "districtName": "Hoshiarpur",
    "acNumber": 44,
    "acName": "Chabbewal",
    "partNumber": 68,
    "partName": "BICHHOHI",
    "lat": 31.4449097,
    "lon": 75.9879297
  },
  {
    "partId": 41502,
    "stateCode": "S19",
    "stateName": "Punjab",
    "districtCode": "S1906",
    "districtName": "Hoshiarpur",
    "acNumber": 44,
    "acName": "Chabbewal",
    "partNumber": 69,
    "partName": "SUNNA",
    "lat": 31.4449097,
    "lon": 75.9879297
  },
  {
    "partId": 41487,
    "stateCode": "S19",
    "stateName": "Punjab",
    "districtCode": "S1906",
    "districtName": "Hoshiarpur",
    "acNumber": 44,
    "acName": "Chabbewal",
    "partNumber": 70,
    "partName": "SARANGWAL",
    "lat": 31.4381928,
    "lon": 76.0667932
  },
  {
    "partId": 41485,
    "stateCode": "S19",
    "stateName": "Punjab",
    "districtCode": "S1906",
    "districtName": "Hoshiarpur",
    "acNumber": 44,
    "acName": "Chabbewal",
    "partNumber": 71,
    "partName": "SARANGWAL",
    "lat": 31.4381928,
    "lon": 76.0667932
  },
  {
    "partId": 41493,
    "stateCode": "S19",
    "stateName": "Punjab",
    "districtCode": "S1906",
    "districtName": "Hoshiarpur",
    "acNumber": 44,
    "acName": "Chabbewal",
    "partNumber": 72,
    "partName": "JANDOLI",
    "lat": 31.4359501,
    "lon": 76.0464191
  },
  {
    "partId": 41494,
    "stateCode": "S19",
    "stateName": "Punjab",
    "districtCode": "S1906",
    "districtName": "Hoshiarpur",
    "acNumber": 44,
    "acName": "Chabbewal",
    "partNumber": 73,
    "partName": "JANDOLI",
    "lat": 31.4359501,
    "lon": 76.0464191
  },
  {
    "partId": 41500,
    "stateCode": "S19",
    "stateName": "Punjab",
    "districtCode": "S1906",
    "districtName": "Hoshiarpur",
    "acNumber": 44,
    "acName": "Chabbewal",
    "partNumber": 74,
    "partName": "JANDOLI",
    "lat": 31.4359501,
    "lon": 76.0464191
  },
  {
    "partId": 41499,
    "stateCode": "S19",
    "stateName": "Punjab",
    "districtCode": "S1906",
    "districtName": "Hoshiarpur",
    "acNumber": 44,
    "acName": "Chabbewal",
    "partNumber": 75,
    "partName": "BHULEWAL RATHAN",
    "lat": 31.4449097,
    "lon": 75.9879297
  },
  {
    "partId": 41491,
    "stateCode": "S19",
    "stateName": "Punjab",
    "districtCode": "S1906",
    "districtName": "Hoshiarpur",
    "acNumber": 44,
    "acName": "Chabbewal",
    "partNumber": 76,
    "partName": "LEHLI KHURD",
    "lat": 31.4449097,
    "lon": 75.9879297
  },
  {
    "partId": 41496,
    "stateCode": "S19",
    "stateName": "Punjab",
    "districtCode": "S1906",
    "districtName": "Hoshiarpur",
    "acNumber": 44,
    "acName": "Chabbewal",
    "partNumber": 77,
    "partName": "SAIDO PATTI",
    "lat": 31.4449097,
    "lon": 75.9879297
  },
  {
    "partId": 41503,
    "stateCode": "S19",
    "stateName": "Punjab",
    "districtCode": "S1906",
    "districtName": "Hoshiarpur",
    "acNumber": 44,
    "acName": "Chabbewal",
    "partNumber": 78,
    "partName": "JIYAN",
    "lat": 31.4449097,
    "lon": 75.9879297
  },
  {
    "partId": 41504,
    "stateCode": "S19",
    "stateName": "Punjab",
    "districtCode": "S1906",
    "districtName": "Hoshiarpur",
    "acNumber": 44,
    "acName": "Chabbewal",
    "partNumber": 79,
    "partName": "BHILLOWAL",
    "lat": 31.4449097,
    "lon": 75.9879297
  },
  {
    "partId": 41492,
    "stateCode": "S19",
    "stateName": "Punjab",
    "districtCode": "S1906",
    "districtName": "Hoshiarpur",
    "acNumber": 44,
    "acName": "Chabbewal",
    "partNumber": 80,
    "partName": "HANDOWAL",
    "lat": 31.4449097,
    "lon": 75.9879297
  },
  {
    "partId": 41497,
    "stateCode": "S19",
    "stateName": "Punjab",
    "districtCode": "S1906",
    "districtName": "Hoshiarpur",
    "acNumber": 44,
    "acName": "Chabbewal",
    "partNumber": 81,
    "partName": "SINGHPUR",
    "lat": 31.4243054,
    "lon": 76.0163354
  },
  {
    "partId": 41519,
    "stateCode": "S19",
    "stateName": "Punjab",
    "districtCode": "S1906",
    "districtName": "Hoshiarpur",
    "acNumber": 44,
    "acName": "Chabbewal",
    "partNumber": 82,
    "partName": "KALEWAL BHAGTAN",
    "lat": 31.411225,
    "lon": 76.0320103
  },
  {
    "partId": 41495,
    "stateCode": "S19",
    "stateName": "Punjab",
    "districtCode": "S1906",
    "districtName": "Hoshiarpur",
    "acNumber": 44,
    "acName": "Chabbewal",
    "partNumber": 83,
    "partName": "NANGAL KHIDARIAN",
    "lat": 31.4449097,
    "lon": 75.9879297
  },
  {
    "partId": 41505,
    "stateCode": "S19",
    "stateName": "Punjab",
    "districtCode": "S1906",
    "districtName": "Hoshiarpur",
    "acNumber": 44,
    "acName": "Chabbewal",
    "partNumber": 84,
    "partName": "KHANPUR",
    "lat": 31.8924806,
    "lon": 75.6311221
  },
  {
    "partId": 41498,
    "stateCode": "S19",
    "stateName": "Punjab",
    "districtCode": "S1906",
    "districtName": "Hoshiarpur",
    "acNumber": 44,
    "acName": "Chabbewal",
    "partNumber": 85,
    "partName": "MEHAMDOWAL",
    "lat": 31.4449097,
    "lon": 75.9879297
  },
  {
    "partId": 41509,
    "stateCode": "S19",
    "stateName": "Punjab",
    "districtCode": "S1906",
    "districtName": "Hoshiarpur",
    "acNumber": 44,
    "acName": "Chabbewal",
    "partNumber": 86,
    "partName": "GOHGRON",
    "lat": 31.4449097,
    "lon": 75.9879297
  },
  {
    "partId": 41624,
    "stateCode": "S19",
    "stateName": "Punjab",
    "districtCode": "S1906",
    "districtName": "Hoshiarpur",
    "acNumber": 44,
    "acName": "Chabbewal",
    "partNumber": 87,
    "partName": "MAILI",
    "lat": 31.4257702,
    "lon": 76.0925102
  },
  {
    "partId": 41507,
    "stateCode": "S19",
    "stateName": "Punjab",
    "districtCode": "S1906",
    "districtName": "Hoshiarpur",
    "acNumber": 44,
    "acName": "Chabbewal",
    "partNumber": 88,
    "partName": "MAILI",
    "lat": 31.4257702,
    "lon": 76.0925102
  },
  {
    "partId": 41510,
    "stateCode": "S19",
    "stateName": "Punjab",
    "districtCode": "S1906",
    "districtName": "Hoshiarpur",
    "acNumber": 44,
    "acName": "Chabbewal",
    "partNumber": 89,
    "partName": "KOTHI",
    "lat": 31.4449097,
    "lon": 75.9879297
  },
  {
    "partId": 41522,
    "stateCode": "S19",
    "stateName": "Punjab",
    "districtCode": "S1906",
    "districtName": "Hoshiarpur",
    "acNumber": 44,
    "acName": "Chabbewal",
    "partNumber": 90,
    "partName": "LALWAN",
    "lat": 31.4449097,
    "lon": 75.9879297
  },
  {
    "partId": 41512,
    "stateCode": "S19",
    "stateName": "Punjab",
    "districtCode": "S1906",
    "districtName": "Hoshiarpur",
    "acNumber": 44,
    "acName": "Chabbewal",
    "partNumber": 91,
    "partName": "CHAK NARIAL",
    "lat": 31.4449097,
    "lon": 75.9879297
  },
  {
    "partId": 41523,
    "stateCode": "S19",
    "stateName": "Punjab",
    "districtCode": "S1906",
    "districtName": "Hoshiarpur",
    "acNumber": 44,
    "acName": "Chabbewal",
    "partNumber": 92,
    "partName": "FATEHPUR",
    "lat": 31.4449097,
    "lon": 75.9879297
  },
  {
    "partId": 41508,
    "stateCode": "S19",
    "stateName": "Punjab",
    "districtCode": "S1906",
    "districtName": "Hoshiarpur",
    "acNumber": 44,
    "acName": "Chabbewal",
    "partNumber": 93,
    "partName": "RAMPUR",
    "lat": 31.3856623,
    "lon": 76.0811805
  },
  {
    "partId": 41506,
    "stateCode": "S19",
    "stateName": "Punjab",
    "districtCode": "S1906",
    "districtName": "Hoshiarpur",
    "acNumber": 44,
    "acName": "Chabbewal",
    "partNumber": 94,
    "partName": "KHANNI",
    "lat": 31.4449097,
    "lon": 75.9879297
  },
  {
    "partId": 41513,
    "stateCode": "S19",
    "stateName": "Punjab",
    "districtCode": "S1906",
    "districtName": "Hoshiarpur",
    "acNumber": 44,
    "acName": "Chabbewal",
    "partNumber": 95,
    "partName": "JAIJON",
    "lat": 31.3465122,
    "lon": 76.1489396
  },
  {
    "partId": 41514,
    "stateCode": "S19",
    "stateName": "Punjab",
    "districtCode": "S1906",
    "districtName": "Hoshiarpur",
    "acNumber": 44,
    "acName": "Chabbewal",
    "partNumber": 96,
    "partName": "HARJIANA",
    "lat": 31.435781705999997,
    "lon": 75.9633148085
  },
  {
    "partId": 41515,
    "stateCode": "S19",
    "stateName": "Punjab",
    "districtCode": "S1906",
    "districtName": "Hoshiarpur",
    "acNumber": 44,
    "acName": "Chabbewal",
    "partNumber": 97,
    "partName": "BADDOWAL",
    "lat": 31.435781705999997,
    "lon": 75.9633148085
  },
  {
    "partId": 41526,
    "stateCode": "S19",
    "stateName": "Punjab",
    "districtCode": "S1906",
    "districtName": "Hoshiarpur",
    "acNumber": 44,
    "acName": "Chabbewal",
    "partNumber": 98,
    "partName": "JANDIALA",
    "lat": 31.4449097,
    "lon": 75.9879297
  },
  {
    "partId": 41625,
    "stateCode": "S19",
    "stateName": "Punjab",
    "districtCode": "S1906",
    "districtName": "Hoshiarpur",
    "acNumber": 44,
    "acName": "Chabbewal",
    "partNumber": 99,
    "partName": "JHANJOWAL",
    "lat": 31.4449097,
    "lon": 75.9879297
  },
  {
    "partId": 41517,
    "stateCode": "S19",
    "stateName": "Punjab",
    "districtCode": "S1906",
    "districtName": "Hoshiarpur",
    "acNumber": 44,
    "acName": "Chabbewal",
    "partNumber": 100,
    "partName": "HALLUWAL",
    "lat": 31.435781705999997,
    "lon": 75.9633148085
  },
  {
    "partId": 41520,
    "stateCode": "S19",
    "stateName": "Punjab",
    "districtCode": "S1906",
    "districtName": "Hoshiarpur",
    "acNumber": 44,
    "acName": "Chabbewal",
    "partNumber": 101,
    "partName": "KAHARPUR",
    "lat": 31.3759166,
    "lon": 76.0714387
  },
  {
    "partId": 41524,
    "stateCode": "S19",
    "stateName": "Punjab",
    "districtCode": "S1906",
    "districtName": "Hoshiarpur",
    "acNumber": 44,
    "acName": "Chabbewal",
    "partNumber": 102,
    "partName": "NURPUR BRAHMANA",
    "lat": 31.4449097,
    "lon": 75.9879297
  },
  {
    "partId": 41511,
    "stateCode": "S19",
    "stateName": "Punjab",
    "districtCode": "S1906",
    "districtName": "Hoshiarpur",
    "acNumber": 44,
    "acName": "Chabbewal",
    "partNumber": 103,
    "partName": "GHUMIALA",
    "lat": 31.3784407,
    "lon": 76.0633446
  },
  {
    "partId": 41529,
    "stateCode": "S19",
    "stateName": "Punjab",
    "districtCode": "S1906",
    "districtName": "Hoshiarpur",
    "acNumber": 44,
    "acName": "Chabbewal",
    "partNumber": 104,
    "partName": "KAINDOWAL",
    "lat": 31.4449097,
    "lon": 75.9879297
  },
  {
    "partId": 41543,
    "stateCode": "S19",
    "stateName": "Punjab",
    "districtCode": "S1906",
    "districtName": "Hoshiarpur",
    "acNumber": 44,
    "acName": "Chabbewal",
    "partNumber": 105,
    "partName": "CHANDELI",
    "lat": 31.3843068,
    "lon": 76.046977
  },
  {
    "partId": 41516,
    "stateCode": "S19",
    "stateName": "Punjab",
    "districtCode": "S1906",
    "districtName": "Hoshiarpur",
    "acNumber": 44,
    "acName": "Chabbewal",
    "partNumber": 106,
    "partName": "DHAKKON",
    "lat": 31.4449097,
    "lon": 75.9879297
  },
  {
    "partId": 41527,
    "stateCode": "S19",
    "stateName": "Punjab",
    "districtCode": "S1906",
    "districtName": "Hoshiarpur",
    "acNumber": 44,
    "acName": "Chabbewal",
    "partNumber": 107,
    "partName": "JAITPUR",
    "lat": 31.4017739,
    "lon": 76.0163569
  },
  {
    "partId": 41521,
    "stateCode": "S19",
    "stateName": "Punjab",
    "districtCode": "S1906",
    "districtName": "Hoshiarpur",
    "acNumber": 44,
    "acName": "Chabbewal",
    "partNumber": 108,
    "partName": "CHANTHU BRAHMANA",
    "lat": 31.4449097,
    "lon": 75.9879297
  },
  {
    "partId": 41528,
    "stateCode": "S19",
    "stateName": "Punjab",
    "districtCode": "S1906",
    "districtName": "Hoshiarpur",
    "acNumber": 44,
    "acName": "Chabbewal",
    "partNumber": 109,
    "partName": "BOMBELI",
    "lat": 31.4449097,
    "lon": 75.9879297
  },
  {
    "partId": 41626,
    "stateCode": "S19",
    "stateName": "Punjab",
    "districtCode": "S1906",
    "districtName": "Hoshiarpur",
    "acNumber": 44,
    "acName": "Chabbewal",
    "partNumber": 110,
    "partName": "BHUNO",
    "lat": 31.4449097,
    "lon": 75.9879297
  },
  {
    "partId": 41518,
    "stateCode": "S19",
    "stateName": "Punjab",
    "districtCode": "S1906",
    "districtName": "Hoshiarpur",
    "acNumber": 44,
    "acName": "Chabbewal",
    "partNumber": 111,
    "partName": "BAHOWAL",
    "lat": 31.3880803,
    "lon": 76.0234594
  },
  {
    "partId": 41530,
    "stateCode": "S19",
    "stateName": "Punjab",
    "districtCode": "S1906",
    "districtName": "Hoshiarpur",
    "acNumber": 44,
    "acName": "Chabbewal",
    "partNumber": 112,
    "partName": "BAHOWAL",
    "lat": 31.3880803,
    "lon": 76.0234594
  },
  {
    "partId": 41553,
    "stateCode": "S19",
    "stateName": "Punjab",
    "districtCode": "S1906",
    "districtName": "Hoshiarpur",
    "acNumber": 44,
    "acName": "Chabbewal",
    "partNumber": 113,
    "partName": "BARIAN KHURD",
    "lat": 31.3826581,
    "lon": 76.0053062
  },
  {
    "partId": 41540,
    "stateCode": "S19",
    "stateName": "Punjab",
    "districtCode": "S1906",
    "districtName": "Hoshiarpur",
    "acNumber": 44,
    "acName": "Chabbewal",
    "partNumber": 114,
    "partName": "BARIAN KALAN",
    "lat": 31.3860166,
    "lon": 76.00111
  },
  {
    "partId": 41535,
    "stateCode": "S19",
    "stateName": "Punjab",
    "districtCode": "S1906",
    "districtName": "Hoshiarpur",
    "acNumber": 44,
    "acName": "Chabbewal",
    "partNumber": 115,
    "partName": "BARIAN KALAN",
    "lat": 31.3860166,
    "lon": 76.00111
  },
  {
    "partId": 41525,
    "stateCode": "S19",
    "stateName": "Punjab",
    "districtCode": "S1906",
    "districtName": "Hoshiarpur",
    "acNumber": 44,
    "acName": "Chabbewal",
    "partNumber": 116,
    "partName": "BILASPUR",
    "lat": 31.4449097,
    "lon": 75.9879297
  },
  {
    "partId": 41554,
    "stateCode": "S19",
    "stateName": "Punjab",
    "districtCode": "S1906",
    "districtName": "Hoshiarpur",
    "acNumber": 44,
    "acName": "Chabbewal",
    "partNumber": 117,
    "partName": "MUKHO MAJARA",
    "lat": 31.4449097,
    "lon": 75.9879297
  },
  {
    "partId": 41534,
    "stateCode": "S19",
    "stateName": "Punjab",
    "districtCode": "S1906",
    "districtName": "Hoshiarpur",
    "acNumber": 44,
    "acName": "Chabbewal",
    "partNumber": 118,
    "partName": "LEHLI KALAN",
    "lat": 31.4147102,
    "lon": 75.984106
  },
  {
    "partId": 41539,
    "stateCode": "S19",
    "stateName": "Punjab",
    "districtCode": "S1906",
    "districtName": "Hoshiarpur",
    "acNumber": 44,
    "acName": "Chabbewal",
    "partNumber": 119,
    "partName": "LEHLI KALAN",
    "lat": 31.4147102,
    "lon": 75.984106
  },
  {
    "partId": 41532,
    "stateCode": "S19",
    "stateName": "Punjab",
    "districtCode": "S1906",
    "districtName": "Hoshiarpur",
    "acNumber": 44,
    "acName": "Chabbewal",
    "partNumber": 120,
    "partName": "BIHALA",
    "lat": 31.4120915,
    "lon": 75.970931
  },
  {
    "partId": 41538,
    "stateCode": "S19",
    "stateName": "Punjab",
    "districtCode": "S1906",
    "districtName": "Hoshiarpur",
    "acNumber": 44,
    "acName": "Chabbewal",
    "partNumber": 121,
    "partName": "BIHALA",
    "lat": 31.4120915,
    "lon": 75.970931
  },
  {
    "partId": 41627,
    "stateCode": "S19",
    "stateName": "Punjab",
    "districtCode": "S1906",
    "districtName": "Hoshiarpur",
    "acNumber": 44,
    "acName": "Chabbewal",
    "partNumber": 122,
    "partName": "MARULA",
    "lat": 31.4449097,
    "lon": 75.9879297
  },
  {
    "partId": 41537,
    "stateCode": "S19",
    "stateName": "Punjab",
    "districtCode": "S1906",
    "districtName": "Hoshiarpur",
    "acNumber": 44,
    "acName": "Chabbewal",
    "partNumber": 123,
    "partName": "TOHLIAN",
    "lat": 31.4449097,
    "lon": 75.9879297
  },
  {
    "partId": 41536,
    "stateCode": "S19",
    "stateName": "Punjab",
    "districtCode": "S1906",
    "districtName": "Hoshiarpur",
    "acNumber": 44,
    "acName": "Chabbewal",
    "partNumber": 124,
    "partName": "SAIDPUR",
    "lat": 31.4449097,
    "lon": 75.9879297
  },
  {
    "partId": 41561,
    "stateCode": "S19",
    "stateName": "Punjab",
    "districtCode": "S1906",
    "districtName": "Hoshiarpur",
    "acNumber": 44,
    "acName": "Chabbewal",
    "partNumber": 125,
    "partName": "MOTIAN",
    "lat": 31.4449097,
    "lon": 75.9879297
  },
  {
    "partId": 41531,
    "stateCode": "S19",
    "stateName": "Punjab",
    "districtCode": "S1906",
    "districtName": "Hoshiarpur",
    "acNumber": 44,
    "acName": "Chabbewal",
    "partNumber": 126,
    "partName": "MAKHAN GARH",
    "lat": 31.4449097,
    "lon": 75.9879297
  },
  {
    "partId": 41547,
    "stateCode": "S19",
    "stateName": "Punjab",
    "districtCode": "S1906",
    "districtName": "Hoshiarpur",
    "acNumber": 44,
    "acName": "Chabbewal",
    "partNumber": 127,
    "partName": "JALLOWAL",
    "lat": 31.401969,
    "lon": 75.947964
  },
  {
    "partId": 41573,
    "stateCode": "S19",
    "stateName": "Punjab",
    "districtCode": "S1906",
    "districtName": "Hoshiarpur",
    "acNumber": 44,
    "acName": "Chabbewal",
    "partNumber": 128,
    "partName": "JALLOWAL",
    "lat": 31.401969,
    "lon": 75.947964
  },
  {
    "partId": 41533,
    "stateCode": "S19",
    "stateName": "Punjab",
    "districtCode": "S1906",
    "districtName": "Hoshiarpur",
    "acNumber": 44,
    "acName": "Chabbewal",
    "partNumber": 129,
    "partName": "KHANOOR",
    "lat": 31.4449097,
    "lon": 75.9879297
  },
  {
    "partId": 41541,
    "stateCode": "S19",
    "stateName": "Punjab",
    "districtCode": "S1906",
    "districtName": "Hoshiarpur",
    "acNumber": 44,
    "acName": "Chabbewal",
    "partNumber": 130,
    "partName": "SASOULI",
    "lat": 31.4449097,
    "lon": 75.9879297
  },
  {
    "partId": 41545,
    "stateCode": "S19",
    "stateName": "Punjab",
    "districtCode": "S1906",
    "districtName": "Hoshiarpur",
    "acNumber": 44,
    "acName": "Chabbewal",
    "partNumber": 131,
    "partName": "SEENA",
    "lat": 31.4449097,
    "lon": 75.9879297
  },
  {
    "partId": 41546,
    "stateCode": "S19",
    "stateName": "Punjab",
    "districtCode": "S1906",
    "districtName": "Hoshiarpur",
    "acNumber": 44,
    "acName": "Chabbewal",
    "partNumber": 132,
    "partName": "BADLA",
    "lat": 31.4025133,
    "lon": 75.9055281
  },
  {
    "partId": 41572,
    "stateCode": "S19",
    "stateName": "Punjab",
    "districtCode": "S1906",
    "districtName": "Hoshiarpur",
    "acNumber": 44,
    "acName": "Chabbewal",
    "partNumber": 133,
    "partName": "BADLA",
    "lat": 31.4025133,
    "lon": 75.9055281
  },
  {
    "partId": 41571,
    "stateCode": "S19",
    "stateName": "Punjab",
    "districtCode": "S1906",
    "districtName": "Hoshiarpur",
    "acNumber": 44,
    "acName": "Chabbewal",
    "partNumber": 134,
    "partName": "BADLA",
    "lat": 31.4025133,
    "lon": 75.9055281
  },
  {
    "partId": 41560,
    "stateCode": "S19",
    "stateName": "Punjab",
    "districtCode": "S1906",
    "districtName": "Hoshiarpur",
    "acNumber": 44,
    "acName": "Chabbewal",
    "partNumber": 135,
    "partName": "RAJPUR BHAIAN",
    "lat": 31.4449097,
    "lon": 75.9879297
  },
  {
    "partId": 41549,
    "stateCode": "S19",
    "stateName": "Punjab",
    "districtCode": "S1906",
    "districtName": "Hoshiarpur",
    "acNumber": 44,
    "acName": "Chabbewal",
    "partNumber": 136,
    "partName": "RAJPUR BHAIAN",
    "lat": 31.4449097,
    "lon": 75.9879297
  },
  {
    "partId": 41556,
    "stateCode": "S19",
    "stateName": "Punjab",
    "districtCode": "S1906",
    "districtName": "Hoshiarpur",
    "acNumber": 44,
    "acName": "Chabbewal",
    "partNumber": 137,
    "partName": "HERHIAN",
    "lat": 31.4449097,
    "lon": 75.9879297
  },
  {
    "partId": 41551,
    "stateCode": "S19",
    "stateName": "Punjab",
    "districtCode": "S1906",
    "districtName": "Hoshiarpur",
    "acNumber": 44,
    "acName": "Chabbewal",
    "partNumber": 138,
    "partName": "PANDORI KAD",
    "lat": 31.4449097,
    "lon": 75.9879297
  },
  {
    "partId": 41544,
    "stateCode": "S19",
    "stateName": "Punjab",
    "districtCode": "S1906",
    "districtName": "Hoshiarpur",
    "acNumber": 44,
    "acName": "Chabbewal",
    "partNumber": 139,
    "partName": "BHUNGARNI",
    "lat": 31.365921,
    "lon": 75.8590045
  },
  {
    "partId": 41542,
    "stateCode": "S19",
    "stateName": "Punjab",
    "districtCode": "S1906",
    "districtName": "Hoshiarpur",
    "acNumber": 44,
    "acName": "Chabbewal",
    "partNumber": 140,
    "partName": "BHUNGARNI",
    "lat": 31.365921,
    "lon": 75.8590045
  },
  {
    "partId": 41548,
    "stateCode": "S19",
    "stateName": "Punjab",
    "districtCode": "S1906",
    "districtName": "Hoshiarpur",
    "acNumber": 44,
    "acName": "Chabbewal",
    "partNumber": 141,
    "partName": "BHUNGARNI",
    "lat": 31.365921,
    "lon": 75.8590045
  },
  {
    "partId": 41552,
    "stateCode": "S19",
    "stateName": "Punjab",
    "districtCode": "S1906",
    "districtName": "Hoshiarpur",
    "acNumber": 44,
    "acName": "Chabbewal",
    "partNumber": 142,
    "partName": "MUKHLIANNA",
    "lat": 31.4449097,
    "lon": 75.9879297
  },
  {
    "partId": 41557,
    "stateCode": "S19",
    "stateName": "Punjab",
    "districtCode": "S1906",
    "districtName": "Hoshiarpur",
    "acNumber": 44,
    "acName": "Chabbewal",
    "partNumber": 143,
    "partName": "MUKHLIANNA",
    "lat": 31.4449097,
    "lon": 75.9879297
  },
  {
    "partId": 41584,
    "stateCode": "S19",
    "stateName": "Punjab",
    "districtCode": "S1906",
    "districtName": "Hoshiarpur",
    "acNumber": 44,
    "acName": "Chabbewal",
    "partNumber": 144,
    "partName": "HARTA",
    "lat": 31.4009779,
    "lon": 75.9103413
  },
  {
    "partId": 41558,
    "stateCode": "S19",
    "stateName": "Punjab",
    "districtCode": "S1906",
    "districtName": "Hoshiarpur",
    "acNumber": 44,
    "acName": "Chabbewal",
    "partNumber": 145,
    "partName": "HARTA",
    "lat": 31.4009779,
    "lon": 75.9103413
  },
  {
    "partId": 41566,
    "stateCode": "S19",
    "stateName": "Punjab",
    "districtCode": "S1906",
    "districtName": "Hoshiarpur",
    "acNumber": 44,
    "acName": "Chabbewal",
    "partNumber": 146,
    "partName": "KHERA",
    "lat": 31.4291483,
    "lon": 75.9189391
  },
  {
    "partId": 41564,
    "stateCode": "S19",
    "stateName": "Punjab",
    "districtCode": "S1906",
    "districtName": "Hoshiarpur",
    "acNumber": 44,
    "acName": "Chabbewal",
    "partNumber": 147,
    "partName": "CHITTON",
    "lat": 31.4449097,
    "lon": 75.9879297
  },
  {
    "partId": 41550,
    "stateCode": "S19",
    "stateName": "Punjab",
    "districtCode": "S1906",
    "districtName": "Hoshiarpur",
    "acNumber": 44,
    "acName": "Chabbewal",
    "partNumber": 148,
    "partName": "JANGLIANA",
    "lat": 31.4449097,
    "lon": 75.9879297
  },
  {
    "partId": 41559,
    "stateCode": "S19",
    "stateName": "Punjab",
    "districtCode": "S1906",
    "districtName": "Hoshiarpur",
    "acNumber": 44,
    "acName": "Chabbewal",
    "partNumber": 149,
    "partName": "JANGLIANA",
    "lat": 31.4449097,
    "lon": 75.9879297
  },
  {
    "partId": 41555,
    "stateCode": "S19",
    "stateName": "Punjab",
    "districtCode": "S1906",
    "districtName": "Hoshiarpur",
    "acNumber": 44,
    "acName": "Chabbewal",
    "partNumber": 150,
    "partName": "BHAM",
    "lat": 31.3665455,
    "lon": 75.9450679
  },
  {
    "partId": 41628,
    "stateCode": "S19",
    "stateName": "Punjab",
    "districtCode": "S1906",
    "districtName": "Hoshiarpur",
    "acNumber": 44,
    "acName": "Chabbewal",
    "partNumber": 151,
    "partName": "BHAM",
    "lat": 31.3665455,
    "lon": 75.9450679
  },
  {
    "partId": 41593,
    "stateCode": "S19",
    "stateName": "Punjab",
    "districtCode": "S1906",
    "districtName": "Hoshiarpur",
    "acNumber": 44,
    "acName": "Chabbewal",
    "partNumber": 152,
    "partName": "BHAM",
    "lat": 31.3665455,
    "lon": 75.9450679
  },
  {
    "partId": 41567,
    "stateCode": "S19",
    "stateName": "Punjab",
    "districtCode": "S1906",
    "districtName": "Hoshiarpur",
    "acNumber": 44,
    "acName": "Chabbewal",
    "partNumber": 153,
    "partName": "THAPPAL",
    "lat": 31.4449097,
    "lon": 75.9879297
  },
  {
    "partId": 41562,
    "stateCode": "S19",
    "stateName": "Punjab",
    "districtCode": "S1906",
    "districtName": "Hoshiarpur",
    "acNumber": 44,
    "acName": "Chabbewal",
    "partNumber": 154,
    "partName": "THAKARWAL",
    "lat": 31.4449097,
    "lon": 75.9879297
  },
  {
    "partId": 41565,
    "stateCode": "S19",
    "stateName": "Punjab",
    "districtCode": "S1906",
    "districtName": "Hoshiarpur",
    "acNumber": 44,
    "acName": "Chabbewal",
    "partNumber": 155,
    "partName": "MOJO MAZARA",
    "lat": 31.4449097,
    "lon": 75.9879297
  },
  {
    "partId": 41569,
    "stateCode": "S19",
    "stateName": "Punjab",
    "districtCode": "S1906",
    "districtName": "Hoshiarpur",
    "acNumber": 44,
    "acName": "Chabbewal",
    "partNumber": 156,
    "partName": "DIHANA",
    "lat": 31.4449097,
    "lon": 75.9879297
  },
  {
    "partId": 41576,
    "stateCode": "S19",
    "stateName": "Punjab",
    "districtCode": "S1906",
    "districtName": "Hoshiarpur",
    "acNumber": 44,
    "acName": "Chabbewal",
    "partNumber": 157,
    "partName": "DIHANA",
    "lat": 31.4449097,
    "lon": 75.9879297
  },
  {
    "partId": 41609,
    "stateCode": "S19",
    "stateName": "Punjab",
    "districtCode": "S1906",
    "districtName": "Hoshiarpur",
    "acNumber": 44,
    "acName": "Chabbewal",
    "partNumber": 158,
    "partName": "KUKOWAL",
    "lat": 31.4449097,
    "lon": 75.9879297
  },
  {
    "partId": 41563,
    "stateCode": "S19",
    "stateName": "Punjab",
    "districtCode": "S1906",
    "districtName": "Hoshiarpur",
    "acNumber": 44,
    "acName": "Chabbewal",
    "partNumber": 159,
    "partName": "RAHALLI",
    "lat": 31.4449097,
    "lon": 75.9879297
  },
  {
    "partId": 41570,
    "stateCode": "S19",
    "stateName": "Punjab",
    "districtCode": "S1906",
    "districtName": "Hoshiarpur",
    "acNumber": 44,
    "acName": "Chabbewal",
    "partNumber": 160,
    "partName": "RUPOWAL",
    "lat": 31.720445,
    "lon": 75.7149397
  },
  {
    "partId": 41578,
    "stateCode": "S19",
    "stateName": "Punjab",
    "districtCode": "S1906",
    "districtName": "Hoshiarpur",
    "acNumber": 44,
    "acName": "Chabbewal",
    "partNumber": 161,
    "partName": "GOPALIAN",
    "lat": 31.4449097,
    "lon": 75.9879297
  },
  {
    "partId": 41629,
    "stateCode": "S19",
    "stateName": "Punjab",
    "districtCode": "S1906",
    "districtName": "Hoshiarpur",
    "acNumber": 44,
    "acName": "Chabbewal",
    "partNumber": 162,
    "partName": "RASOOLPUR",
    "lat": 31.4449097,
    "lon": 75.9879297
  },
  {
    "partId": 41602,
    "stateCode": "S19",
    "stateName": "Punjab",
    "districtCode": "S1906",
    "districtName": "Hoshiarpur",
    "acNumber": 44,
    "acName": "Chabbewal",
    "partNumber": 163,
    "partName": "SARHALA KALAN",
    "lat": 31.435781705999997,
    "lon": 75.9633148085
  },
  {
    "partId": 41568,
    "stateCode": "S19",
    "stateName": "Punjab",
    "districtCode": "S1906",
    "districtName": "Hoshiarpur",
    "acNumber": 44,
    "acName": "Chabbewal",
    "partNumber": 164,
    "partName": "SARHALA KALAN",
    "lat": 31.3383521,
    "lon": 75.9578754
  },
  {
    "partId": 41575,
    "stateCode": "S19",
    "stateName": "Punjab",
    "districtCode": "S1906",
    "districtName": "Hoshiarpur",
    "acNumber": 44,
    "acName": "Chabbewal",
    "partNumber": 165,
    "partName": "MAHAL BALTOHIAN",
    "lat": 31.4449097,
    "lon": 75.9879297
  },
  {
    "partId": 41583,
    "stateCode": "S19",
    "stateName": "Punjab",
    "districtCode": "S1906",
    "districtName": "Hoshiarpur",
    "acNumber": 44,
    "acName": "Chabbewal",
    "partNumber": 166,
    "partName": "DANDIAN",
    "lat": 31.4449097,
    "lon": 75.9879297
  },
  {
    "partId": 41580,
    "stateCode": "S19",
    "stateName": "Punjab",
    "districtCode": "S1906",
    "districtName": "Hoshiarpur",
    "acNumber": 44,
    "acName": "Chabbewal",
    "partNumber": 167,
    "partName": "BADDON",
    "lat": 31.4449097,
    "lon": 75.9879297
  },
  {
    "partId": 41604,
    "stateCode": "S19",
    "stateName": "Punjab",
    "districtCode": "S1906",
    "districtName": "Hoshiarpur",
    "acNumber": 44,
    "acName": "Chabbewal",
    "partNumber": 168,
    "partName": "BADDON",
    "lat": 31.4449097,
    "lon": 75.9879297
  },
  {
    "partId": 41614,
    "stateCode": "S19",
    "stateName": "Punjab",
    "districtCode": "S1906",
    "districtName": "Hoshiarpur",
    "acNumber": 44,
    "acName": "Chabbewal",
    "partNumber": 169,
    "partName": "AJNOHA",
    "lat": 31.3251841,
    "lon": 75.8966284
  },
  {
    "partId": 41577,
    "stateCode": "S19",
    "stateName": "Punjab",
    "districtCode": "S1906",
    "districtName": "Hoshiarpur",
    "acNumber": 44,
    "acName": "Chabbewal",
    "partNumber": 170,
    "partName": "AJNOHA",
    "lat": 31.4449097,
    "lon": 75.9879297
  },
  {
    "partId": 41582,
    "stateCode": "S19",
    "stateName": "Punjab",
    "districtCode": "S1906",
    "districtName": "Hoshiarpur",
    "acNumber": 44,
    "acName": "Chabbewal",
    "partNumber": 171,
    "partName": "THANDAL",
    "lat": 31.4449097,
    "lon": 75.9879297
  },
  {
    "partId": 41586,
    "stateCode": "S19",
    "stateName": "Punjab",
    "districtCode": "S1906",
    "districtName": "Hoshiarpur",
    "acNumber": 44,
    "acName": "Chabbewal",
    "partNumber": 172,
    "partName": "JALWERA",
    "lat": 31.4449097,
    "lon": 75.9879297
  },
  {
    "partId": 41630,
    "stateCode": "S19",
    "stateName": "Punjab",
    "districtCode": "S1906",
    "districtName": "Hoshiarpur",
    "acNumber": 44,
    "acName": "Chabbewal",
    "partNumber": 173,
    "partName": "TODARPUR",
    "lat": 31.4449097,
    "lon": 75.9879297
  },
  {
    "partId": 41581,
    "stateCode": "S19",
    "stateName": "Punjab",
    "districtCode": "S1906",
    "districtName": "Hoshiarpur",
    "acNumber": 44,
    "acName": "Chabbewal",
    "partNumber": 174,
    "partName": "TODARPUR",
    "lat": 31.4449097,
    "lon": 75.9879297
  },
  {
    "partId": 41574,
    "stateCode": "S19",
    "stateName": "Punjab",
    "districtCode": "S1906",
    "districtName": "Hoshiarpur",
    "acNumber": 44,
    "acName": "Chabbewal",
    "partNumber": 175,
    "partName": "NADALON",
    "lat": 31.3123983,
    "lon": 75.9090753
  },
  {
    "partId": 41579,
    "stateCode": "S19",
    "stateName": "Punjab",
    "districtCode": "S1906",
    "districtName": "Hoshiarpur",
    "acNumber": 44,
    "acName": "Chabbewal",
    "partNumber": 176,
    "partName": "NADALON",
    "lat": 31.3123983,
    "lon": 75.9090753
  },
  {
    "partId": 41590,
    "stateCode": "S19",
    "stateName": "Punjab",
    "districtCode": "S1906",
    "districtName": "Hoshiarpur",
    "acNumber": 44,
    "acName": "Chabbewal",
    "partNumber": 177,
    "partName": "NADALON",
    "lat": 31.3123983,
    "lon": 75.9090753
  },
  {
    "partId": 41589,
    "stateCode": "S19",
    "stateName": "Punjab",
    "districtCode": "S1906",
    "districtName": "Hoshiarpur",
    "acNumber": 44,
    "acName": "Chabbewal",
    "partNumber": 178,
    "partName": "ALAWALPUR",
    "lat": 31.4449097,
    "lon": 75.9879297
  },
  {
    "partId": 41611,
    "stateCode": "S19",
    "stateName": "Punjab",
    "districtCode": "S1906",
    "districtName": "Hoshiarpur",
    "acNumber": 44,
    "acName": "Chabbewal",
    "partNumber": 179,
    "partName": "LAKSIHAN",
    "lat": 31.4449097,
    "lon": 75.9879297
  },
  {
    "partId": 41616,
    "stateCode": "S19",
    "stateName": "Punjab",
    "districtCode": "S1906",
    "districtName": "Hoshiarpur",
    "acNumber": 44,
    "acName": "Chabbewal",
    "partNumber": 180,
    "partName": "KHARAR RAWALBASSI",
    "lat": 31.4449097,
    "lon": 75.9879297
  },
  {
    "partId": 41606,
    "stateCode": "S19",
    "stateName": "Punjab",
    "districtCode": "S1906",
    "districtName": "Hoshiarpur",
    "acNumber": 44,
    "acName": "Chabbewal",
    "partNumber": 181,
    "partName": "KHARAR RAWALBASSI",
    "lat": 31.4449097,
    "lon": 75.9879297
  },
  {
    "partId": 41591,
    "stateCode": "S19",
    "stateName": "Punjab",
    "districtCode": "S1906",
    "districtName": "Hoshiarpur",
    "acNumber": 44,
    "acName": "Chabbewal",
    "partNumber": 182,
    "partName": "ACHHARWAL",
    "lat": 31.4449097,
    "lon": 75.9879297
  },
  {
    "partId": 41597,
    "stateCode": "S19",
    "stateName": "Punjab",
    "districtCode": "S1906",
    "districtName": "Hoshiarpur",
    "acNumber": 44,
    "acName": "Chabbewal",
    "partNumber": 183,
    "partName": "HAKUMATPUR",
    "lat": 31.4449097,
    "lon": 75.9879297
  },
  {
    "partId": 41587,
    "stateCode": "S19",
    "stateName": "Punjab",
    "districtCode": "S1906",
    "districtName": "Hoshiarpur",
    "acNumber": 44,
    "acName": "Chabbewal",
    "partNumber": 184,
    "partName": "HAKUMATPUR",
    "lat": 31.4449097,
    "lon": 75.9879297
  },
  {
    "partId": 41585,
    "stateCode": "S19",
    "stateName": "Punjab",
    "districtCode": "S1906",
    "districtName": "Hoshiarpur",
    "acNumber": 44,
    "acName": "Chabbewal",
    "partNumber": 185,
    "partName": "THUANA",
    "lat": 31.4449097,
    "lon": 75.9879297
  },
  {
    "partId": 41588,
    "stateCode": "S19",
    "stateName": "Punjab",
    "districtCode": "S1906",
    "districtName": "Hoshiarpur",
    "acNumber": 44,
    "acName": "Chabbewal",
    "partNumber": 186,
    "partName": "BHAGTUPUR",
    "lat": 31.4449097,
    "lon": 75.9879297
  },
  {
    "partId": 41613,
    "stateCode": "S19",
    "stateName": "Punjab",
    "districtCode": "S1906",
    "districtName": "Hoshiarpur",
    "acNumber": 44,
    "acName": "Chabbewal",
    "partNumber": 187,
    "partName": "PANC NANGAL",
    "lat": 31.4449097,
    "lon": 75.9879297
  },
  {
    "partId": 41601,
    "stateCode": "S19",
    "stateName": "Punjab",
    "districtCode": "S1906",
    "districtName": "Hoshiarpur",
    "acNumber": 44,
    "acName": "Chabbewal",
    "partNumber": 188,
    "partName": "ISPUR",
    "lat": 31.4449097,
    "lon": 75.9879297
  },
  {
    "partId": 41596,
    "stateCode": "S19",
    "stateName": "Punjab",
    "districtCode": "S1906",
    "districtName": "Hoshiarpur",
    "acNumber": 44,
    "acName": "Chabbewal",
    "partNumber": 189,
    "partName": "MAKSOOSPUR",
    "lat": 31.4449097,
    "lon": 75.9879297
  },
  {
    "partId": 41607,
    "stateCode": "S19",
    "stateName": "Punjab",
    "districtCode": "S1906",
    "districtName": "Hoshiarpur",
    "acNumber": 44,
    "acName": "Chabbewal",
    "partNumber": 190,
    "partName": "PANJAUR",
    "lat": 31.4449097,
    "lon": 75.9879297
  },
  {
    "partId": 41595,
    "stateCode": "S19",
    "stateName": "Punjab",
    "districtCode": "S1906",
    "districtName": "Hoshiarpur",
    "acNumber": 44,
    "acName": "Chabbewal",
    "partNumber": 191,
    "partName": "PANJAUR",
    "lat": 31.435781705999997,
    "lon": 75.9633148085
  },
  {
    "partId": 41610,
    "stateCode": "S19",
    "stateName": "Punjab",
    "districtCode": "S1906",
    "districtName": "Hoshiarpur",
    "acNumber": 44,
    "acName": "Chabbewal",
    "partNumber": 192,
    "partName": "PANJAUR",
    "lat": 31.3085485,
    "lon": 75.9238528
  },
  {
    "partId": 41599,
    "stateCode": "S19",
    "stateName": "Punjab",
    "districtCode": "S1906",
    "districtName": "Hoshiarpur",
    "acNumber": 44,
    "acName": "Chabbewal",
    "partNumber": 193,
    "partName": "PANDORI GANGA SINGH",
    "lat": 31.2941617,
    "lon": 75.9248708
  },
  {
    "partId": 41600,
    "stateCode": "S19",
    "stateName": "Punjab",
    "districtCode": "S1906",
    "districtName": "Hoshiarpur",
    "acNumber": 44,
    "acName": "Chabbewal",
    "partNumber": 194,
    "partName": "CHELA",
    "lat": 31.4449097,
    "lon": 75.9879297
  },
  {
    "partId": 41598,
    "stateCode": "S19",
    "stateName": "Punjab",
    "districtCode": "S1906",
    "districtName": "Hoshiarpur",
    "acNumber": 44,
    "acName": "Chabbewal",
    "partNumber": 195,
    "partName": "KALUPUR",
    "lat": 31.4449097,
    "lon": 75.9879297
  },
  {
    "partId": 41592,
    "stateCode": "S19",
    "stateName": "Punjab",
    "districtCode": "S1906",
    "districtName": "Hoshiarpur",
    "acNumber": 44,
    "acName": "Chabbewal",
    "partNumber": 196,
    "partName": "MANANHANA",
    "lat": 31.2838827,
    "lon": 75.9571083
  },
  {
    "partId": 41631,
    "stateCode": "S19",
    "stateName": "Punjab",
    "districtCode": "S1906",
    "districtName": "Hoshiarpur",
    "acNumber": 44,
    "acName": "Chabbewal",
    "partNumber": 197,
    "partName": "KOTLA",
    "lat": 31.734646,
    "lon": 75.5870104
  },
  {
    "partId": 41615,
    "stateCode": "S19",
    "stateName": "Punjab",
    "districtCode": "S1906",
    "districtName": "Hoshiarpur",
    "acNumber": 44,
    "acName": "Chabbewal",
    "partNumber": 198,
    "partName": "THINDE",
    "lat": 31.4449097,
    "lon": 75.9879297
  },
  {
    "partId": 41608,
    "stateCode": "S19",
    "stateName": "Punjab",
    "districtCode": "S1906",
    "districtName": "Hoshiarpur",
    "acNumber": 44,
    "acName": "Chabbewal",
    "partNumber": 199,
    "partName": "KOT FATUHI",
    "lat": 31.2720403,
    "lon": 75.972134
  },
  {
    "partId": 41594,
    "stateCode": "S19",
    "stateName": "Punjab",
    "districtCode": "S1906",
    "districtName": "Hoshiarpur",
    "acNumber": 44,
    "acName": "Chabbewal",
    "partNumber": 200,
    "partName": "KOTFATUHI",
    "lat": 31.4449097,
    "lon": 75.9879297
  },
  {
    "partId": 41612,
    "stateCode": "S19",
    "stateName": "Punjab",
    "districtCode": "S1906",
    "districtName": "Hoshiarpur",
    "acNumber": 44,
    "acName": "Chabbewal",
    "partNumber": 201,
    "partName": "KOTFATUHI",
    "lat": 31.4449097,
    "lon": 75.9879297
  },
  {
    "partId": 41605,
    "stateCode": "S19",
    "stateName": "Punjab",
    "districtCode": "S1906",
    "districtName": "Hoshiarpur",
    "acNumber": 44,
    "acName": "Chabbewal",
    "partNumber": 202,
    "partName": "BEHBAL PUR",
    "lat": 31.4449097,
    "lon": 75.9879297
  },
  {
    "partId": 41617,
    "stateCode": "S19",
    "stateName": "Punjab",
    "districtCode": "S1906",
    "districtName": "Hoshiarpur",
    "acNumber": 44,
    "acName": "Chabbewal",
    "partNumber": 203,
    "partName": "PANDORI LADHA SINGH",
    "lat": 31.2801968,
    "lon": 75.9919723
  },
  {
    "partId": 41618,
    "stateCode": "S19",
    "stateName": "Punjab",
    "districtCode": "S1906",
    "districtName": "Hoshiarpur",
    "acNumber": 44,
    "acName": "Chabbewal",
    "partNumber": 204,
    "partName": "MEHROWAL",
    "lat": 31.4449097,
    "lon": 75.9879297
  },
  {
    "partId": 41603,
    "stateCode": "S19",
    "stateName": "Punjab",
    "districtCode": "S1906",
    "districtName": "Hoshiarpur",
    "acNumber": 44,
    "acName": "Chabbewal",
    "partNumber": 205,
    "partName": "REEHLA",
    "lat": 31.4449097,
    "lon": 75.9879297
  },
  {
    "partId": 263,
    "stateCode": "S19",
    "stateName": "Punjab",
    "districtCode": "S1906",
    "districtName": "Hoshiarpur",
    "acNumber": 40,
    "acName": "Dasuya",
    "partNumber": 1,
    "partName": "HIMMATPUR",
    "lat": 31.8143209,
    "lon": 75.6573028
  },
  {
    "partId": 293,
    "stateCode": "S19",
    "stateName": "Punjab",
    "districtCode": "S1906",
    "districtName": "Hoshiarpur",
    "acNumber": 40,
    "acName": "Dasuya",
    "partNumber": 2,
    "partName": "HIMMATPUR",
    "lat": 31.8143209,
    "lon": 75.6573028
  },
  {
    "partId": 135,
    "stateCode": "S19",
    "stateName": "Punjab",
    "districtCode": "S1906",
    "districtName": "Hoshiarpur",
    "acNumber": 40,
    "acName": "Dasuya",
    "partNumber": 3,
    "partName": "WADDA TERKIANA",
    "lat": 31.8143209,
    "lon": 75.6573028
  },
  {
    "partId": 378,
    "stateCode": "S19",
    "stateName": "Punjab",
    "districtCode": "S1906",
    "districtName": "Hoshiarpur",
    "acNumber": 40,
    "acName": "Dasuya",
    "partNumber": 4,
    "partName": "TERKIANA",
    "lat": 31.8143209,
    "lon": 75.6573028
  },
  {
    "partId": 22944,
    "stateCode": "S19",
    "stateName": "Punjab",
    "districtCode": "S1906",
    "districtName": "Hoshiarpur",
    "acNumber": 40,
    "acName": "Dasuya",
    "partNumber": 5,
    "partName": "TERKIANA",
    "lat": 31.8143209,
    "lon": 75.6573028
  },
  {
    "partId": 364,
    "stateCode": "S19",
    "stateName": "Punjab",
    "districtCode": "S1906",
    "districtName": "Hoshiarpur",
    "acNumber": 40,
    "acName": "Dasuya",
    "partNumber": 6,
    "partName": "BADAIAN",
    "lat": 31.8143209,
    "lon": 75.6573028
  },
  {
    "partId": 750,
    "stateCode": "S19",
    "stateName": "Punjab",
    "districtCode": "S1906",
    "districtName": "Hoshiarpur",
    "acNumber": 40,
    "acName": "Dasuya",
    "partNumber": 7,
    "partName": "BAJA CHACK",
    "lat": 31.8143209,
    "lon": 75.6573028
  },
  {
    "partId": 801,
    "stateCode": "S19",
    "stateName": "Punjab",
    "districtCode": "S1906",
    "districtName": "Hoshiarpur",
    "acNumber": 40,
    "acName": "Dasuya",
    "partNumber": 8,
    "partName": "NARAINGARH",
    "lat": 31.81526096292683,
    "lon": 75.69133673658537
  },
  {
    "partId": 790,
    "stateCode": "S19",
    "stateName": "Punjab",
    "districtCode": "S1906",
    "districtName": "Hoshiarpur",
    "acNumber": 40,
    "acName": "Dasuya",
    "partNumber": 9,
    "partName": "CHHANGLA",
    "lat": 31.8143209,
    "lon": 75.6573028
  },
  {
    "partId": 868,
    "stateCode": "S19",
    "stateName": "Punjab",
    "districtCode": "S1906",
    "districtName": "Hoshiarpur",
    "acNumber": 40,
    "acName": "Dasuya",
    "partNumber": 10,
    "partName": "CHHANGLA",
    "lat": 31.8143209,
    "lon": 75.6573028
  },
  {
    "partId": 1289,
    "stateCode": "S19",
    "stateName": "Punjab",
    "districtCode": "S1906",
    "districtName": "Hoshiarpur",
    "acNumber": 40,
    "acName": "Dasuya",
    "partNumber": 11,
    "partName": "BHEEKHOWAL",
    "lat": 31.8143209,
    "lon": 75.6573028
  },
  {
    "partId": 1529,
    "stateCode": "S19",
    "stateName": "Punjab",
    "districtCode": "S1906",
    "districtName": "Hoshiarpur",
    "acNumber": 40,
    "acName": "Dasuya",
    "partNumber": 12,
    "partName": "GALOWAL",
    "lat": 31.7173985,
    "lon": 75.7464838
  },
  {
    "partId": 2090,
    "stateCode": "S19",
    "stateName": "Punjab",
    "districtCode": "S1906",
    "districtName": "Hoshiarpur",
    "acNumber": 40,
    "acName": "Dasuya",
    "partNumber": 13,
    "partName": "PASSIBET",
    "lat": 31.8143209,
    "lon": 75.6573028
  },
  {
    "partId": 1916,
    "stateCode": "S19",
    "stateName": "Punjab",
    "districtCode": "S1906",
    "districtName": "Hoshiarpur",
    "acNumber": 40,
    "acName": "Dasuya",
    "partNumber": 14,
    "partName": "GORSIAN",
    "lat": 31.8143209,
    "lon": 75.6573028
  },
  {
    "partId": 23018,
    "stateCode": "S19",
    "stateName": "Punjab",
    "districtCode": "S1906",
    "districtName": "Hoshiarpur",
    "acNumber": 40,
    "acName": "Dasuya",
    "partNumber": 15,
    "partName": "KAVE",
    "lat": 31.8143209,
    "lon": 75.6573028
  },
  {
    "partId": 1517,
    "stateCode": "S19",
    "stateName": "Punjab",
    "districtCode": "S1906",
    "districtName": "Hoshiarpur",
    "acNumber": 40,
    "acName": "Dasuya",
    "partNumber": 16,
    "partName": "LALLEWAL",
    "lat": 31.8143209,
    "lon": 75.6573028
  },
  {
    "partId": 23037,
    "stateCode": "S19",
    "stateName": "Punjab",
    "districtCode": "S1906",
    "districtName": "Hoshiarpur",
    "acNumber": 40,
    "acName": "Dasuya",
    "partNumber": 17,
    "partName": "BALRHA",
    "lat": 31.8143209,
    "lon": 75.6573028
  },
  {
    "partId": 1477,
    "stateCode": "S19",
    "stateName": "Punjab",
    "districtCode": "S1906",
    "districtName": "Hoshiarpur",
    "acNumber": 40,
    "acName": "Dasuya",
    "partNumber": 18,
    "partName": "MADDA",
    "lat": 31.8143209,
    "lon": 75.6573028
  },
  {
    "partId": 1744,
    "stateCode": "S19",
    "stateName": "Punjab",
    "districtCode": "S1906",
    "districtName": "Hoshiarpur",
    "acNumber": 40,
    "acName": "Dasuya",
    "partNumber": 19,
    "partName": "GILZIAN",
    "lat": 31.724931,
    "lon": 75.5878767
  },
  {
    "partId": 2299,
    "stateCode": "S19",
    "stateName": "Punjab",
    "districtCode": "S1906",
    "districtName": "Hoshiarpur",
    "acNumber": 40,
    "acName": "Dasuya",
    "partNumber": 20,
    "partName": "KAHALWAN",
    "lat": 31.8143209,
    "lon": 75.6573028
  },
  {
    "partId": 1842,
    "stateCode": "S19",
    "stateName": "Punjab",
    "districtCode": "S1906",
    "districtName": "Hoshiarpur",
    "acNumber": 40,
    "acName": "Dasuya",
    "partNumber": 21,
    "partName": "KALUWAL KOTLA",
    "lat": 31.81526096292683,
    "lon": 75.69133673658537
  },
  {
    "partId": 2565,
    "stateCode": "S19",
    "stateName": "Punjab",
    "districtCode": "S1906",
    "districtName": "Hoshiarpur",
    "acNumber": 40,
    "acName": "Dasuya",
    "partNumber": 22,
    "partName": "ALAMPUR",
    "lat": 31.8143209,
    "lon": 75.6573028
  },
  {
    "partId": 2504,
    "stateCode": "S19",
    "stateName": "Punjab",
    "districtCode": "S1906",
    "districtName": "Hoshiarpur",
    "acNumber": 40,
    "acName": "Dasuya",
    "partNumber": 23,
    "partName": "CHACK BAMU",
    "lat": 31.8143209,
    "lon": 75.6573028
  },
  {
    "partId": 3195,
    "stateCode": "S19",
    "stateName": "Punjab",
    "districtCode": "S1906",
    "districtName": "Hoshiarpur",
    "acNumber": 40,
    "acName": "Dasuya",
    "partNumber": 24,
    "partName": "CHACK BAMU",
    "lat": 31.81526096292683,
    "lon": 75.69133673658537
  },
  {
    "partId": 2680,
    "stateCode": "S19",
    "stateName": "Punjab",
    "districtCode": "S1906",
    "districtName": "Hoshiarpur",
    "acNumber": 40,
    "acName": "Dasuya",
    "partNumber": 25,
    "partName": "BHUSHAN",
    "lat": 31.8143209,
    "lon": 75.6573028
  },
  {
    "partId": 2446,
    "stateCode": "S19",
    "stateName": "Punjab",
    "districtCode": "S1906",
    "districtName": "Hoshiarpur",
    "acNumber": 40,
    "acName": "Dasuya",
    "partNumber": 26,
    "partName": "KAIRE",
    "lat": 31.8143209,
    "lon": 75.6573028
  },
  {
    "partId": 2922,
    "stateCode": "S19",
    "stateName": "Punjab",
    "districtCode": "S1906",
    "districtName": "Hoshiarpur",
    "acNumber": 40,
    "acName": "Dasuya",
    "partNumber": 27,
    "partName": "SAFDARPUR",
    "lat": 31.8143209,
    "lon": 75.6573028
  },
  {
    "partId": 2905,
    "stateCode": "S19",
    "stateName": "Punjab",
    "districtCode": "S1906",
    "districtName": "Hoshiarpur",
    "acNumber": 40,
    "acName": "Dasuya",
    "partNumber": 28,
    "partName": "SAFDARPUR",
    "lat": 31.8143209,
    "lon": 75.6573028
  },
  {
    "partId": 3646,
    "stateCode": "S19",
    "stateName": "Punjab",
    "districtCode": "S1906",
    "districtName": "Hoshiarpur",
    "acNumber": 40,
    "acName": "Dasuya",
    "partNumber": 29,
    "partName": "JAND",
    "lat": 31.81526096292683,
    "lon": 75.69133673658537
  },
  {
    "partId": 3591,
    "stateCode": "S19",
    "stateName": "Punjab",
    "districtCode": "S1906",
    "districtName": "Hoshiarpur",
    "acNumber": 40,
    "acName": "Dasuya",
    "partNumber": 30,
    "partName": "KULLIAN BALA",
    "lat": 31.8143209,
    "lon": 75.6573028
  },
  {
    "partId": 3357,
    "stateCode": "S19",
    "stateName": "Punjab",
    "districtCode": "S1906",
    "districtName": "Hoshiarpur",
    "acNumber": 40,
    "acName": "Dasuya",
    "partNumber": 31,
    "partName": "KULLIAN BALA",
    "lat": 31.8143209,
    "lon": 75.6573028
  },
  {
    "partId": 3936,
    "stateCode": "S19",
    "stateName": "Punjab",
    "districtCode": "S1906",
    "districtName": "Hoshiarpur",
    "acNumber": 40,
    "acName": "Dasuya",
    "partNumber": 32,
    "partName": "BUDHOBARKAT",
    "lat": 31.8135681,
    "lon": 75.6186564
  },
  {
    "partId": 2726,
    "stateCode": "S19",
    "stateName": "Punjab",
    "districtCode": "S1906",
    "districtName": "Hoshiarpur",
    "acNumber": 40,
    "acName": "Dasuya",
    "partNumber": 33,
    "partName": "BUDHOBARKAT",
    "lat": 31.8135681,
    "lon": 75.6186564
  },
  {
    "partId": 5326,
    "stateCode": "S19",
    "stateName": "Punjab",
    "districtCode": "S1906",
    "districtName": "Hoshiarpur",
    "acNumber": 40,
    "acName": "Dasuya",
    "partNumber": 34,
    "partName": "Sehge",
    "lat": 31.8143209,
    "lon": 75.6573028
  },
  {
    "partId": 3725,
    "stateCode": "S19",
    "stateName": "Punjab",
    "districtCode": "S1906",
    "districtName": "Hoshiarpur",
    "acNumber": 40,
    "acName": "Dasuya",
    "partNumber": 35,
    "partName": "SADARPUR",
    "lat": 31.81526096292683,
    "lon": 75.69133673658537
  },
  {
    "partId": 3979,
    "stateCode": "S19",
    "stateName": "Punjab",
    "districtCode": "S1906",
    "districtName": "Hoshiarpur",
    "acNumber": 40,
    "acName": "Dasuya",
    "partNumber": 36,
    "partName": "LAMIN",
    "lat": 31.81526096292683,
    "lon": 75.69133673658537
  },
  {
    "partId": 3601,
    "stateCode": "S19",
    "stateName": "Punjab",
    "districtCode": "S1906",
    "districtName": "Hoshiarpur",
    "acNumber": 40,
    "acName": "Dasuya",
    "partNumber": 37,
    "partName": "LAMIN",
    "lat": 31.8143209,
    "lon": 75.6573028
  },
  {
    "partId": 4004,
    "stateCode": "S19",
    "stateName": "Punjab",
    "districtCode": "S1906",
    "districtName": "Hoshiarpur",
    "acNumber": 40,
    "acName": "Dasuya",
    "partNumber": 38,
    "partName": "UCHI BASSI",
    "lat": 31.81526096292683,
    "lon": 75.69133673658537
  },
  {
    "partId": 4911,
    "stateCode": "S19",
    "stateName": "Punjab",
    "districtCode": "S1906",
    "districtName": "Hoshiarpur",
    "acNumber": 40,
    "acName": "Dasuya",
    "partNumber": 39,
    "partName": "UCHI BASSI",
    "lat": 31.8143209,
    "lon": 75.6573028
  },
  {
    "partId": 6639,
    "stateCode": "S19",
    "stateName": "Punjab",
    "districtCode": "S1906",
    "districtName": "Hoshiarpur",
    "acNumber": 40,
    "acName": "Dasuya",
    "partNumber": 40,
    "partName": "UCHI BASSI",
    "lat": 31.8143209,
    "lon": 75.6573028
  },
  {
    "partId": 4479,
    "stateCode": "S19",
    "stateName": "Punjab",
    "districtCode": "S1906",
    "districtName": "Hoshiarpur",
    "acNumber": 40,
    "acName": "Dasuya",
    "partNumber": 41,
    "partName": "CHAK KASAM",
    "lat": 31.8143209,
    "lon": 75.6573028
  },
  {
    "partId": 4228,
    "stateCode": "S19",
    "stateName": "Punjab",
    "districtCode": "S1906",
    "districtName": "Hoshiarpur",
    "acNumber": 40,
    "acName": "Dasuya",
    "partNumber": 42,
    "partName": "USMAN SHAHEED",
    "lat": 31.8279075,
    "lon": 75.6529123
  },
  {
    "partId": 4074,
    "stateCode": "S19",
    "stateName": "Punjab",
    "districtCode": "S1906",
    "districtName": "Hoshiarpur",
    "acNumber": 40,
    "acName": "Dasuya",
    "partNumber": 43,
    "partName": "USMAN SHAHEED",
    "lat": 31.8279075,
    "lon": 75.6529123
  },
  {
    "partId": 4299,
    "stateCode": "S19",
    "stateName": "Punjab",
    "districtCode": "S1906",
    "districtName": "Hoshiarpur",
    "acNumber": 40,
    "acName": "Dasuya",
    "partNumber": 44,
    "partName": "KOTLI KHURD",
    "lat": 31.8143209,
    "lon": 75.6573028
  },
  {
    "partId": 5840,
    "stateCode": "S19",
    "stateName": "Punjab",
    "districtCode": "S1906",
    "districtName": "Hoshiarpur",
    "acNumber": 40,
    "acName": "Dasuya",
    "partNumber": 45,
    "partName": "KHAIRABAD",
    "lat": 31.8143209,
    "lon": 75.6573028
  },
  {
    "partId": 4943,
    "stateCode": "S19",
    "stateName": "Punjab",
    "districtCode": "S1906",
    "districtName": "Hoshiarpur",
    "acNumber": 40,
    "acName": "Dasuya",
    "partNumber": 46,
    "partName": "PANDORI ARAYAN",
    "lat": 31.8143209,
    "lon": 75.6573028
  },
  {
    "partId": 4549,
    "stateCode": "S19",
    "stateName": "Punjab",
    "districtCode": "S1906",
    "districtName": "Hoshiarpur",
    "acNumber": 40,
    "acName": "Dasuya",
    "partNumber": 47,
    "partName": "PANDORI ARAYAN",
    "lat": 31.8143209,
    "lon": 75.6573028
  },
  {
    "partId": 23250,
    "stateCode": "S19",
    "stateName": "Punjab",
    "districtCode": "S1906",
    "districtName": "Hoshiarpur",
    "acNumber": 40,
    "acName": "Dasuya",
    "partNumber": 48,
    "partName": "DUGRI",
    "lat": 31.81526096292683,
    "lon": 75.69133673658537
  },
  {
    "partId": 4459,
    "stateCode": "S19",
    "stateName": "Punjab",
    "districtCode": "S1906",
    "districtName": "Hoshiarpur",
    "acNumber": 40,
    "acName": "Dasuya",
    "partNumber": 49,
    "partName": "JHINGAR KALAN",
    "lat": 31.7764099,
    "lon": 75.6458473
  },
  {
    "partId": 5185,
    "stateCode": "S19",
    "stateName": "Punjab",
    "districtCode": "S1906",
    "districtName": "Hoshiarpur",
    "acNumber": 40,
    "acName": "Dasuya",
    "partNumber": 50,
    "partName": "JHINGAR KALAN",
    "lat": 31.7764099,
    "lon": 75.6458473
  },
  {
    "partId": 5431,
    "stateCode": "S19",
    "stateName": "Punjab",
    "districtCode": "S1906",
    "districtName": "Hoshiarpur",
    "acNumber": 40,
    "acName": "Dasuya",
    "partNumber": 51,
    "partName": "GAMBHOWAL",
    "lat": 31.8143209,
    "lon": 75.6573028
  },
  {
    "partId": 5564,
    "stateCode": "S19",
    "stateName": "Punjab",
    "districtCode": "S1906",
    "districtName": "Hoshiarpur",
    "acNumber": 40,
    "acName": "Dasuya",
    "partNumber": 52,
    "partName": "BERCHHA",
    "lat": 31.8143209,
    "lon": 75.6573028
  },
  {
    "partId": 5264,
    "stateCode": "S19",
    "stateName": "Punjab",
    "districtCode": "S1906",
    "districtName": "Hoshiarpur",
    "acNumber": 40,
    "acName": "Dasuya",
    "partNumber": 53,
    "partName": "BERCHA",
    "lat": 31.7775044,
    "lon": 75.6751155
  },
  {
    "partId": 23296,
    "stateCode": "S19",
    "stateName": "Punjab",
    "districtCode": "S1906",
    "districtName": "Hoshiarpur",
    "acNumber": 40,
    "acName": "Dasuya",
    "partNumber": 54,
    "partName": "BODAL",
    "lat": 31.778453,
    "lon": 75.6690645
  },
  {
    "partId": 5899,
    "stateCode": "S19",
    "stateName": "Punjab",
    "districtCode": "S1906",
    "districtName": "Hoshiarpur",
    "acNumber": 40,
    "acName": "Dasuya",
    "partNumber": 55,
    "partName": "BODAL",
    "lat": 31.778453,
    "lon": 75.6690645
  },
  {
    "partId": 5475,
    "stateCode": "S19",
    "stateName": "Punjab",
    "districtCode": "S1906",
    "districtName": "Hoshiarpur",
    "acNumber": 40,
    "acName": "Dasuya",
    "partNumber": 56,
    "partName": "BODAL",
    "lat": 31.81526096292683,
    "lon": 75.69133673658537
  },
  {
    "partId": 6055,
    "stateCode": "S19",
    "stateName": "Punjab",
    "districtCode": "S1906",
    "districtName": "Hoshiarpur",
    "acNumber": 40,
    "acName": "Dasuya",
    "partNumber": 57,
    "partName": "DASUYA",
    "lat": 31.8143209,
    "lon": 75.6573028
  },
  {
    "partId": 6237,
    "stateCode": "S19",
    "stateName": "Punjab",
    "districtCode": "S1906",
    "districtName": "Hoshiarpur",
    "acNumber": 40,
    "acName": "Dasuya",
    "partNumber": 58,
    "partName": "DASUYA",
    "lat": 31.8143209,
    "lon": 75.6573028
  },
  {
    "partId": 6511,
    "stateCode": "S19",
    "stateName": "Punjab",
    "districtCode": "S1906",
    "districtName": "Hoshiarpur",
    "acNumber": 40,
    "acName": "Dasuya",
    "partNumber": 59,
    "partName": "DASUYA",
    "lat": 31.8143209,
    "lon": 75.6573028
  },
  {
    "partId": 5789,
    "stateCode": "S19",
    "stateName": "Punjab",
    "districtCode": "S1906",
    "districtName": "Hoshiarpur",
    "acNumber": 40,
    "acName": "Dasuya",
    "partNumber": 60,
    "partName": "DASUYA",
    "lat": 31.8143209,
    "lon": 75.6573028
  },
  {
    "partId": 6082,
    "stateCode": "S19",
    "stateName": "Punjab",
    "districtCode": "S1906",
    "districtName": "Hoshiarpur",
    "acNumber": 40,
    "acName": "Dasuya",
    "partNumber": 61,
    "partName": "DASUYA",
    "lat": 31.8143209,
    "lon": 75.6573028
  },
  {
    "partId": 5938,
    "stateCode": "S19",
    "stateName": "Punjab",
    "districtCode": "S1906",
    "districtName": "Hoshiarpur",
    "acNumber": 40,
    "acName": "Dasuya",
    "partNumber": 62,
    "partName": "DASUYA",
    "lat": 31.8143209,
    "lon": 75.6573028
  },
  {
    "partId": 8869,
    "stateCode": "S19",
    "stateName": "Punjab",
    "districtCode": "S1906",
    "districtName": "Hoshiarpur",
    "acNumber": 40,
    "acName": "Dasuya",
    "partNumber": 63,
    "partName": "DASUYA",
    "lat": 31.8143209,
    "lon": 75.6573028
  },
  {
    "partId": 8337,
    "stateCode": "S19",
    "stateName": "Punjab",
    "districtCode": "S1906",
    "districtName": "Hoshiarpur",
    "acNumber": 40,
    "acName": "Dasuya",
    "partNumber": 64,
    "partName": "DASUYA",
    "lat": 31.8143209,
    "lon": 75.6573028
  },
  {
    "partId": 6960,
    "stateCode": "S19",
    "stateName": "Punjab",
    "districtCode": "S1906",
    "districtName": "Hoshiarpur",
    "acNumber": 40,
    "acName": "Dasuya",
    "partNumber": 65,
    "partName": "DASUYA",
    "lat": 31.8143209,
    "lon": 75.6573028
  },
  {
    "partId": 7158,
    "stateCode": "S19",
    "stateName": "Punjab",
    "districtCode": "S1906",
    "districtName": "Hoshiarpur",
    "acNumber": 40,
    "acName": "Dasuya",
    "partNumber": 66,
    "partName": "DASUYA",
    "lat": 31.8143209,
    "lon": 75.6573028
  },
  {
    "partId": 23393,
    "stateCode": "S19",
    "stateName": "Punjab",
    "districtCode": "S1906",
    "districtName": "Hoshiarpur",
    "acNumber": 40,
    "acName": "Dasuya",
    "partNumber": 67,
    "partName": "DASUYA",
    "lat": 31.8143209,
    "lon": 75.6573028
  },
  {
    "partId": 6596,
    "stateCode": "S19",
    "stateName": "Punjab",
    "districtCode": "S1906",
    "districtName": "Hoshiarpur",
    "acNumber": 40,
    "acName": "Dasuya",
    "partNumber": 68,
    "partName": "DASUYA",
    "lat": 31.8143209,
    "lon": 75.6573028
  },
  {
    "partId": 7532,
    "stateCode": "S19",
    "stateName": "Punjab",
    "districtCode": "S1906",
    "districtName": "Hoshiarpur",
    "acNumber": 40,
    "acName": "Dasuya",
    "partNumber": 69,
    "partName": "DASUYA",
    "lat": 31.8143209,
    "lon": 75.6573028
  },
  {
    "partId": 7579,
    "stateCode": "S19",
    "stateName": "Punjab",
    "districtCode": "S1906",
    "districtName": "Hoshiarpur",
    "acNumber": 40,
    "acName": "Dasuya",
    "partNumber": 70,
    "partName": "DASUYA",
    "lat": 31.8143209,
    "lon": 75.6573028
  },
  {
    "partId": 6812,
    "stateCode": "S19",
    "stateName": "Punjab",
    "districtCode": "S1906",
    "districtName": "Hoshiarpur",
    "acNumber": 40,
    "acName": "Dasuya",
    "partNumber": 71,
    "partName": "DASUYA",
    "lat": 31.8143209,
    "lon": 75.6573028
  },
  {
    "partId": 8732,
    "stateCode": "S19",
    "stateName": "Punjab",
    "districtCode": "S1906",
    "districtName": "Hoshiarpur",
    "acNumber": 40,
    "acName": "Dasuya",
    "partNumber": 72,
    "partName": "DASUYA",
    "lat": 31.8143209,
    "lon": 75.6573028
  },
  {
    "partId": 7179,
    "stateCode": "S19",
    "stateName": "Punjab",
    "districtCode": "S1906",
    "districtName": "Hoshiarpur",
    "acNumber": 40,
    "acName": "Dasuya",
    "partNumber": 73,
    "partName": "DASUYA",
    "lat": 31.8143209,
    "lon": 75.6573028
  },
  {
    "partId": 7946,
    "stateCode": "S19",
    "stateName": "Punjab",
    "districtCode": "S1906",
    "districtName": "Hoshiarpur",
    "acNumber": 40,
    "acName": "Dasuya",
    "partNumber": 74,
    "partName": "DASUYA",
    "lat": 31.8143209,
    "lon": 75.6573028
  },
  {
    "partId": 8379,
    "stateCode": "S19",
    "stateName": "Punjab",
    "districtCode": "S1906",
    "districtName": "Hoshiarpur",
    "acNumber": 40,
    "acName": "Dasuya",
    "partNumber": 75,
    "partName": "DASUYA",
    "lat": 31.8143209,
    "lon": 75.6573028
  },
  {
    "partId": 9157,
    "stateCode": "S19",
    "stateName": "Punjab",
    "districtCode": "S1906",
    "districtName": "Hoshiarpur",
    "acNumber": 40,
    "acName": "Dasuya",
    "partNumber": 76,
    "partName": "DASUYA",
    "lat": 31.8143209,
    "lon": 75.6573028
  },
  {
    "partId": 8577,
    "stateCode": "S19",
    "stateName": "Punjab",
    "districtCode": "S1906",
    "districtName": "Hoshiarpur",
    "acNumber": 40,
    "acName": "Dasuya",
    "partNumber": 77,
    "partName": "DASUYA",
    "lat": 31.8143209,
    "lon": 75.6573028
  },
  {
    "partId": 8684,
    "stateCode": "S19",
    "stateName": "Punjab",
    "districtCode": "S1906",
    "districtName": "Hoshiarpur",
    "acNumber": 40,
    "acName": "Dasuya",
    "partNumber": 78,
    "partName": "DASUYA",
    "lat": 31.8143209,
    "lon": 75.6573028
  },
  {
    "partId": 7863,
    "stateCode": "S19",
    "stateName": "Punjab",
    "districtCode": "S1906",
    "districtName": "Hoshiarpur",
    "acNumber": 40,
    "acName": "Dasuya",
    "partNumber": 79,
    "partName": "DASUYA",
    "lat": 31.8143209,
    "lon": 75.6573028
  },
  {
    "partId": 8039,
    "stateCode": "S19",
    "stateName": "Punjab",
    "districtCode": "S1906",
    "districtName": "Hoshiarpur",
    "acNumber": 40,
    "acName": "Dasuya",
    "partNumber": 80,
    "partName": "HARDOTHALA",
    "lat": 31.8143209,
    "lon": 75.6573028
  },
  {
    "partId": 8970,
    "stateCode": "S19",
    "stateName": "Punjab",
    "districtCode": "S1906",
    "districtName": "Hoshiarpur",
    "acNumber": 40,
    "acName": "Dasuya",
    "partNumber": 81,
    "partName": "GAG SULTAN",
    "lat": 31.8143209,
    "lon": 75.6573028
  },
  {
    "partId": 7998,
    "stateCode": "S19",
    "stateName": "Punjab",
    "districtCode": "S1906",
    "districtName": "Hoshiarpur",
    "acNumber": 40,
    "acName": "Dasuya",
    "partNumber": 82,
    "partName": "FATEHGARH",
    "lat": 31.8143209,
    "lon": 75.6573028
  },
  {
    "partId": 7911,
    "stateCode": "S19",
    "stateName": "Punjab",
    "districtCode": "S1906",
    "districtName": "Hoshiarpur",
    "acNumber": 40,
    "acName": "Dasuya",
    "partNumber": 83,
    "partName": "HALER",
    "lat": 31.8143209,
    "lon": 75.6573028
  },
  {
    "partId": 8546,
    "stateCode": "S19",
    "stateName": "Punjab",
    "districtCode": "S1906",
    "districtName": "Hoshiarpur",
    "acNumber": 40,
    "acName": "Dasuya",
    "partNumber": 84,
    "partName": "GHOGRA",
    "lat": 31.8682963,
    "lon": 75.691548
  },
  {
    "partId": 11467,
    "stateCode": "S19",
    "stateName": "Punjab",
    "districtCode": "S1906",
    "districtName": "Hoshiarpur",
    "acNumber": 40,
    "acName": "Dasuya",
    "partNumber": 85,
    "partName": "GHOGRA",
    "lat": 31.8682963,
    "lon": 75.691548
  },
  {
    "partId": 9021,
    "stateCode": "S19",
    "stateName": "Punjab",
    "districtCode": "S1906",
    "districtName": "Hoshiarpur",
    "acNumber": 40,
    "acName": "Dasuya",
    "partNumber": 86,
    "partName": "JALAL CHAK",
    "lat": 31.8143209,
    "lon": 75.6573028
  },
  {
    "partId": 10641,
    "stateCode": "S19",
    "stateName": "Punjab",
    "districtCode": "S1906",
    "districtName": "Hoshiarpur",
    "acNumber": 40,
    "acName": "Dasuya",
    "partNumber": 87,
    "partName": "SAGGRAN",
    "lat": 31.8143209,
    "lon": 75.6573028
  },
  {
    "partId": 9595,
    "stateCode": "S19",
    "stateName": "Punjab",
    "districtCode": "S1906",
    "districtName": "Hoshiarpur",
    "acNumber": 40,
    "acName": "Dasuya",
    "partNumber": 88,
    "partName": "MIRPUR",
    "lat": 31.8429066,
    "lon": 75.6945267
  },
  {
    "partId": 9774,
    "stateCode": "S19",
    "stateName": "Punjab",
    "districtCode": "S1906",
    "districtName": "Hoshiarpur",
    "acNumber": 40,
    "acName": "Dasuya",
    "partNumber": 89,
    "partName": "SARINHPUR",
    "lat": 31.8143209,
    "lon": 75.6573028
  },
  {
    "partId": 23554,
    "stateCode": "S19",
    "stateName": "Punjab",
    "districtCode": "S1906",
    "districtName": "Hoshiarpur",
    "acNumber": 40,
    "acName": "Dasuya",
    "partNumber": 90,
    "partName": "CHACK MEHRA",
    "lat": 31.8143209,
    "lon": 75.6573028
  },
  {
    "partId": 9481,
    "stateCode": "S19",
    "stateName": "Punjab",
    "districtCode": "S1906",
    "districtName": "Hoshiarpur",
    "acNumber": 40,
    "acName": "Dasuya",
    "partNumber": 91,
    "partName": "FATTAN CHAK ( CHAKK MEHRA)",
    "lat": 31.8143209,
    "lon": 75.6573028
  },
  {
    "partId": 10077,
    "stateCode": "S19",
    "stateName": "Punjab",
    "districtCode": "S1906",
    "districtName": "Hoshiarpur",
    "acNumber": 40,
    "acName": "Dasuya",
    "partNumber": 92,
    "partName": "BALAGAN",
    "lat": 31.8143209,
    "lon": 75.6573028
  },
  {
    "partId": 9945,
    "stateCode": "S19",
    "stateName": "Punjab",
    "districtCode": "S1906",
    "districtName": "Hoshiarpur",
    "acNumber": 40,
    "acName": "Dasuya",
    "partNumber": 93,
    "partName": "BANGALI PUR",
    "lat": 31.8143209,
    "lon": 75.6573028
  },
  {
    "partId": 9231,
    "stateCode": "S19",
    "stateName": "Punjab",
    "districtCode": "S1906",
    "districtName": "Hoshiarpur",
    "acNumber": 40,
    "acName": "Dasuya",
    "partNumber": 94,
    "partName": "JALOTA",
    "lat": 31.8143209,
    "lon": 75.6573028
  },
  {
    "partId": 11421,
    "stateCode": "S19",
    "stateName": "Punjab",
    "districtCode": "S1906",
    "districtName": "Hoshiarpur",
    "acNumber": 40,
    "acName": "Dasuya",
    "partNumber": 95,
    "partName": "PANWAN",
    "lat": 31.8143209,
    "lon": 75.6573028
  },
  {
    "partId": 9898,
    "stateCode": "S19",
    "stateName": "Punjab",
    "districtCode": "S1906",
    "districtName": "Hoshiarpur",
    "acNumber": 40,
    "acName": "Dasuya",
    "partNumber": 96,
    "partName": "PANWAN",
    "lat": 31.8143209,
    "lon": 75.6573028
  },
  {
    "partId": 10467,
    "stateCode": "S19",
    "stateName": "Punjab",
    "districtCode": "S1906",
    "districtName": "Hoshiarpur",
    "acNumber": 40,
    "acName": "Dasuya",
    "partNumber": 97,
    "partName": "BAJWA",
    "lat": 31.8143209,
    "lon": 75.6573028
  },
  {
    "partId": 10737,
    "stateCode": "S19",
    "stateName": "Punjab",
    "districtCode": "S1906",
    "districtName": "Hoshiarpur",
    "acNumber": 40,
    "acName": "Dasuya",
    "partNumber": 98,
    "partName": "SAGGAL",
    "lat": 31.8143209,
    "lon": 75.6573028
  },
  {
    "partId": 13787,
    "stateCode": "S19",
    "stateName": "Punjab",
    "districtCode": "S1906",
    "districtName": "Hoshiarpur",
    "acNumber": 40,
    "acName": "Dasuya",
    "partNumber": 99,
    "partName": "RANDHAWA",
    "lat": 31.7812124,
    "lon": 75.7102693
  },
  {
    "partId": 10501,
    "stateCode": "S19",
    "stateName": "Punjab",
    "districtCode": "S1906",
    "districtName": "Hoshiarpur",
    "acNumber": 40,
    "acName": "Dasuya",
    "partNumber": 100,
    "partName": "KULAR",
    "lat": 31.8143209,
    "lon": 75.6573028
  },
  {
    "partId": 11809,
    "stateCode": "S19",
    "stateName": "Punjab",
    "districtCode": "S1906",
    "districtName": "Hoshiarpur",
    "acNumber": 40,
    "acName": "Dasuya",
    "partNumber": 101,
    "partName": "JANDOUR",
    "lat": 31.81526096292683,
    "lon": 75.69133673658537
  },
  {
    "partId": 23643,
    "stateCode": "S19",
    "stateName": "Punjab",
    "districtCode": "S1906",
    "districtName": "Hoshiarpur",
    "acNumber": 40,
    "acName": "Dasuya",
    "partNumber": 102,
    "partName": "MAND",
    "lat": 31.8195635,
    "lon": 75.7349296
  },
  {
    "partId": 10339,
    "stateCode": "S19",
    "stateName": "Punjab",
    "districtCode": "S1906",
    "districtName": "Hoshiarpur",
    "acNumber": 40,
    "acName": "Dasuya",
    "partNumber": 103,
    "partName": "KAKOA",
    "lat": 31.8143209,
    "lon": 75.6573028
  },
  {
    "partId": 10993,
    "stateCode": "S19",
    "stateName": "Punjab",
    "districtCode": "S1906",
    "districtName": "Hoshiarpur",
    "acNumber": 40,
    "acName": "Dasuya",
    "partNumber": 104,
    "partName": "TAKIPUR",
    "lat": 31.81526096292683,
    "lon": 75.69133673658537
  },
  {
    "partId": 10874,
    "stateCode": "S19",
    "stateName": "Punjab",
    "districtCode": "S1906",
    "districtName": "Hoshiarpur",
    "acNumber": 40,
    "acName": "Dasuya",
    "partNumber": 105,
    "partName": "KHUN KHUN SARKI",
    "lat": 31.8143209,
    "lon": 75.6573028
  },
  {
    "partId": 10388,
    "stateCode": "S19",
    "stateName": "Punjab",
    "districtCode": "S1906",
    "districtName": "Hoshiarpur",
    "acNumber": 40,
    "acName": "Dasuya",
    "partNumber": 106,
    "partName": "KALLOWAL",
    "lat": 31.81526096292683,
    "lon": 75.69133673658537
  },
  {
    "partId": 12582,
    "stateCode": "S19",
    "stateName": "Punjab",
    "districtCode": "S1906",
    "districtName": "Hoshiarpur",
    "acNumber": 40,
    "acName": "Dasuya",
    "partNumber": 107,
    "partName": "PASSI KANDI",
    "lat": 31.8143209,
    "lon": 75.6573028
  },
  {
    "partId": 14114,
    "stateCode": "S19",
    "stateName": "Punjab",
    "districtCode": "S1906",
    "districtName": "Hoshiarpur",
    "acNumber": 40,
    "acName": "Dasuya",
    "partNumber": 108,
    "partName": "BANIAL",
    "lat": 31.8143209,
    "lon": 75.6573028
  },
  {
    "partId": 12055,
    "stateCode": "S19",
    "stateName": "Punjab",
    "districtCode": "S1906",
    "districtName": "Hoshiarpur",
    "acNumber": 40,
    "acName": "Dasuya",
    "partNumber": 109,
    "partName": "TOE MAKHOWAL",
    "lat": 31.8143209,
    "lon": 75.6573028
  },
  {
    "partId": 14547,
    "stateCode": "S19",
    "stateName": "Punjab",
    "districtCode": "S1906",
    "districtName": "Hoshiarpur",
    "acNumber": 40,
    "acName": "Dasuya",
    "partNumber": 110,
    "partName": "DHADDAR",
    "lat": 31.8143209,
    "lon": 75.6573028
  },
  {
    "partId": 12852,
    "stateCode": "S19",
    "stateName": "Punjab",
    "districtCode": "S1906",
    "districtName": "Hoshiarpur",
    "acNumber": 40,
    "acName": "Dasuya",
    "partNumber": 111,
    "partName": "BEHBOWAL",
    "lat": 31.8143209,
    "lon": 75.6573028
  },
  {
    "partId": 12110,
    "stateCode": "S19",
    "stateName": "Punjab",
    "districtCode": "S1906",
    "districtName": "Hoshiarpur",
    "acNumber": 40,
    "acName": "Dasuya",
    "partNumber": 112,
    "partName": "BAHIBOWAL",
    "lat": 31.8143209,
    "lon": 75.6573028
  },
  {
    "partId": 23719,
    "stateCode": "S19",
    "stateName": "Punjab",
    "districtCode": "S1906",
    "districtName": "Hoshiarpur",
    "acNumber": 40,
    "acName": "Dasuya",
    "partNumber": 113,
    "partName": "BISSO CHACK",
    "lat": 31.8143209,
    "lon": 75.6573028
  },
  {
    "partId": 11273,
    "stateCode": "S19",
    "stateName": "Punjab",
    "districtCode": "S1906",
    "districtName": "Hoshiarpur",
    "acNumber": 40,
    "acName": "Dasuya",
    "partNumber": 114,
    "partName": "MEHAR BHATOLI",
    "lat": 31.8143209,
    "lon": 75.6573028
  },
  {
    "partId": 11586,
    "stateCode": "S19",
    "stateName": "Punjab",
    "districtCode": "S1906",
    "districtName": "Hoshiarpur",
    "acNumber": 40,
    "acName": "Dasuya",
    "partNumber": 115,
    "partName": "GAGJALLO",
    "lat": 31.8143209,
    "lon": 75.6573028
  },
  {
    "partId": 12687,
    "stateCode": "S19",
    "stateName": "Punjab",
    "districtCode": "S1906",
    "districtName": "Hoshiarpur",
    "acNumber": 40,
    "acName": "Dasuya",
    "partNumber": 116,
    "partName": "RAI CHACK",
    "lat": 31.8143209,
    "lon": 75.6573028
  },
  {
    "partId": 12263,
    "stateCode": "S19",
    "stateName": "Punjab",
    "districtCode": "S1906",
    "districtName": "Hoshiarpur",
    "acNumber": 40,
    "acName": "Dasuya",
    "partNumber": 117,
    "partName": "RATRE",
    "lat": 31.8143209,
    "lon": 75.6573028
  },
  {
    "partId": 13268,
    "stateCode": "S19",
    "stateName": "Punjab",
    "districtCode": "S1906",
    "districtName": "Hoshiarpur",
    "acNumber": 40,
    "acName": "Dasuya",
    "partNumber": 118,
    "partName": "RACHHPALWAN",
    "lat": 31.8143209,
    "lon": 75.6573028
  },
  {
    "partId": 11614,
    "stateCode": "S19",
    "stateName": "Punjab",
    "districtCode": "S1906",
    "districtName": "Hoshiarpur",
    "acNumber": 40,
    "acName": "Dasuya",
    "partNumber": 119,
    "partName": "SANSARPUR",
    "lat": 31.8143209,
    "lon": 75.6573028
  },
  {
    "partId": 15439,
    "stateCode": "S19",
    "stateName": "Punjab",
    "districtCode": "S1906",
    "districtName": "Hoshiarpur",
    "acNumber": 40,
    "acName": "Dasuya",
    "partNumber": 120,
    "partName": "SANSARPUR",
    "lat": 31.8143209,
    "lon": 75.6573028
  },
  {
    "partId": 12827,
    "stateCode": "S19",
    "stateName": "Punjab",
    "districtCode": "S1906",
    "districtName": "Hoshiarpur",
    "acNumber": 40,
    "acName": "Dasuya",
    "partNumber": 121,
    "partName": "SANSARPUR",
    "lat": 31.8143209,
    "lon": 75.6573028
  },
  {
    "partId": 15757,
    "stateCode": "S19",
    "stateName": "Punjab",
    "districtCode": "S1906",
    "districtName": "Hoshiarpur",
    "acNumber": 40,
    "acName": "Dasuya",
    "partNumber": 122,
    "partName": "KALOWAL",
    "lat": 31.8143209,
    "lon": 75.6573028
  },
  {
    "partId": 14436,
    "stateCode": "S19",
    "stateName": "Punjab",
    "districtCode": "S1906",
    "districtName": "Hoshiarpur",
    "acNumber": 40,
    "acName": "Dasuya",
    "partNumber": 123,
    "partName": "MAKOWAL",
    "lat": 31.81526096292683,
    "lon": 75.69133673658537
  },
  {
    "partId": 13384,
    "stateCode": "S19",
    "stateName": "Punjab",
    "districtCode": "S1906",
    "districtName": "Hoshiarpur",
    "acNumber": 40,
    "acName": "Dasuya",
    "partNumber": 124,
    "partName": "AGLOUR",
    "lat": 31.8143209,
    "lon": 75.6573028
  },
  {
    "partId": 23809,
    "stateCode": "S19",
    "stateName": "Punjab",
    "districtCode": "S1906",
    "districtName": "Hoshiarpur",
    "acNumber": 40,
    "acName": "Dasuya",
    "partNumber": 125,
    "partName": "DADIAL",
    "lat": 31.8504562,
    "lon": 75.7935633
  },
  {
    "partId": 12781,
    "stateCode": "S19",
    "stateName": "Punjab",
    "districtCode": "S1906",
    "districtName": "Hoshiarpur",
    "acNumber": 40,
    "acName": "Dasuya",
    "partNumber": 126,
    "partName": "DADIAL",
    "lat": 31.8504562,
    "lon": 75.7935633
  },
  {
    "partId": 13910,
    "stateCode": "S19",
    "stateName": "Punjab",
    "districtCode": "S1906",
    "districtName": "Hoshiarpur",
    "acNumber": 40,
    "acName": "Dasuya",
    "partNumber": 127,
    "partName": "RAMPUR",
    "lat": 31.3856623,
    "lon": 76.0811805
  },
  {
    "partId": 13685,
    "stateCode": "S19",
    "stateName": "Punjab",
    "districtCode": "S1906",
    "districtName": "Hoshiarpur",
    "acNumber": 40,
    "acName": "Dasuya",
    "partNumber": 128,
    "partName": "NEK NAMA SENHSO",
    "lat": 31.8143209,
    "lon": 75.6573028
  },
  {
    "partId": 14881,
    "stateCode": "S19",
    "stateName": "Punjab",
    "districtCode": "S1906",
    "districtName": "Hoshiarpur",
    "acNumber": 40,
    "acName": "Dasuya",
    "partNumber": 129,
    "partName": "CHACK PHALA",
    "lat": 31.8143209,
    "lon": 75.6573028
  },
  {
    "partId": 12885,
    "stateCode": "S19",
    "stateName": "Punjab",
    "districtCode": "S1906",
    "districtName": "Hoshiarpur",
    "acNumber": 40,
    "acName": "Dasuya",
    "partNumber": 130,
    "partName": "BADLA",
    "lat": 31.4025133,
    "lon": 75.9055281
  },
  {
    "partId": 14263,
    "stateCode": "S19",
    "stateName": "Punjab",
    "districtCode": "S1906",
    "districtName": "Hoshiarpur",
    "acNumber": 40,
    "acName": "Dasuya",
    "partNumber": 131,
    "partName": "BADLA",
    "lat": 31.8143209,
    "lon": 75.6573028
  },
  {
    "partId": 14831,
    "stateCode": "S19",
    "stateName": "Punjab",
    "districtCode": "S1906",
    "districtName": "Hoshiarpur",
    "acNumber": 40,
    "acName": "Dasuya",
    "partNumber": 132,
    "partName": "BADLA",
    "lat": 31.4025133,
    "lon": 75.9055281
  },
  {
    "partId": 23862,
    "stateCode": "S19",
    "stateName": "Punjab",
    "districtCode": "S1906",
    "districtName": "Hoshiarpur",
    "acNumber": 40,
    "acName": "Dasuya",
    "partNumber": 133,
    "partName": "GHUGGWAL",
    "lat": 31.8143209,
    "lon": 75.6573028
  },
  {
    "partId": 17513,
    "stateCode": "S19",
    "stateName": "Punjab",
    "districtCode": "S1906",
    "districtName": "Hoshiarpur",
    "acNumber": 40,
    "acName": "Dasuya",
    "partNumber": 134,
    "partName": "GHAGWAL",
    "lat": 31.939308,
    "lon": 75.7610448
  },
  {
    "partId": 13324,
    "stateCode": "S19",
    "stateName": "Punjab",
    "districtCode": "S1906",
    "districtName": "Hoshiarpur",
    "acNumber": 40,
    "acName": "Dasuya",
    "partNumber": 135,
    "partName": "SEEPARIAN",
    "lat": 31.8143209,
    "lon": 75.6573028
  },
  {
    "partId": 14374,
    "stateCode": "S19",
    "stateName": "Punjab",
    "districtCode": "S1906",
    "districtName": "Hoshiarpur",
    "acNumber": 40,
    "acName": "Dasuya",
    "partNumber": 136,
    "partName": "SEEPARIAN",
    "lat": 31.8143209,
    "lon": 75.6573028
  },
  {
    "partId": 14786,
    "stateCode": "S19",
    "stateName": "Punjab",
    "districtCode": "S1906",
    "districtName": "Hoshiarpur",
    "acNumber": 40,
    "acName": "Dasuya",
    "partNumber": 137,
    "partName": "JUGIAL",
    "lat": 31.8143209,
    "lon": 75.6573028
  },
  {
    "partId": 14760,
    "stateCode": "S19",
    "stateName": "Punjab",
    "districtCode": "S1906",
    "districtName": "Hoshiarpur",
    "acNumber": 40,
    "acName": "Dasuya",
    "partNumber": 138,
    "partName": "SWAR",
    "lat": 31.8143209,
    "lon": 75.6573028
  },
  {
    "partId": 14505,
    "stateCode": "S19",
    "stateName": "Punjab",
    "districtCode": "S1906",
    "districtName": "Hoshiarpur",
    "acNumber": 40,
    "acName": "Dasuya",
    "partNumber": 139,
    "partName": "SWAR",
    "lat": 31.8143209,
    "lon": 75.6573028
  },
  {
    "partId": 15989,
    "stateCode": "S19",
    "stateName": "Punjab",
    "districtCode": "S1906",
    "districtName": "Hoshiarpur",
    "acNumber": 40,
    "acName": "Dasuya",
    "partNumber": 140,
    "partName": "SHEIKHA MATTA",
    "lat": 31.81526096292683,
    "lon": 75.69133673658537
  },
  {
    "partId": 19207,
    "stateCode": "S19",
    "stateName": "Punjab",
    "districtCode": "S1906",
    "districtName": "Hoshiarpur",
    "acNumber": 40,
    "acName": "Dasuya",
    "partNumber": 141,
    "partName": "NIKU CHACK",
    "lat": 31.8143209,
    "lon": 75.6573028
  },
  {
    "partId": 15511,
    "stateCode": "S19",
    "stateName": "Punjab",
    "districtCode": "S1906",
    "districtName": "Hoshiarpur",
    "acNumber": 40,
    "acName": "Dasuya",
    "partNumber": 142,
    "partName": "NIKU CHACK",
    "lat": 31.8143209,
    "lon": 75.6573028
  },
  {
    "partId": 15873,
    "stateCode": "S19",
    "stateName": "Punjab",
    "districtCode": "S1906",
    "districtName": "Hoshiarpur",
    "acNumber": 40,
    "acName": "Dasuya",
    "partNumber": 143,
    "partName": "ASAFPUR",
    "lat": 31.8143209,
    "lon": 75.6573028
  },
  {
    "partId": 15518,
    "stateCode": "S19",
    "stateName": "Punjab",
    "districtCode": "S1906",
    "districtName": "Hoshiarpur",
    "acNumber": 40,
    "acName": "Dasuya",
    "partNumber": 144,
    "partName": "ASAFPUR",
    "lat": 31.8143209,
    "lon": 75.6573028
  },