[
  {
    "partId": 1769,
    "stateCode": "S28",
    "stateName": "Uttarakhand",
    "districtCode": "S2806",
    "districtName": "Bageshwar",
    "acNumber": 47,
    "acName": "Bageshwar",
    "partNumber": 1,
    "partName": "Bhatnikot",
    "lat": 29.809046600000002,
    "lon": 79.78077853027585
  },
  {
    "partId": 1169,
    "stateCode": "S28",
    "stateName": "Uttarakhand",
    "districtCode": "S2806",
    "districtName": "Bageshwar",
    "acNumber": 47,
    "acName": "Bageshwar",
    "partNumber": 2,
    "partName": "Ghirouli",
    "lat": 29.809046600000002,
    "lon": 79.78077853027585
  },
  {
    "partId": 1170,
    "stateCode": "S28",
    "stateName": "Uttarakhand",
    "districtCode": "S2806",
    "districtName": "Bageshwar",
    "acNumber": 47,
    "acName": "Bageshwar",
    "partNumber": 3,
    "partName": "Goginapani",
    "lat": 29.809046600000002,
    "lon": 79.78077853027585
  },
  {
    "partId": 1770,
    "stateCode": "S28",
    "stateName": "Uttarakhand",
    "districtCode": "S2806",
    "districtName": "Bageshwar",
    "acNumber": 47,
    "acName": "Bageshwar",
    "partNumber": 4,
    "partName": "Gargaon",
    "lat": 29.809046600000002,
    "lon": 79.78077853027585
  },
  {
    "partId": 1171,
    "stateCode": "S28",
    "stateName": "Uttarakhand",
    "districtCode": "S2806",
    "districtName": "Bageshwar",
    "acNumber": 47,
    "acName": "Bageshwar",
    "partNumber": 5,
    "partName": "Pant Querali",
    "lat": 29.809046600000002,
    "lon": 79.78077853027585
  },
  {
    "partId": 1172,
    "stateCode": "S28",
    "stateName": "Uttarakhand",
    "districtCode": "S2806",
    "districtName": "Bageshwar",
    "acNumber": 47,
    "acName": "Bageshwar",
    "partNumber": 6,
    "partName": "Mankot",
    "lat": 29.8297177,
    "lon": 79.8139357
  },
  {
    "partId": 1173,
    "stateCode": "S28",
    "stateName": "Uttarakhand",
    "districtCode": "S2806",
    "districtName": "Bageshwar",
    "acNumber": 47,
    "acName": "Bageshwar",
    "partNumber": 7,
    "partName": "Mandalsera (East Part)",
    "lat": 29.809046600000002,
    "lon": 79.78077853027585
  },
  {
    "partId": 1174,
    "stateCode": "S28",
    "stateName": "Uttarakhand",
    "districtCode": "S2806",
    "districtName": "Bageshwar",
    "acNumber": 47,
    "acName": "Bageshwar",
    "partNumber": 8,
    "partName": "Mandalsera (West Part)",
    "lat": 29.809046600000002,
    "lon": 79.78077853027585
  },
  {
    "partId": 1175,
    "stateCode": "S28",
    "stateName": "Uttarakhand",
    "districtCode": "S2806",
    "districtName": "Bageshwar",
    "acNumber": 47,
    "acName": "Bageshwar",
    "partNumber": 9,
    "partName": "Mandelsera (East Part)",
    "lat": 29.809046600000002,
    "lon": 79.78077853027585
  },
  {
    "partId": 1746,
    "stateCode": "S28",
    "stateName": "Uttarakhand",
    "districtCode": "S2806",
    "districtName": "Bageshwar",
    "acNumber": 47,
    "acName": "Bageshwar",
    "partNumber": 10,
    "partName": "Mandalsera (West Part)",
    "lat": 29.809046600000002,
    "lon": 79.78077853027585
  },
  {
    "partId": 1800,
    "stateCode": "S28",
    "stateName": "Uttarakhand",
    "districtCode": "S2806",
    "districtName": "Bageshwar",
    "acNumber": 47,
    "acName": "Bageshwar",
    "partNumber": 11,
    "partName": "Mandalsera (north Part)",
    "lat": 29.809046600000002,
    "lon": 79.78077853027585
  },
  {
    "partId": 1176,
    "stateCode": "S28",
    "stateName": "Uttarakhand",
    "districtCode": "S2806",
    "districtName": "Bageshwar",
    "acNumber": 47,
    "acName": "Bageshwar",
    "partNumber": 12,
    "partName": "Bhatraula (East Part)",
    "lat": 29.809046600000002,
    "lon": 79.78077853027585
  },
  {
    "partId": 1177,
    "stateCode": "S28",
    "stateName": "Uttarakhand",
    "districtCode": "S2806",
    "districtName": "Bageshwar",
    "acNumber": 47,
    "acName": "Bageshwar",
    "partNumber": 13,
    "partName": "Bhatraula ( West Part)",
    "lat": 29.809046600000002,
    "lon": 79.78077853027585
  },
  {
    "partId": 1178,
    "stateCode": "S28",
    "stateName": "Uttarakhand",
    "districtCode": "S2806",
    "districtName": "Bageshwar",
    "acNumber": 47,
    "acName": "Bageshwar",
    "partNumber": 14,
    "partName": "Bhatraula",
    "lat": 29.809046600000002,
    "lon": 79.78077853027585
  },
  {
    "partId": 1179,
    "stateCode": "S28",
    "stateName": "Uttarakhand",
    "districtCode": "S2806",
    "districtName": "Bageshwar",
    "acNumber": 47,
    "acName": "Bageshwar",
    "partNumber": 15,
    "partName": "Vinayak Tok",
    "lat": 29.809046600000002,
    "lon": 79.78077853027585
  },
  {
    "partId": 1237,
    "stateCode": "S28",
    "stateName": "Uttarakhand",
    "districtCode": "S2806",
    "districtName": "Bageshwar",
    "acNumber": 47,
    "acName": "Bageshwar",
    "partNumber": 16,
    "partName": "jaakh",
    "lat": 29.82898908072626,
    "lon": 79.75342773256008
  },
  {
    "partId": 1180,
    "stateCode": "S28",
    "stateName": "Uttarakhand",
    "districtCode": "S2806",
    "districtName": "Bageshwar",
    "acNumber": 47,
    "acName": "Bageshwar",
    "partNumber": 17,
    "partName": "Salani",
    "lat": 29.809046600000002,
    "lon": 79.78077853027585
  },
  {
    "partId": 1761,
    "stateCode": "S28",
    "stateName": "Uttarakhand",
    "districtCode": "S2806",
    "districtName": "Bageshwar",
    "acNumber": 47,
    "acName": "Bageshwar",
    "partNumber": 18,
    "partName": "Ganigaon",
    "lat": 29.9707452,
    "lon": 79.6957147
  },
  {
    "partId": 1181,
    "stateCode": "S28",
    "stateName": "Uttarakhand",
    "districtCode": "S2806",
    "districtName": "Bageshwar",
    "acNumber": 47,
    "acName": "Bageshwar",
    "partNumber": 19,
    "partName": "Surag",
    "lat": 29.9865929,
    "lon": 79.6620396
  },
  {
    "partId": 1182,
    "stateCode": "S28",
    "stateName": "Uttarakhand",
    "districtCode": "S2806",
    "districtName": "Bageshwar",
    "acNumber": 47,
    "acName": "Bageshwar",
    "partNumber": 20,
    "partName": "Jakhera",
    "lat": 29.9667722,
    "lon": 79.6755904
  },
  {
    "partId": 1183,
    "stateCode": "S28",
    "stateName": "Uttarakhand",
    "districtCode": "S2806",
    "districtName": "Bageshwar",
    "acNumber": 47,
    "acName": "Bageshwar",
    "partNumber": 21,
    "partName": "Lamchula",
    "lat": 29.9820184,
    "lon": 79.6991479
  },
  {
    "partId": 1184,
    "stateCode": "S28",
    "stateName": "Uttarakhand",
    "districtCode": "S2806",
    "districtName": "Bageshwar",
    "acNumber": 47,
    "acName": "Bageshwar",
    "partNumber": 22,
    "partName": "Ayartoli",
    "lat": 29.932483,
    "lon": 79.622544
  },
  {
    "partId": 1185,
    "stateCode": "S28",
    "stateName": "Uttarakhand",
    "districtCode": "S2806",
    "districtName": "Bageshwar",
    "acNumber": 47,
    "acName": "Bageshwar",
    "partNumber": 23,
    "partName": "Sal Khanyari",
    "lat": 29.809046600000002,
    "lon": 79.78077853027585
  },
  {
    "partId": 1747,
    "stateCode": "S28",
    "stateName": "Uttarakhand",
    "districtCode": "S2806",
    "districtName": "Bageshwar",
    "acNumber": 47,
    "acName": "Bageshwar",
    "partNumber": 24,
    "partName": "Dabu",
    "lat": 29.809046600000002,
    "lon": 79.78077853027585
  },
  {
    "partId": 1231,
    "stateCode": "S28",
    "stateName": "Uttarakhand",
    "districtCode": "S2806",
    "districtName": "Bageshwar",
    "acNumber": 47,
    "acName": "Bageshwar",
    "partNumber": 25,
    "partName": "Simgari",
    "lat": 29.8906715,
    "lon": 80.0085139
  },
  {
    "partId": 1186,
    "stateCode": "S28",
    "stateName": "Uttarakhand",
    "districtCode": "S2806",
    "districtName": "Bageshwar",
    "acNumber": 47,
    "acName": "Bageshwar",
    "partNumber": 26,
    "partName": "Wajyula",
    "lat": 29.9494546,
    "lon": 79.6271306
  },
  {
    "partId": 1755,
    "stateCode": "S28",
    "stateName": "Uttarakhand",
    "districtCode": "S2806",
    "districtName": "Bageshwar",
    "acNumber": 47,
    "acName": "Bageshwar",
    "partNumber": 27,
    "partName": "Wajyula Navin",
    "lat": 29.809046600000002,
    "lon": 79.78077853027585
  },
  {
    "partId": 1187,
    "stateCode": "S28",
    "stateName": "Uttarakhand",
    "districtCode": "S2806",
    "districtName": "Bageshwar",
    "acNumber": 47,
    "acName": "Bageshwar",
    "partNumber": 28,
    "partName": "Tilsari (East Part)",
    "lat": 29.809046600000002,
    "lon": 79.78077853027585
  },
  {
    "partId": 1762,
    "stateCode": "S28",
    "stateName": "Uttarakhand",
    "districtCode": "S2806",
    "districtName": "Bageshwar",
    "acNumber": 47,
    "acName": "Bageshwar",
    "partNumber": 29,
    "partName": "Urakhuli",
    "lat": 29.9450249,
    "lon": 79.6752762
  },
  {
    "partId": 1188,
    "stateCode": "S28",
    "stateName": "Uttarakhand",
    "districtCode": "S2806",
    "districtName": "Bageshwar",
    "acNumber": 47,
    "acName": "Bageshwar",
    "partNumber": 30,
    "partName": "Tilsari (West Part)",
    "lat": 29.809046600000002,
    "lon": 79.78077853027585
  },
  {
    "partId": 1189,
    "stateCode": "S28",
    "stateName": "Uttarakhand",
    "districtCode": "S2806",
    "districtName": "Bageshwar",
    "acNumber": 47,
    "acName": "Bageshwar",
    "partNumber": 31,
    "partName": "Garkhet",
    "lat": 29.809046600000002,
    "lon": 79.78077853027585
  },
  {
    "partId": 1190,
    "stateCode": "S28",
    "stateName": "Uttarakhand",
    "districtCode": "S2806",
    "districtName": "Bageshwar",
    "acNumber": 47,
    "acName": "Bageshwar",
    "partNumber": 32,
    "partName": "Dhukura",
    "lat": 29.809046600000002,
    "lon": 79.78077853027585
  },
  {
    "partId": 1191,
    "stateCode": "S28",
    "stateName": "Uttarakhand",
    "districtCode": "S2806",
    "districtName": "Bageshwar",
    "acNumber": 47,
    "acName": "Bageshwar",
    "partNumber": 33,
    "partName": "RiyuniLakhmar",
    "lat": 29.809046600000002,
    "lon": 79.78077853027585
  },
  {
    "partId": 1192,
    "stateCode": "S28",
    "stateName": "Uttarakhand",
    "districtCode": "S2806",
    "districtName": "Bageshwar",
    "acNumber": 47,
    "acName": "Bageshwar",
    "partNumber": 34,
    "partName": "Munyura (East Part)",
    "lat": 29.809046600000002,
    "lon": 79.78077853027585
  },
  {
    "partId": 1757,
    "stateCode": "S28",
    "stateName": "Uttarakhand",
    "districtCode": "S2806",
    "districtName": "Bageshwar",
    "acNumber": 47,
    "acName": "Bageshwar",
    "partNumber": 35,
    "partName": "Munyura (West Part)",
    "lat": 29.809046600000002,
    "lon": 79.78077853027585
  },
  {
    "partId": 1193,
    "stateCode": "S28",
    "stateName": "Uttarakhand",
    "districtCode": "S2806",
    "districtName": "Bageshwar",
    "acNumber": 47,
    "acName": "Bageshwar",
    "partNumber": 36,
    "partName": "Thapal Petlakot",
    "lat": 29.809046600000002,
    "lon": 79.78077853027585
  },
  {
    "partId": 1194,
    "stateCode": "S28",
    "stateName": "Uttarakhand",
    "districtCode": "S2806",
    "districtName": "Bageshwar",
    "acNumber": 47,
    "acName": "Bageshwar",
    "partNumber": 37,
    "partName": "Gagrigol (East Part)",
    "lat": 29.809046600000002,
    "lon": 79.78077853027585
  },
  {
    "partId": 1744,
    "stateCode": "S28",
    "stateName": "Uttarakhand",
    "districtCode": "S2806",
    "districtName": "Bageshwar",
    "acNumber": 47,
    "acName": "Bageshwar",
    "partNumber": 38,
    "partName": "Gagrigol (West Part)",
    "lat": 29.809046600000002,
    "lon": 79.78077853027585
  },
  {
    "partId": 1096,
    "stateCode": "S28",
    "stateName": "Uttarakhand",
    "districtCode": "S2806",
    "districtName": "Bageshwar",
    "acNumber": 47,
    "acName": "Bageshwar",
    "partNumber": 39,
    "partName": "Naugaon",
    "lat": 29.9663862,
    "lon": 79.6241856
  },
  {
    "partId": 1097,
    "stateCode": "S28",
    "stateName": "Uttarakhand",
    "districtCode": "S2806",
    "districtName": "Bageshwar",
    "acNumber": 47,
    "acName": "Bageshwar",
    "partNumber": 40,
    "partName": "Amsyari",
    "lat": 29.809046600000002,
    "lon": 79.78077853027585
  },
  {
    "partId": 3804,
    "stateCode": "S28",
    "stateName": "Uttarakhand",
    "districtCode": "S2806",
    "districtName": "Bageshwar",
    "acNumber": 47,
    "acName": "Bageshwar",
    "partNumber": 41,
    "partName": "Bunga",
    "lat": 29.9658471,
    "lon": 79.6147442
  },
  {
    "partId": 1232,
    "stateCode": "S28",
    "stateName": "Uttarakhand",
    "districtCode": "S2806",
    "districtName": "Bageshwar",
    "acNumber": 47,
    "acName": "Bageshwar",
    "partNumber": 42,
    "partName": "Harinagari",
    "lat": 29.809046600000002,
    "lon": 79.78077853027585
  },
  {
    "partId": 1098,
    "stateCode": "S28",
    "stateName": "Uttarakhand",
    "districtCode": "S2806",
    "districtName": "Bageshwar",
    "acNumber": 47,
    "acName": "Bageshwar",
    "partNumber": 43,
    "partName": "Talla Paya",
    "lat": 29.809046600000002,
    "lon": 79.78077853027585
  },
  {
    "partId": 1099,
    "stateCode": "S28",
    "stateName": "Uttarakhand",
    "districtCode": "S2806",
    "districtName": "Bageshwar",
    "acNumber": 47,
    "acName": "Bageshwar",
    "partNumber": 44,
    "partName": "Kulaun",
    "lat": 29.9832389,
    "lon": 79.5950274
  },
  {
    "partId": 1100,
    "stateCode": "S28",
    "stateName": "Uttarakhand",
    "districtCode": "S2806",
    "districtName": "Bageshwar",
    "acNumber": 47,
    "acName": "Bageshwar",
    "partNumber": 45,
    "partName": "Devalkhet",
    "lat": 29.809046600000002,
    "lon": 79.78077853027585
  },
  {
    "partId": 1748,
    "stateCode": "S28",
    "stateName": "Uttarakhand",
    "districtCode": "S2806",
    "districtName": "Bageshwar",
    "acNumber": 47,
    "acName": "Bageshwar",
    "partNumber": 46,
    "partName": "Gheti",
    "lat": 29.9665349,
    "lon": 79.607985
  },
  {
    "partId": 1101,
    "stateCode": "S28",
    "stateName": "Uttarakhand",
    "districtCode": "S2806",
    "districtName": "Bageshwar",
    "acNumber": 47,
    "acName": "Bageshwar",
    "partNumber": 47,
    "partName": "Dewalkhet",
    "lat": 29.809046600000002,
    "lon": 79.78077853027585
  },
  {
    "partId": 1102,
    "stateCode": "S28",
    "stateName": "Uttarakhand",
    "districtCode": "S2806",
    "districtName": "Bageshwar",
    "acNumber": 47,
    "acName": "Bageshwar",
    "partNumber": 48,
    "partName": "Kothon",
    "lat": 29.809046600000002,
    "lon": 79.78077853027585
  },
  {
    "partId": 1103,
    "stateCode": "S28",
    "stateName": "Uttarakhand",
    "districtCode": "S2806",
    "districtName": "Bageshwar",
    "acNumber": 47,
    "acName": "Bageshwar",
    "partNumber": 49,
    "partName": "Charson",
    "lat": 29.809046600000002,
    "lon": 79.78077853027585
  },
  {
    "partId": 1104,
    "stateCode": "S28",
    "stateName": "Uttarakhand",
    "districtCode": "S2806",
    "districtName": "Bageshwar",
    "acNumber": 47,
    "acName": "Bageshwar",
    "partNumber": 50,
    "partName": "Thandangoli  (South Part)",
    "lat": 29.809046600000002,
    "lon": 79.78077853027585
  },
  {
    "partId": 1105,
    "stateCode": "S28",
    "stateName": "Uttarakhand",
    "districtCode": "S2806",
    "districtName": "Bageshwar",
    "acNumber": 47,
    "acName": "Bageshwar",
    "partNumber": 51,
    "partName": "Thandangoli (North Part)",
    "lat": 29.809046600000002,
    "lon": 79.78077853027585
  },
  {
    "partId": 1763,
    "stateCode": "S28",
    "stateName": "Uttarakhand",
    "districtCode": "S2806",
    "districtName": "Bageshwar",
    "acNumber": 47,
    "acName": "Bageshwar",
    "partNumber": 52,
    "partName": "Tailihat",
    "lat": 29.809046600000002,
    "lon": 79.78077853027585
  },
  {
    "partId": 1771,
    "stateCode": "S28",
    "stateName": "Uttarakhand",
    "districtCode": "S2806",
    "districtName": "Bageshwar",
    "acNumber": 47,
    "acName": "Bageshwar",
    "partNumber": 53,
    "partName": "Gwar",
    "lat": 29.936639,
    "lon": 79.6059036
  },
  {
    "partId": 1106,
    "stateCode": "S28",
    "stateName": "Uttarakhand",
    "districtCode": "S2806",
    "districtName": "Bageshwar",
    "acNumber": 47,
    "acName": "Bageshwar",
    "partNumber": 54,
    "partName": "Galai Kandhar",
    "lat": 29.809046600000002,
    "lon": 79.78077853027585
  },
  {
    "partId": 1764,
    "stateCode": "S28",
    "stateName": "Uttarakhand",
    "districtCode": "S2806",
    "districtName": "Bageshwar",
    "acNumber": 47,
    "acName": "Bageshwar",
    "partNumber": 55,
    "partName": "Kursali",
    "lat": 29.9506027,
    "lon": 79.5917201
  },
  {
    "partId": 1107,
    "stateCode": "S28",
    "stateName": "Uttarakhand",
    "districtCode": "S2806",
    "districtName": "Bageshwar",
    "acNumber": 47,
    "acName": "Bageshwar",
    "partNumber": 56,
    "partName": "Khitoula",
    "lat": 29.9705315,
    "lon": 79.5730734
  },
  {
    "partId": 1772,
    "stateCode": "S28",
    "stateName": "Uttarakhand",
    "districtCode": "S2806",
    "districtName": "Bageshwar",
    "acNumber": 47,
    "acName": "Bageshwar",
    "partNumber": 57,
    "partName": "Raitoli",
    "lat": 29.9588573,
    "lon": 79.5761418
  },
  {
    "partId": 1108,
    "stateCode": "S28",
    "stateName": "Uttarakhand",
    "districtCode": "S2806",
    "districtName": "Bageshwar",
    "acNumber": 47,
    "acName": "Bageshwar",
    "partNumber": 58,
    "partName": "Hawilkulwan",
    "lat": 29.809046600000002,
    "lon": 79.78077853027585
  },
  {
    "partId": 1109,
    "stateCode": "S28",
    "stateName": "Uttarakhand",
    "districtCode": "S2806",
    "districtName": "Bageshwar",
    "acNumber": 47,
    "acName": "Bageshwar",
    "partNumber": 59,
    "partName": "Mazkot",
    "lat": 29.82898908072626,
    "lon": 79.75342773256008
  },
  {
    "partId": 1084,
    "stateCode": "S28",
    "stateName": "Uttarakhand",
    "districtCode": "S2806",
    "districtName": "Bageshwar",
    "acNumber": 47,
    "acName": "Bageshwar",
    "partNumber": 60,
    "partName": "Chhatyani",
    "lat": 29.9759492,
    "lon": 79.5264006
  },
  {
    "partId": 1765,
    "stateCode": "S28",
    "stateName": "Uttarakhand",
    "districtCode": "S2806",
    "districtName": "Bageshwar",
    "acNumber": 47,
    "acName": "Bageshwar",
    "partNumber": 61,
    "partName": "Bajwar",
    "lat": 29.584071,
    "lon": 79.6406173
  },
  {
    "partId": 1110,
    "stateCode": "S28",
    "stateName": "Uttarakhand",
    "districtCode": "S2806",
    "districtName": "Bageshwar",
    "acNumber": 47,
    "acName": "Bageshwar",
    "partNumber": 62,
    "partName": "Lohagari",
    "lat": 29.809046600000002,
    "lon": 79.78077853027585
  },
  {
    "partId": 1111,
    "stateCode": "S28",
    "stateName": "Uttarakhand",
    "districtCode": "S2806",
    "districtName": "Bageshwar",
    "acNumber": 47,
    "acName": "Bageshwar",
    "partNumber": 63,
    "partName": "Pinglon",
    "lat": 29.9532931,
    "lon": 79.5861349
  },
  {
    "partId": 1233,
    "stateCode": "S28",
    "stateName": "Uttarakhand",
    "districtCode": "S2806",
    "districtName": "Bageshwar",
    "acNumber": 47,
    "acName": "Bageshwar",
    "partNumber": 64,
    "partName": "Laskarkhet",
    "lat": 29.809046600000002,
    "lon": 79.78077853027585
  },
  {
    "partId": 1085,
    "stateCode": "S28",
    "stateName": "Uttarakhand",
    "districtCode": "S2806",
    "districtName": "Bageshwar",
    "acNumber": 47,
    "acName": "Bageshwar",
    "partNumber": 65,
    "partName": "Simkhet",
    "lat": 29.9255745,
    "lon": 79.9117613
  },
  {
    "partId": 1749,
    "stateCode": "S28",
    "stateName": "Uttarakhand",
    "districtCode": "S2806",
    "districtName": "Bageshwar",
    "acNumber": 47,
    "acName": "Bageshwar",
    "partNumber": 66,
    "partName": "Gairlekh",
    "lat": 29.9283268,
    "lon": 79.5624626
  },
  {
    "partId": 1112,
    "stateCode": "S28",
    "stateName": "Uttarakhand",
    "districtCode": "S2806",
    "districtName": "Bageshwar",
    "acNumber": 47,
    "acName": "Bageshwar",
    "partNumber": 67,
    "partName": "JyuraState",
    "lat": 29.809046600000002,
    "lon": 79.78077853027585
  },
  {
    "partId": 1090,
    "stateCode": "S28",
    "stateName": "Uttarakhand",
    "districtCode": "S2806",
    "districtName": "Bageshwar",
    "acNumber": 47,
    "acName": "Bageshwar",
    "partNumber": 68,
    "partName": "Maigri Estate",
    "lat": 29.809046600000002,
    "lon": 79.78077853027585
  },
  {
    "partId": 1766,
    "stateCode": "S28",
    "stateName": "Uttarakhand",
    "districtCode": "S2806",
    "districtName": "Bageshwar",
    "acNumber": 47,
    "acName": "Bageshwar",
    "partNumber": 69,
    "partName": "Roulyana",
    "lat": 29.809046600000002,
    "lon": 79.78077853027585
  },
  {
    "partId": 1113,
    "stateCode": "S28",
    "stateName": "Uttarakhand",
    "districtCode": "S2806",
    "districtName": "Bageshwar",
    "acNumber": 47,
    "acName": "Bageshwar",
    "partNumber": 70,
    "partName": "Falyati",
    "lat": 29.809046600000002,
    "lon": 79.78077853027585
  },
  {
    "partId": 1234,
    "stateCode": "S28",
    "stateName": "Uttarakhand",
    "districtCode": "S2806",
    "districtName": "Bageshwar",
    "acNumber": 47,
    "acName": "Bageshwar",
    "partNumber": 71,
    "partName": "Dank Kapkoti",
    "lat": 29.809046600000002,
    "lon": 79.78077853027585
  },
  {
    "partId": 1114,
    "stateCode": "S28",
    "stateName": "Uttarakhand",
    "districtCode": "S2806",
    "districtName": "Bageshwar",
    "acNumber": 47,
    "acName": "Bageshwar",
    "partNumber": 72,
    "partName": "Ana",
    "lat": 29.9108076,
    "lon": 79.5935869
  },
  {
    "partId": 3805,
    "stateCode": "S28",
    "stateName": "Uttarakhand",
    "districtCode": "S2806",
    "districtName": "Bageshwar",
    "acNumber": 47,
    "acName": "Bageshwar",
    "partNumber": 73,
    "partName": "Louharchora",
    "lat": 29.809046600000002,
    "lon": 79.78077853027585
  },
  {
    "partId": 1115,
    "stateCode": "S28",
    "stateName": "Uttarakhand",
    "districtCode": "S2806",
    "districtName": "Bageshwar",
    "acNumber": 47,
    "acName": "Bageshwar",
    "partNumber": 74,
    "partName": "Bhitarkot",
    "lat": 29.9069016,
    "lon": 79.5475173
  },
  {
    "partId": 1750,
    "stateCode": "S28",
    "stateName": "Uttarakhand",
    "districtCode": "S2806",
    "districtName": "Bageshwar",
    "acNumber": 47,
    "acName": "Bageshwar",
    "partNumber": 75,
    "partName": "Thakla",
    "lat": 29.9124334,
    "lon": 79.5357362
  },
  {
    "partId": 1767,
    "stateCode": "S28",
    "stateName": "Uttarakhand",
    "districtCode": "S2806",
    "districtName": "Bageshwar",
    "acNumber": 47,
    "acName": "Bageshwar",
    "partNumber": 76,
    "partName": "Harbagar",
    "lat": 29.809046600000002,
    "lon": 79.78077853027585
  },
  {
    "partId": 1091,
    "stateCode": "S28",
    "stateName": "Uttarakhand",
    "districtCode": "S2806",
    "districtName": "Bageshwar",
    "acNumber": 47,
    "acName": "Bageshwar",
    "partNumber": 77,
    "partName": "Bantoli",
    "lat": 29.8936387,
    "lon": 79.5590937
  },
  {
    "partId": 1751,
    "stateCode": "S28",
    "stateName": "Uttarakhand",
    "districtCode": "S2806",
    "districtName": "Bageshwar",
    "acNumber": 47,
    "acName": "Bageshwar",
    "partNumber": 78,
    "partName": "Kafaldunga",
    "lat": 29.809046600000002,
    "lon": 79.78077853027585
  },
  {
    "partId": 1768,
    "stateCode": "S28",
    "stateName": "Uttarakhand",
    "districtCode": "S2806",
    "districtName": "Bageshwar",
    "acNumber": 47,
    "acName": "Bageshwar",
    "partNumber": 79,
    "partName": "Silangtoli",
    "lat": 29.809046600000002,
    "lon": 79.78077853027585
  },
  {
    "partId": 1116,
    "stateCode": "S28",
    "stateName": "Uttarakhand",
    "districtCode": "S2806",
    "districtName": "Bageshwar",
    "acNumber": 47,
    "acName": "Bageshwar",
    "partNumber": 80,
    "partName": "Kaulag",
    "lat": 29.8779367,
    "lon": 79.5937586
  },
  {
    "partId": 1117,
    "stateCode": "S28",
    "stateName": "Uttarakhand",
    "districtCode": "S2806",
    "districtName": "Bageshwar",
    "acNumber": 47,
    "acName": "Bageshwar",
    "partNumber": 81,
    "partName": "Loubanj",
    "lat": 29.809046600000002,
    "lon": 79.78077853027585
  },
  {
    "partId": 1118,
    "stateCode": "S28",
    "stateName": "Uttarakhand",
    "districtCode": "S2806",
    "districtName": "Bageshwar",
    "acNumber": 47,
    "acName": "Bageshwar",
    "partNumber": 82,
    "partName": "Pachana (East Part)",
    "lat": 29.809046600000002,
    "lon": 79.78077853027585
  },
  {
    "partId": 1752,
    "stateCode": "S28",
    "stateName": "Uttarakhand",
    "districtCode": "S2806",
    "districtName": "Bageshwar",
    "acNumber": 47,
    "acName": "Bageshwar",
    "partNumber": 83,
    "partName": "Pachana (West Part)",
    "lat": 29.809046600000002,
    "lon": 79.78077853027585
  },
  {
    "partId": 1119,
    "stateCode": "S28",
    "stateName": "Uttarakhand",
    "districtCode": "S2806",
    "districtName": "Bageshwar",
    "acNumber": 47,
    "acName": "Bageshwar",
    "partNumber": 84,
    "partName": "Naughar",
    "lat": 29.8560912,
    "lon": 79.6309232
  },
  {
    "partId": 1092,
    "stateCode": "S28",
    "stateName": "Uttarakhand",
    "districtCode": "S2806",
    "districtName": "Bageshwar",
    "acNumber": 47,
    "acName": "Bageshwar",
    "partNumber": 85,
    "partName": "Bhatriya",
    "lat": 29.809046600000002,
    "lon": 79.78077853027585
  },
  {
    "partId": 1120,
    "stateCode": "S28",
    "stateName": "Uttarakhand",
    "districtCode": "S2806",
    "districtName": "Bageshwar",
    "acNumber": 47,
    "acName": "Bageshwar",
    "partNumber": 86,
    "partName": "Dyonai (West Part)",
    "lat": 29.809046600000002,
    "lon": 79.78077853027585
  },
  {
    "partId": 1121,
    "stateCode": "S28",
    "stateName": "Uttarakhand",
    "districtCode": "S2806",
    "districtName": "Bageshwar",
    "acNumber": 47,
    "acName": "Bageshwar",
    "partNumber": 87,
    "partName": "Dyonai  (East Part)",
    "lat": 29.809046600000002,
    "lon": 79.78077853027585
  },
  {
    "partId": 1093,
    "stateCode": "S28",
    "stateName": "Uttarakhand",
    "districtCode": "S2806",
    "districtName": "Bageshwar",
    "acNumber": 47,
    "acName": "Bageshwar",
    "partNumber": 88,
    "partName": "Garur (West Part)",
    "lat": 29.809046600000002,
    "lon": 79.78077853027585
  },
  {
    "partId": 3806,
    "stateCode": "S28",
    "stateName": "Uttarakhand",
    "districtCode": "S2806",
    "districtName": "Bageshwar",
    "acNumber": 47,
    "acName": "Bageshwar",
    "partNumber": 89,
    "partName": "Dudila",
    "lat": 29.809046600000002,
    "lon": 79.78077853027585
  },
  {
    "partId": 1197,
    "stateCode": "S28",
    "stateName": "Uttarakhand",
    "districtCode": "S2806",
    "districtName": "Bageshwar",
    "acNumber": 47,
    "acName": "Bageshwar",
    "partNumber": 90,
    "partName": "Amoli",
    "lat": 29.9216273,
    "lon": 79.5534986
  },
  {
    "partId": 1122,
    "stateCode": "S28",
    "stateName": "Uttarakhand",
    "districtCode": "S2806",
    "districtName": "Bageshwar",
    "acNumber": 47,
    "acName": "Bageshwar",
    "partNumber": 91,
    "partName": "Garur (East Part)",
    "lat": 29.809046600000002,
    "lon": 79.78077853027585
  },
  {
    "partId": 1745,
    "stateCode": "S28",
    "stateName": "Uttarakhand",
    "districtCode": "S2806",
    "districtName": "Bageshwar",
    "acNumber": 47,
    "acName": "Bageshwar",
    "partNumber": 92,
    "partName": "Bheta",
    "lat": 29.8863089,
    "lon": 79.6032429
  },
  {
    "partId": 1195,
    "stateCode": "S28",
    "stateName": "Uttarakhand",
    "districtCode": "S2806",
    "districtName": "Bageshwar",
    "acNumber": 47,
    "acName": "Bageshwar",
    "partNumber": 93,
    "partName": "Garser",
    "lat": 29.9103652,
    "lon": 79.6191001
  },
  {
    "partId": 1743,
    "stateCode": "S28",
    "stateName": "Uttarakhand",
    "districtCode": "S2806",
    "districtName": "Bageshwar",
    "acNumber": 47,
    "acName": "Bageshwar",
    "partNumber": 94,
    "partName": "Syalde Teet",
    "lat": 29.809046600000002,
    "lon": 79.78077853027585
  },
  {
    "partId": 1196,
    "stateCode": "S28",
    "stateName": "Uttarakhand",
    "districtCode": "S2806",
    "districtName": "Bageshwar",
    "acNumber": 47,
    "acName": "Bageshwar",
    "partNumber": 95,
    "partName": "Matena",
    "lat": 29.8974894,
    "lon": 79.6261167
  },
  {
    "partId": 1094,
    "stateCode": "S28",
    "stateName": "Uttarakhand",
    "districtCode": "S2806",
    "districtName": "Bageshwar",
    "acNumber": 47,
    "acName": "Bageshwar",
    "partNumber": 96,
    "partName": "Jinkhola",
    "lat": 29.809046600000002,
    "lon": 79.78077853027585
  },
  {
    "partId": 1123,
    "stateCode": "S28",
    "stateName": "Uttarakhand",
    "districtCode": "S2806",
    "districtName": "Bageshwar",
    "acNumber": 47,
    "acName": "Bageshwar",
    "partNumber": 97,
    "partName": "Kansyari",
    "lat": 29.809046600000002,
    "lon": 79.78077853027585
  },
  {
    "partId": 1124,
    "stateCode": "S28",
    "stateName": "Uttarakhand",
    "districtCode": "S2806",
    "districtName": "Bageshwar",
    "acNumber": 47,
    "acName": "Bageshwar",
    "partNumber": 98,
    "partName": "Lakhani",
    "lat": 29.82898908072626,
    "lon": 79.75342773256008
  },
  {
    "partId": 1125,
    "stateCode": "S28",
    "stateName": "Uttarakhand",
    "districtCode": "S2806",
    "districtName": "Bageshwar",
    "acNumber": 47,
    "acName": "Bageshwar",
    "partNumber": 99,
    "partName": "Patli",
    "lat": 29.82898908072626,
    "lon": 79.75342773256008
  },
  {
    "partId": 1086,
    "stateCode": "S28",
    "stateName": "Uttarakhand",
    "districtCode": "S2806",
    "districtName": "Bageshwar",
    "acNumber": 47,
    "acName": "Bageshwar",
    "partNumber": 100,
    "partName": "Dyorada",
    "lat": 29.82898908072626,
    "lon": 79.75342773256008
  },
  {
    "partId": 1126,
    "stateCode": "S28",
    "stateName": "Uttarakhand",
    "districtCode": "S2806",
    "districtName": "Bageshwar",
    "acNumber": 47,
    "acName": "Bageshwar",
    "partNumber": 101,
    "partName": "Silangwari",
    "lat": 29.809046600000002,
    "lon": 79.78077853027585
  },
  {
    "partId": 1087,
    "stateCode": "S28",
    "stateName": "Uttarakhand",
    "districtCode": "S2806",
    "districtName": "Bageshwar",
    "acNumber": 47,
    "acName": "Bageshwar",
    "partNumber": 102,
    "partName": "Noughar Kyari",
    "lat": 29.809046600000002,
    "lon": 79.78077853027585
  },
  {
    "partId": 1235,
    "stateCode": "S28",
    "stateName": "Uttarakhand",
    "districtCode": "S2806",
    "districtName": "Bageshwar",
    "acNumber": 47,
    "acName": "Bageshwar",
    "partNumber": 103,
    "partName": "Chankot",
    "lat": 29.858183,
    "lon": 79.6231409
  },
  {
    "partId": 1127,
    "stateCode": "S28",
    "stateName": "Uttarakhand",
    "districtCode": "S2806",
    "districtName": "Bageshwar",
    "acNumber": 47,
    "acName": "Bageshwar",
    "partNumber": 104,
    "partName": "Souli",
    "lat": 29.809046600000002,
    "lon": 79.78077853027585
  },
  {
    "partId": 1128,
    "stateCode": "S28",
    "stateName": "Uttarakhand",
    "districtCode": "S2806",
    "districtName": "Bageshwar",
    "acNumber": 47,
    "acName": "Bageshwar",
    "partNumber": 105,
    "partName": "Kausani",
    "lat": 29.8539706,
    "lon": 79.5943657
  },
  {
    "partId": 1129,
    "stateCode": "S28",
    "stateName": "Uttarakhand",
    "districtCode": "S2806",
    "districtName": "Bageshwar",
    "acNumber": 47,
    "acName": "Bageshwar",
    "partNumber": 106,
    "partName": "Bamrari",
    "lat": 29.809046600000002,
    "lon": 79.78077853027585
  },
  {
    "partId": 1088,
    "stateCode": "S28",
    "stateName": "Uttarakhand",
    "districtCode": "S2806",
    "districtName": "Bageshwar",
    "acNumber": 47,
    "acName": "Bageshwar",
    "partNumber": 107,
    "partName": "Thaklar",
    "lat": 29.809046600000002,
    "lon": 79.78077853027585
  },
  {
    "partId": 1130,
    "stateCode": "S28",
    "stateName": "Uttarakhand",
    "districtCode": "S2806",
    "districtName": "Bageshwar",
    "acNumber": 47,
    "acName": "Bageshwar",
    "partNumber": 108,
    "partName": "Fatgali",
    "lat": 29.8802999,
    "lon": 79.6988705
  },
  {
    "partId": 1131,
    "stateCode": "S28",
    "stateName": "Uttarakhand",
    "districtCode": "S2806",
    "districtName": "Bageshwar",
    "acNumber": 47,
    "acName": "Bageshwar",
    "partNumber": 109,
    "partName": "Kamol",
    "lat": 29.809046600000002,
    "lon": 79.78077853027585
  },
  {
    "partId": 1132,
    "stateCode": "S28",
    "stateName": "Uttarakhand",
    "districtCode": "S2806",
    "districtName": "Bageshwar",
    "acNumber": 47,
    "acName": "Bageshwar",
    "partNumber": 110,
    "partName": "Rawaikhal (East Part)",
    "lat": 29.809046600000002,
    "lon": 79.78077853027585
  },
  {
    "partId": 1204,
    "stateCode": "S28",
    "stateName": "Uttarakhand",
    "districtCode": "S2806",
    "districtName": "Bageshwar",
    "acNumber": 47,
    "acName": "Bageshwar",
    "partNumber": 111,
    "partName": "Rawaikhal (West Part)",
    "lat": 29.82898908072626,
    "lon": 79.75342773256008
  },
  {
    "partId": 1133,
    "stateCode": "S28",
    "stateName": "Uttarakhand",
    "districtCode": "S2806",
    "districtName": "Bageshwar",
    "acNumber": 47,
    "acName": "Bageshwar",
    "partNumber": 112,
    "partName": "Okhalson",
    "lat": 29.809046600000002,
    "lon": 79.78077853027585
  },
  {
    "partId": 1134,
    "stateCode": "S28",
    "stateName": "Uttarakhand",
    "districtCode": "S2806",
    "districtName": "Bageshwar",
    "acNumber": 47,
    "acName": "Bageshwar",
    "partNumber": 113,
    "partName": "Khabdoli",
    "lat": 29.8810066,
    "lon": 79.7442627
  },
  {
    "partId": 1135,
    "stateCode": "S28",
    "stateName": "Uttarakhand",
    "districtCode": "S2806",
    "districtName": "Bageshwar",
    "acNumber": 47,
    "acName": "Bageshwar",
    "partNumber": 114,
    "partName": "Kameri",
    "lat": 29.8710803,
    "lon": 79.7279763
  },
  {
    "partId": 1160,
    "stateCode": "S28",
    "stateName": "Uttarakhand",
    "districtCode": "S2806",
    "districtName": "Bageshwar",
    "acNumber": 47,
    "acName": "Bageshwar",
    "partNumber": 115,
    "partName": "Bahooli",
    "lat": 29.809046600000002,
    "lon": 79.78077853027585
  },
  {
    "partId": 1136,
    "stateCode": "S28",
    "stateName": "Uttarakhand",
    "districtCode": "S2806",
    "districtName": "Bageshwar",
    "acNumber": 47,
    "acName": "Bageshwar",
    "partNumber": 116,
    "partName": "Dhyangan",
    "lat": 29.809046600000002,
    "lon": 79.78077853027585
  },
  {
    "partId": 1137,
    "stateCode": "S28",
    "stateName": "Uttarakhand",
    "districtCode": "S2806",
    "districtName": "Bageshwar",
    "acNumber": 47,
    "acName": "Bageshwar",
    "partNumber": 117,
    "partName": "Kholi",
    "lat": 29.8491682,
    "lon": 79.7425461
  },
  {
    "partId": 1138,
    "stateCode": "S28",
    "stateName": "Uttarakhand",
    "districtCode": "S2806",
    "districtName": "Bageshwar",
    "acNumber": 47,
    "acName": "Bageshwar",
    "partNumber": 118,
    "partName": "Leti",
    "lat": 29.8034861,
    "lon": 79.7392416
  },
  {
    "partId": 1753,
    "stateCode": "S28",
    "stateName": "Uttarakhand",
    "districtCode": "S2806",
    "districtName": "Bageshwar",
    "acNumber": 47,
    "acName": "Bageshwar",
    "partNumber": 119,
    "partName": "Dhari",
    "lat": 29.76442085,
    "lon": 79.9708823467052
  },
  {
    "partId": 1161,
    "stateCode": "S28",
    "stateName": "Uttarakhand",
    "districtCode": "S2806",
    "districtName": "Bageshwar",
    "acNumber": 47,
    "acName": "Bageshwar",
    "partNumber": 120,
    "partName": "Doba",
    "lat": 29.8056274,
    "lon": 79.704684
  },
  {
    "partId": 1139,
    "stateCode": "S28",
    "stateName": "Uttarakhand",
    "districtCode": "S2806",
    "districtName": "Bageshwar",
    "acNumber": 47,
    "acName": "Bageshwar",
    "partNumber": 121,
    "partName": "Ratbe",
    "lat": 29.8307345,
    "lon": 79.7062179
  },
  {
    "partId": 1140,
    "stateCode": "S28",
    "stateName": "Uttarakhand",
    "districtCode": "S2806",
    "districtName": "Bageshwar",
    "acNumber": 47,
    "acName": "Bageshwar",
    "partNumber": 122,
    "partName": "Bhayeri",
    "lat": 29.809046600000002,
    "lon": 79.78077853027585
  },
  {
    "partId": 1141,
    "stateCode": "S28",
    "stateName": "Uttarakhand",
    "districtCode": "S2806",
    "districtName": "Bageshwar",
    "acNumber": 47,
    "acName": "Bageshwar",
    "partNumber": 123,
    "partName": "Nail",
    "lat": 29.8507687,
    "lon": 79.7155308
  },
  {
    "partId": 1162,
    "stateCode": "S28",
    "stateName": "Uttarakhand",
    "districtCode": "S2806",
    "districtName": "Bageshwar",
    "acNumber": 47,
    "acName": "Bageshwar",
    "partNumber": 124,
    "partName": "Querali",
    "lat": 29.82898908072626,
    "lon": 79.75342773256008
  },
  {
    "partId": 1142,
    "stateCode": "S28",
    "stateName": "Uttarakhand",
    "districtCode": "S2806",
    "districtName": "Bageshwar",
    "acNumber": 47,
    "acName": "Bageshwar",
    "partNumber": 125,
    "partName": "Amtora",
    "lat": 29.809046600000002,
    "lon": 79.78077853027585
  },
  {
    "partId": 1143,
    "stateCode": "S28",
    "stateName": "Uttarakhand",
    "districtCode": "S2806",
    "districtName": "Bageshwar",
    "acNumber": 47,
    "acName": "Bageshwar",
    "partNumber": 126,
    "partName": "Amsarkot",
    "lat": 29.809046600000002,
    "lon": 79.78077853027585
  },
  {
    "partId": 1163,
    "stateCode": "S28",
    "stateName": "Uttarakhand",
    "districtCode": "S2806",
    "districtName": "Bageshwar",
    "acNumber": 47,
    "acName": "Bageshwar",
    "partNumber": 127,
    "partName": "Joulkande Navin",
    "lat": 29.809046600000002,
    "lon": 79.78077853027585
  },
  {
    "partId": 1144,
    "stateCode": "S28",
    "stateName": "Uttarakhand",
    "districtCode": "S2806",
    "districtName": "Bageshwar",
    "acNumber": 47,
    "acName": "Bageshwar",
    "partNumber": 128,
    "partName": "Bilona",
    "lat": 29.830562999999998,
    "lon": 79.77028687872445
  },
  {
    "partId": 1198,
    "stateCode": "S28",
    "stateName": "Uttarakhand",
    "districtCode": "S2806",
    "districtName": "Bageshwar",
    "acNumber": 47,
    "acName": "Bageshwar",
    "partNumber": 129,
    "partName": "Bilona Navin",
    "lat": 29.809046600000002,
    "lon": 79.78077853027585
  },
  {
    "partId": 1145,
    "stateCode": "S28",
    "stateName": "Uttarakhand",
    "districtCode": "S2806",
    "districtName": "Bageshwar",
    "acNumber": 47,
    "acName": "Bageshwar",
    "partNumber": 130,
    "partName": "Pouridhar",
    "lat": 29.809046600000002,
    "lon": 79.78077853027585
  },
  {
    "partId": 1146,
    "stateCode": "S28",
    "stateName": "Uttarakhand",
    "districtCode": "S2806",
    "districtName": "Bageshwar",
    "acNumber": 47,
    "acName": "Bageshwar",
    "partNumber": 131,
    "partName": "Kharktamta",
    "lat": 29.809046600000002,
    "lon": 79.78077853027585
  },
  {
    "partId": 1164,
    "stateCode": "S28",
    "stateName": "Uttarakhand",
    "districtCode": "S2806",
    "districtName": "Bageshwar",
    "acNumber": 47,
    "acName": "Bageshwar",
    "partNumber": 132,
    "partName": "Chougaoncheena",
    "lat": 29.809046600000002,
    "lon": 79.78077853027585
  },
  {
    "partId": 1147,
    "stateCode": "S28",
    "stateName": "Uttarakhand",
    "districtCode": "S2806",
    "districtName": "Bageshwar",
    "acNumber": 47,
    "acName": "Bageshwar",
    "partNumber": 133,
    "partName": "Dewaldhar",
    "lat": 29.809046600000002,
    "lon": 79.78077853027585
  },
  {
    "partId": 1754,
    "stateCode": "S28",
    "stateName": "Uttarakhand",
    "districtCode": "S2806",
    "districtName": "Bageshwar",
    "acNumber": 47,
    "acName": "Bageshwar",
    "partNumber": 134,
    "partName": "Gaula Agar",
    "lat": 29.809046600000002,
    "lon": 79.78077853027585
  },
  {
    "partId": 1199,
    "stateCode": "S28",
    "stateName": "Uttarakhand",
    "districtCode": "S2806",
    "districtName": "Bageshwar",
    "acNumber": 47,
    "acName": "Bageshwar",
    "partNumber": 135,
    "partName": "Shishakhani",
    "lat": 29.809046600000002,
    "lon": 79.78077853027585
  },
  {
    "partId": 1148,
    "stateCode": "S28",
    "stateName": "Uttarakhand",
    "districtCode": "S2806",
    "districtName": "Bageshwar",
    "acNumber": 47,
    "acName": "Bageshwar",
    "partNumber": 136,
    "partName": "Karalapaldi",
    "lat": 29.809046600000002,
    "lon": 79.78077853027585
  },
  {
    "partId": 1165,
    "stateCode": "S28",
    "stateName": "Uttarakhand",
    "districtCode": "S2806",
    "districtName": "Bageshwar",
    "acNumber": 47,
    "acName": "Bageshwar",
    "partNumber": 137,
    "partName": "Paldichhina",
    "lat": 29.809046600000002,
    "lon": 79.78077853027585
  },
  {
    "partId": 1149,
    "stateCode": "S28",
    "stateName": "Uttarakhand",
    "districtCode": "S2806",
    "districtName": "Bageshwar",
    "acNumber": 47,
    "acName": "Bageshwar",
    "partNumber": 138,
    "partName": "Jain Karas",
    "lat": 29.809046600000002,
    "lon": 79.78077853027585
  },
  {
    "partId": 1150,
    "stateCode": "S28",
    "stateName": "Uttarakhand",
    "districtCode": "S2806",
    "districtName": "Bageshwar",
    "acNumber": 47,
    "acName": "Bageshwar",
    "partNumber": 139,
    "partName": "Bilori",
    "lat": 29.809046600000002,
    "lon": 79.78077853027585
  },
  {
    "partId": 1151,
    "stateCode": "S28",
    "stateName": "Uttarakhand",
    "districtCode": "S2806",
    "districtName": "Bageshwar",
    "acNumber": 47,
    "acName": "Bageshwar",
    "partNumber": 140,
    "partName": "Chhouna",
    "lat": 29.809046600000002,
    "lon": 79.78077853027585
  },
  {
    "partId": 1166,
    "stateCode": "S28",
    "stateName": "Uttarakhand",
    "districtCode": "S2806",
    "districtName": "Bageshwar",
    "acNumber": 47,
    "acName": "Bageshwar",
    "partNumber": 141,
    "partName": "Matela",
    "lat": 29.7575132,
    "lon": 79.7372531
  },
  {
    "partId": 1152,
    "stateCode": "S28",
    "stateName": "Uttarakhand",
    "districtCode": "S2806",
    "districtName": "Bageshwar",
    "acNumber": 47,
    "acName": "Bageshwar",
    "partNumber": 142,
    "partName": "Bhanartoli",
    "lat": 29.809046600000002,
    "lon": 79.78077853027585
  },
  {
    "partId": 1153,
    "stateCode": "S28",
    "stateName": "Uttarakhand",
    "districtCode": "S2806",
    "districtName": "Bageshwar",
    "acNumber": 47,
    "acName": "Bageshwar",
    "partNumber": 143,
    "partName": "Kangar",
    "lat": 29.809046600000002,
    "lon": 79.78077853027585
  },
  {
    "partId": 1167,
    "stateCode": "S28",
    "stateName": "Uttarakhand",
    "districtCode": "S2806",
    "districtName": "Bageshwar",
    "acNumber": 47,
    "acName": "Bageshwar",
    "partNumber": 144,
    "partName": "Okhalisirod",
    "lat": 29.809046600000002,
    "lon": 79.78077853027585
  },
  {
    "partId": 1200,
    "stateCode": "S28",
    "stateName": "Uttarakhand",
    "districtCode": "S2806",
    "districtName": "Bageshwar",
    "acNumber": 47,
    "acName": "Bageshwar",
    "partNumber": 145,
    "partName": "Bholnanaghar",
    "lat": 29.809046600000002,
    "lon": 79.78077853027585
  },
  {
    "partId": 1154,
    "stateCode": "S28",
    "stateName": "Uttarakhand",
    "districtCode": "S2806",
    "districtName": "Bageshwar",
    "acNumber": 47,
    "acName": "Bageshwar",
    "partNumber": 146,
    "partName": "Sataritana",
    "lat": 29.809046600000002,
    "lon": 79.78077853027585
  },
  {
    "partId": 1155,
    "stateCode": "S28",
    "stateName": "Uttarakhand",
    "districtCode": "S2806",
    "districtName": "Bageshwar",
    "acNumber": 47,
    "acName": "Bageshwar",
    "partNumber": 147,
    "partName": "Khaulseer Prachin",
    "lat": 29.809046600000002,
    "lon": 79.78077853027585
  },
  {
    "partId": 1156,
    "stateCode": "S28",
    "stateName": "Uttarakhand",
    "districtCode": "S2806",
    "districtName": "Bageshwar",
    "acNumber": 47,
    "acName": "Bageshwar",
    "partNumber": 148,
    "partName": "Parkhet Baidibagar",
    "lat": 29.809046600000002,
    "lon": 79.78077853027585
  },
  {
    "partId": 1157,
    "stateCode": "S28",
    "stateName": "Uttarakhand",
    "districtCode": "S2806",
    "districtName": "Bageshwar",
    "acNumber": 47,
    "acName": "Bageshwar",
    "partNumber": 149,
    "partName": "Raikholi",
    "lat": 29.7451899,
    "lon": 79.8028636
  },
  {
    "partId": 1168,
    "stateCode": "S28",
    "stateName": "Uttarakhand",
    "districtCode": "S2806",
    "districtName": "Bageshwar",
    "acNumber": 47,
    "acName": "Bageshwar",
    "partNumber": 150,
    "partName": "Bouri",
    "lat": 29.809046600000002,
    "lon": 79.78077853027585
  },
  {
    "partId": 1158,
    "stateCode": "S28",
    "stateName": "Uttarakhand",
    "districtCode": "S2806",
    "districtName": "Bageshwar",
    "acNumber": 47,
    "acName": "Bageshwar",
    "partNumber": 151,
    "partName": "Ason (South Part)",
    "lat": 29.809046600000002,
    "lon": 79.78077853027585
  },
  {
    "partId": 1159,
    "stateCode": "S28",
    "stateName": "Uttarakhand",
    "districtCode": "S2806",
    "districtName": "Bageshwar",
    "acNumber": 47,
    "acName": "Bageshwar",
    "partNumber": 152,
    "partName": "Ason (North Part)",
    "lat": 29.809046600000002,
    "lon": 79.78077853027585
  },
  {
    "partId": 1089,
    "stateCode": "S28",
    "stateName": "Uttarakhand",
    "districtCode": "S2806",
    "districtName": "Bageshwar",
    "acNumber": 47,
    "acName": "Bageshwar",
    "partNumber": 153,
    "partName": "Pana",
    "lat": 29.7367686,
    "lon": 79.834299
  },
  {
    "partId": 1205,
    "stateCode": "S28",
    "stateName": "Uttarakhand",
    "districtCode": "S2806",
    "districtName": "Bageshwar",
    "acNumber": 47,
    "acName": "Bageshwar",
    "partNumber": 154,
    "partName": "Tarmoli",
    "lat": 29.7169608,
    "lon": 79.8724293
  },
  {
    "partId": 1206,
    "stateCode": "S28",
    "stateName": "Uttarakhand",
    "districtCode": "S2806",
    "districtName": "Bageshwar",
    "acNumber": 47,
    "acName": "Bageshwar",
    "partNumber": 155,
    "partName": "Bohala",
    "lat": 29.7559296,
    "lon": 79.8103562
  },
  {
    "partId": 1207,
    "stateCode": "S28",
    "stateName": "Uttarakhand",
    "districtCode": "S2806",
    "districtName": "Bageshwar",
    "acNumber": 47,
    "acName": "Bageshwar",
    "partNumber": 156,
    "partName": "Ghatgar",
    "lat": 29.7738021,
    "lon": 79.9399352
  },
  {
    "partId": 1208,
    "stateCode": "S28",
    "stateName": "Uttarakhand",
    "districtCode": "S2806",
    "districtName": "Bageshwar",
    "acNumber": 47,
    "acName": "Bageshwar",
    "partNumber": 157,
    "partName": "Kabhara",
    "lat": 29.809046600000002,
    "lon": 79.78077853027585
  },
  {
    "partId": 1209,
    "stateCode": "S28",
    "stateName": "Uttarakhand",
    "districtCode": "S2806",
    "districtName": "Bageshwar",
    "acNumber": 47,
    "acName": "Bageshwar",
    "partNumber": 158,
    "partName": "Kafligair",
    "lat": 29.7526839,
    "lon": 79.7453174
  },
  {
    "partId": 1210,
    "stateCode": "S28",
    "stateName": "Uttarakhand",
    "districtCode": "S2806",
    "districtName": "Bageshwar",
    "acNumber": 47,
    "acName": "Bageshwar",
    "partNumber": 159,
    "partName": "Kafaligair",
    "lat": 29.809046600000002,
    "lon": 79.78077853027585
  },
  {
    "partId": 1211,
    "stateCode": "S28",
    "stateName": "Uttarakhand",
    "districtCode": "S2806",
    "districtName": "Bageshwar",
    "acNumber": 47,
    "acName": "Bageshwar",
    "partNumber": 160,
    "partName": "Pasdev",
    "lat": 29.809046600000002,
    "lon": 79.78077853027585
  },
  {
    "partId": 1212,
    "stateCode": "S28",
    "stateName": "Uttarakhand",
    "districtCode": "S2806",
    "districtName": "Bageshwar",
    "acNumber": 47,
    "acName": "Bageshwar",
    "partNumber": 161,
    "partName": "Chhani",
    "lat": 29.771176,
    "lon": 79.7738957
  },
  {
    "partId": 1213,
    "stateCode": "S28",
    "stateName": "Uttarakhand",
    "districtCode": "S2806",
    "districtName": "Bageshwar",
    "acNumber": 47,
    "acName": "Bageshwar",
    "partNumber": 162,
    "partName": "Bhatkhola",
    "lat": 29.809046600000002,
    "lon": 79.78077853027585
  },
  {
    "partId": 1214,
    "stateCode": "S28",
    "stateName": "Uttarakhand",
    "districtCode": "S2806",
    "districtName": "Bageshwar",
    "acNumber": 47,
    "acName": "Bageshwar",
    "partNumber": 163,
    "partName": "Bihargaon",
    "lat": 29.809046600000002,
    "lon": 79.78077853027585
  },
  {
    "partId": 1215,
    "stateCode": "S28",
    "stateName": "Uttarakhand",
    "districtCode": "S2806",
    "districtName": "Bageshwar",
    "acNumber": 47,
    "acName": "Bageshwar",
    "partNumber": 164,
    "partName": "Pagana",
    "lat": 29.809046600000002,
    "lon": 79.78077853027585
  },
  {
    "partId": 1216,
    "stateCode": "S28",
    "stateName": "Uttarakhand",
    "districtCode": "S2806",
    "districtName": "Bageshwar",
    "acNumber": 47,
    "acName": "Bageshwar",
    "partNumber": 165,
    "partName": "Sarna",
    "lat": 29.82898908072626,
    "lon": 79.75342773256008
  },
  {
    "partId": 1217,
    "stateCode": "S28",
    "stateName": "Uttarakhand",
    "districtCode": "S2806",
    "districtName": "Bageshwar",
    "acNumber": 47,
    "acName": "Bageshwar",
    "partNumber": 166,
    "partName": "Khankar",
    "lat": 29.809046600000002,
    "lon": 79.78077853027585
  },
  {
    "partId": 1218,
    "stateCode": "S28",
    "stateName": "Uttarakhand",
    "districtCode": "S2806",
    "districtName": "Bageshwar",
    "acNumber": 47,
    "acName": "Bageshwar",
    "partNumber": 167,
    "partName": "Binsar",
    "lat": 29.773858,
    "lon": 79.7653127
  },
  {
    "partId": 1219,
    "stateCode": "S28",
    "stateName": "Uttarakhand",
    "districtCode": "S2806",
    "districtName": "Bageshwar",
    "acNumber": 47,
    "acName": "Bageshwar",
    "partNumber": 168,
    "partName": "Jethai",
    "lat": 29.7976723,
    "lon": 79.8727053
  },
  {
    "partId": 1201,
    "stateCode": "S28",
    "stateName": "Uttarakhand",
    "districtCode": "S2806",
    "districtName": "Bageshwar",
    "acNumber": 47,
    "acName": "Bageshwar",
    "partNumber": 169,
    "partName": "Bangchuri",
    "lat": 29.782807,
    "lon": 79.8726761
  },
  {
    "partId": 1220,
    "stateCode": "S28",
    "stateName": "Uttarakhand",
    "districtCode": "S2806",
    "districtName": "Bageshwar",
    "acNumber": 47,
    "acName": "Bageshwar",
    "partNumber": 170,
    "partName": "Gurna",
    "lat": 29.809046600000002,
    "lon": 79.78077853027585
  },
  {
    "partId": 1221,
    "stateCode": "S28",
    "stateName": "Uttarakhand",
    "districtCode": "S2806",
    "districtName": "Bageshwar",
    "acNumber": 47,
    "acName": "Bageshwar",
    "partNumber": 171,
    "partName": "Matiyoli",
    "lat": 29.809046600000002,
    "lon": 79.78077853027585
  },
  {
    "partId": 1756,
    "stateCode": "S28",
    "stateName": "Uttarakhand",
    "districtCode": "S2806",
    "districtName": "Bageshwar",
    "acNumber": 47,
    "acName": "Bageshwar",
    "partNumber": 172,
    "partName": "Kimoli",
    "lat": 29.82898908072626,
    "lon": 79.75342773256008
  },
  {
    "partId": 1222,
    "stateCode": "S28",
    "stateName": "Uttarakhand",
    "districtCode": "S2806",
    "districtName": "Bageshwar",
    "acNumber": 47,
    "acName": "Bageshwar",
    "partNumber": 173,
    "partName": "Ratmoli",
    "lat": 29.7745099,
    "lon": 79.8538685
  },
  {
    "partId": 1801,
    "stateCode": "S28",
    "stateName": "Uttarakhand",
    "districtCode": "S2806",
    "districtName": "Bageshwar",
    "acNumber": 47,
    "acName": "Bageshwar",
    "partNumber": 174,
    "partName": "Kula rang chouda",
    "lat": 29.82898908072626,
    "lon": 79.75342773256008
  },
  {
    "partId": 1223,
    "stateCode": "S28",
    "stateName": "Uttarakhand",
    "districtCode": "S2806",
    "districtName": "Bageshwar",
    "acNumber": 47,
    "acName": "Bageshwar",
    "partNumber": 175,
    "partName": "Nayal",
    "lat": 29.809046600000002,
    "lon": 79.78077853027585
  },
  {
    "partId": 3807,
    "stateCode": "S28",
    "stateName": "Uttarakhand",
    "districtCode": "S2806",
    "districtName": "Bageshwar",
    "acNumber": 47,
    "acName": "Bageshwar",
    "partNumber": 176,
    "partName": "Birtoli",
    "lat": 29.82898908072626,
    "lon": 79.75342773256008
  },
  {
    "partId": 1224,
    "stateCode": "S28",
    "stateName": "Uttarakhand",
    "districtCode": "S2806",
    "districtName": "Bageshwar",
    "acNumber": 47,
    "acName": "Bageshwar",
    "partNumber": 177,
    "partName": "Syaldoba",
    "lat": 29.8960992,
    "lon": 79.7682443
  },
  {
    "partId": 1202,
    "stateCode": "S28",
    "stateName": "Uttarakhand",
    "districtCode": "S2806",
    "districtName": "Bageshwar",
    "acNumber": 47,
    "acName": "Bageshwar",
    "partNumber": 178,
    "partName": "Naugaon",
    "lat": 29.9663862,
    "lon": 79.6241856
  },
  {
    "partId": 1225,
    "stateCode": "S28",
    "stateName": "Uttarakhand",
    "districtCode": "S2806",
    "districtName": "Bageshwar",
    "acNumber": 47,
    "acName": "Bageshwar",
    "partNumber": 179,
    "partName": "Dhungapatli",
    "lat": 29.809046600000002,
    "lon": 79.78077853027585
  },
  {
    "partId": 1203,
    "stateCode": "S28",
    "stateName": "Uttarakhand",
    "districtCode": "S2806",
    "districtName": "Bageshwar",
    "acNumber": 47,
    "acName": "Bageshwar",
    "partNumber": 180,
    "partName": "Malta",
    "lat": 29.81489,
    "lon": 79.7953427
  },
  {
    "partId": 1226,
    "stateCode": "S28",
    "stateName": "Uttarakhand",
    "districtCode": "S2806",
    "districtName": "Bageshwar",
    "acNumber": 47,
    "acName": "Bageshwar",
    "partNumber": 181,
    "partName": "Mehnarbunga",
    "lat": 29.82898908072626,
    "lon": 79.75342773256008
  },
  {
    "partId": 1227,
    "stateCode": "S28",
    "stateName": "Uttarakhand",
    "districtCode": "S2806",
    "districtName": "Bageshwar",
    "acNumber": 47,
    "acName": "Bageshwar",
    "partNumber": 182,
    "partName": "Bageshwar First",
    "lat": 29.809046600000002,
    "lon": 79.78077853027585
  },
  {
    "partId": 1228,
    "stateCode": "S28",
    "stateName": "Uttarakhand",
    "districtCode": "S2806",
    "districtName": "Bageshwar",
    "acNumber": 47,
    "acName": "Bageshwar",
    "partNumber": 183,
    "partName": "Palnikot (Baret)",
    "lat": 29.809046600000002,
    "lon": 79.78077853027585
  },
  {
    "partId": 1236,
    "stateCode": "S28",
    "stateName": "Uttarakhand",
    "districtCode": "S2806",
    "districtName": "Bageshwar",
    "acNumber": 47,
    "acName": "Bageshwar",
    "partNumber": 184,
    "partName": "Sainj",
    "lat": 29.7240116,
    "lon": 79.7856036
  },
  {
    "partId": 1229,
    "stateCode": "S28",
    "stateName": "Uttarakhand",
    "districtCode": "S2806",
    "districtName": "Bageshwar",
    "acNumber": 47,
    "acName": "Bageshwar",
    "partNumber": 185,
    "partName": "Bageshwar Second (East Part)",
    "lat": 29.809046600000002,
    "lon": 79.78077853027585
  },
  {
    "partId": 1230,
    "stateCode": "S28",
    "stateName": "Uttarakhand",
    "districtCode": "S2806",
    "districtName": "Bageshwar",
    "acNumber": 47,
    "acName": "Bageshwar",
    "partNumber": 186,
    "partName": "Bageshwar Second (West Part)",
    "lat": 29.809046600000002,
    "lon": 79.78077853027585
  },
  {
    "partId": 1095,
    "stateCode": "S28",
    "stateName": "Uttarakhand",
    "districtCode": "S2806",
    "districtName": "Bageshwar",
    "acNumber": 47,
    "acName": "Bageshwar",
    "partNumber": 187,
    "partName": "Bageshwar",
    "lat": 29.809046600000002,
    "lon": 79.78077853027585
  },
  {
    "partId": 1758,
    "stateCode": "S28",
    "stateName": "Uttarakhand",
    "districtCode": "S2806",
    "districtName": "Bageshwar",
    "acNumber": 47,
    "acName": "Bageshwar",
    "partNumber": 188,
    "partName": "Bageshwar",
    "lat": 29.809046600000002,
    "lon": 79.78077853027585
  },
  {
    "partId": 1802,
    "stateCode": "S28",
    "stateName": "Uttarakhand",
    "districtCode": "S2806",
    "districtName": "Bageshwar",
    "acNumber": 47,
    "acName": "Bageshwar",
    "partNumber": 189,
    "partName": "Bageshwar",
    "lat": 29.809046600000002,
    "lon": 79.78077853027585
  },
  {
    "partId": 1759,
    "stateCode": "S28",
    "stateName": "Uttarakhand",
    "districtCode": "S2806",
    "districtName": "Bageshwar",
    "acNumber": 47,
    "acName": "Bageshwar",
    "partNumber": 190,
    "partName": "Bageshwar (East Part)",
    "lat": 29.809046600000002,
    "lon": 79.78077853027585
  },
  {
    "partId": 1803,
    "stateCode": "S28",
    "stateName": "Uttarakhand",
    "districtCode": "S2806",
    "districtName": "Bageshwar",
    "acNumber": 47,
    "acName": "Bageshwar",
    "partNumber": 191,
    "partName": "Bageshwar (North Part)",
    "lat": 29.809046600000002,
    "lon": 79.78077853027585
  },
  {
    "partId": 1760,
    "stateCode": "S28",
    "stateName": "Uttarakhand",
    "districtCode": "S2806",
    "districtName": "Bageshwar",
    "acNumber": 47,
    "acName": "Bageshwar",
    "partNumber": 192,
    "partName": "Bageshwar (West Part)",
    "lat": 29.82898908072626,
    "lon": 79.75342773256008
  },
  {
    "partId": 1618,
    "stateCode": "S28",
    "stateName": "Uttarakhand",
    "districtCode": "S2806",
    "districtName": "Bageshwar",
    "acNumber": 46,
    "acName": "Kapkot",
    "partNumber": 1,
    "partName": "Borbalara",
    "lat": 30.100508050000002,
    "lon": 79.92985657692986
  },
  {
    "partId": 1619,
    "stateCode": "S28",
    "stateName": "Uttarakhand",
    "districtCode": "S2806",
    "districtName": "Bageshwar",
    "acNumber": 46,
    "acName": "Kapkot",
    "partNumber": 2,
    "partName": "Kunwari",
    "lat": 30.082677,
    "lon": 79.7998381
  },
  {
    "partId": 1672,
    "stateCode": "S28",
    "stateName": "Uttarakhand",
    "districtCode": "S2806",
    "districtName": "Bageshwar",
    "acNumber": 46,
    "acName": "Kapkot",
    "partNumber": 3,
    "partName": "Kilpara",
    "lat": 30.100508050000002,
    "lon": 79.92985657692986
  },
  {
    "partId": 1620,
    "stateCode": "S28",
    "stateName": "Uttarakhand",
    "districtCode": "S2806",
    "districtName": "Bageshwar",
    "acNumber": 46,
    "acName": "Kapkot",
    "partNumber": 4,
    "partName": "Badiyakot",
    "lat": 30.111725,
    "lon": 79.844156
  },
  {
    "partId": 1621,
    "stateCode": "S28",
    "stateName": "Uttarakhand",
    "districtCode": "S2806",
    "districtName": "Bageshwar",
    "acNumber": 46,
    "acName": "Kapkot",
    "partNumber": 5,
    "partName": "Teekh",
    "lat": 30.0870206,
    "lon": 79.8843483
  },
  {
    "partId": 1733,
    "stateCode": "S28",
    "stateName": "Uttarakhand",
    "districtCode": "S2806",
    "districtName": "Bageshwar",
    "acNumber": 46,
    "acName": "Kapkot",
    "partNumber": 6,
    "partName": "Daula",
    "lat": 29.7847205,
    "lon": 79.9612319
  },
  {
    "partId": 1622,
    "stateCode": "S28",
    "stateName": "Uttarakhand",
    "districtCode": "S2806",
    "districtName": "Bageshwar",
    "acNumber": 46,
    "acName": "Kapkot",
    "partNumber": 7,
    "partName": "Sorag",
    "lat": 30.026893270000002,
    "lon": 79.92005611331713
  },
  {
    "partId": 1557,
    "stateCode": "S28",
    "stateName": "Uttarakhand",
    "districtCode": "S2806",
    "districtName": "Bageshwar",
    "acNumber": 46,
    "acName": "Kapkot",
    "partNumber": 8,
    "partName": "uniya",
    "lat": 30.100508050000002,
    "lon": 79.92985657692986
  },
  {
    "partId": 1623,
    "stateCode": "S28",
    "stateName": "Uttarakhand",
    "districtCode": "S2806",
    "districtName": "Bageshwar",
    "acNumber": 46,
    "acName": "Kapkot",
    "partNumber": 9,
    "partName": "Bachham",
    "lat": 30.100508050000002,
    "lon": 79.92985657692986
  },
  {
    "partId": 1558,
    "stateCode": "S28",
    "stateName": "Uttarakhand",
    "districtCode": "S2806",
    "districtName": "Bageshwar",
    "acNumber": 46,
    "acName": "Kapkot",
    "partNumber": 10,
    "partName": "Umala",
    "lat": 30.100508050000002,
    "lon": 79.92985657692986
  },
  {
    "partId": 1665,
    "stateCode": "S28",
    "stateName": "Uttarakhand",
    "districtCode": "S2806",
    "districtName": "Bageshwar",
    "acNumber": 46,
    "acName": "Kapkot",
    "partNumber": 11,
    "partName": "Khati",
    "lat": 30.1120935,
    "lon": 79.9400624
  },
  {
    "partId": 1673,
    "stateCode": "S28",
    "stateName": "Uttarakhand",
    "districtCode": "S2806",
    "districtName": "Bageshwar",
    "acNumber": 46,
    "acName": "Kapkot",
    "partNumber": 12,
    "partName": "Karmi (East Part)",
    "lat": 30.100508050000002,
    "lon": 79.92985657692986
  },
  {
    "partId": 1624,
    "stateCode": "S28",
    "stateName": "Uttarakhand",
    "districtCode": "S2806",
    "districtName": "Bageshwar",
    "acNumber": 46,
    "acName": "Kapkot",
    "partNumber": 13,
    "partName": "Karmi (West Part)",
    "lat": 30.100508050000002,
    "lon": 79.92985657692986
  },
  {
    "partId": 1559,
    "stateCode": "S28",
    "stateName": "Uttarakhand",
    "districtCode": "S2806",
    "districtName": "Bageshwar",
    "acNumber": 46,
    "acName": "Kapkot",
    "partNumber": 14,
    "partName": "Saran",
    "lat": 30.0190818,
    "lon": 79.8785663
  },
  {
    "partId": 1625,
    "stateCode": "S28",
    "stateName": "Uttarakhand",
    "districtCode": "S2806",
    "districtName": "Bageshwar",
    "acNumber": 46,
    "acName": "Kapkot",
    "partNumber": 15,
    "partName": "Dobar",
    "lat": 30.100508050000002,
    "lon": 79.92985657692986
  },
  {
    "partId": 1626,
    "stateCode": "S28",
    "stateName": "Uttarakhand",
    "districtCode": "S2806",
    "districtName": "Bageshwar",
    "acNumber": 46,
    "acName": "Kapkot",
    "partNumber": 16,
    "partName": "Baghar (East Part)",
    "lat": 30.100508050000002,
    "lon": 79.92985657692986
  },
  {
    "partId": 1560,
    "stateCode": "S28",
    "stateName": "Uttarakhand",
    "districtCode": "S2806",
    "districtName": "Bageshwar",
    "acNumber": 46,
    "acName": "Kapkot",
    "partNumber": 17,
    "partName": "Dhoktigaon",
    "lat": 30.100508050000002,
    "lon": 79.92985657692986
  },
  {
    "partId": 1674,
    "stateCode": "S28",
    "stateName": "Uttarakhand",
    "districtCode": "S2806",
    "districtName": "Bageshwar",
    "acNumber": 46,
    "acName": "Kapkot",
    "partNumber": 18,
    "partName": "Baghar (West Part)",
    "lat": 30.100508050000002,
    "lon": 79.92985657692986
  },
  {
    "partId": 1627,
    "stateCode": "S28",
    "stateName": "Uttarakhand",
    "districtCode": "S2806",
    "districtName": "Bageshwar",
    "acNumber": 46,
    "acName": "Kapkot",
    "partNumber": 19,
    "partName": "Pethi",
    "lat": 30.100508050000002,
    "lon": 79.92985657692986
  },
  {
    "partId": 1628,
    "stateCode": "S28",
    "stateName": "Uttarakhand",
    "districtCode": "S2806",
    "districtName": "Bageshwar",
    "acNumber": 46,
    "acName": "Kapkot",
    "partNumber": 20,
    "partName": "Dulam",
    "lat": 30.100508050000002,
    "lon": 79.92985657692986
  },
  {
    "partId": 3803,
    "stateCode": "S28",
    "stateName": "Uttarakhand",
    "districtCode": "S2806",
    "districtName": "Bageshwar",
    "acNumber": 46,
    "acName": "Kapkot",
    "partNumber": 21,
    "partName": "Thangdhar",
    "lat": 30.0110738,
    "lon": 79.9045622
  },
  {
    "partId": 1629,
    "stateCode": "S28",
    "stateName": "Uttarakhand",
    "districtCode": "S2806",
    "districtName": "Bageshwar",
    "acNumber": 46,
    "acName": "Kapkot",
    "partNumber": 22,
    "partName": "Sumgarh",
    "lat": 30.100508050000002,
    "lon": 79.92985657692986
  },
  {
    "partId": 1561,
    "stateCode": "S28",
    "stateName": "Uttarakhand",
    "districtCode": "S2806",
    "districtName": "Bageshwar",
    "acNumber": 46,
    "acName": "Kapkot",
    "partNumber": 23,
    "partName": "Saling",
    "lat": 30.100508050000002,
    "lon": 79.92985657692986
  },
  {
    "partId": 1630,
    "stateCode": "S28",
    "stateName": "Uttarakhand",
    "districtCode": "S2806",
    "districtName": "Bageshwar",
    "acNumber": 46,
    "acName": "Kapkot",
    "partNumber": 24,
    "partName": "Gasi",
    "lat": 30.0460274,
    "lon": 79.9905753
  },
  {
    "partId": 1675,
    "stateCode": "S28",
    "stateName": "Uttarakhand",
    "districtCode": "S2806",
    "districtName": "Bageshwar",
    "acNumber": 46,
    "acName": "Kapkot",
    "partNumber": 25,
    "partName": "Loharkhet",
    "lat": 30.03675,
    "lon": 79.9378154
  },
  {
    "partId": 1631,
    "stateCode": "S28",
    "stateName": "Uttarakhand",
    "districtCode": "S2806",
    "districtName": "Bageshwar",
    "acNumber": 46,
    "acName": "Kapkot",
    "partNumber": 26,
    "partName": "Chouda",
    "lat": 30.100508050000002,
    "lon": 79.92985657692986
  },
  {
    "partId": 1632,
    "stateCode": "S28",
    "stateName": "Uttarakhand",
    "districtCode": "S2806",
    "districtName": "Bageshwar",
    "acNumber": 46,
    "acName": "Kapkot",
    "partNumber": 27,
    "partName": "Rikhari",
    "lat": 30.0554097,
    "lon": 79.9679919
  },
  {
    "partId": 1633,
    "stateCode": "S28",
    "stateName": "Uttarakhand",
    "districtCode": "S2806",
    "districtName": "Bageshwar",
    "acNumber": 46,
    "acName": "Kapkot",
    "partNumber": 28,
    "partName": "Supi",
    "lat": 30.0736546,
    "lon": 79.969654
  },
  {
    "partId": 1676,
    "stateCode": "S28",
    "stateName": "Uttarakhand",
    "districtCode": "S2806",
    "districtName": "Bageshwar",
    "acNumber": 46,
    "acName": "Kapkot",
    "partNumber": 29,
    "partName": "Baichham",
    "lat": 30.085412,
    "lon": 79.979305
  },
  {
    "partId": 1666,
    "stateCode": "S28",
    "stateName": "Uttarakhand",
    "districtCode": "S2806",
    "districtName": "Bageshwar",
    "acNumber": 46,
    "acName": "Kapkot",
    "partNumber": 30,
    "partName": "Khalapatta",
    "lat": 30.100508050000002,
    "lon": 79.92985657692986
  },
  {
    "partId": 1634,
    "stateCode": "S28",
    "stateName": "Uttarakhand",
    "districtCode": "S2806",
    "districtName": "Bageshwar",
    "acNumber": 46,
    "acName": "Kapkot",
    "partNumber": 31,
    "partName": "Khaljhuni",
    "lat": 30.100508050000002,
    "lon": 79.92985657692986
  },
  {
    "partId": 1635,
    "stateCode": "S28",
    "stateName": "Uttarakhand",
    "districtCode": "S2806",
    "districtName": "Bageshwar",
    "acNumber": 46,
    "acName": "Kapkot",
    "partNumber": 32,
    "partName": "Lahur",
    "lat": 30.0672462,
    "lon": 80.0001347
  },
  {
    "partId": 1636,
    "stateCode": "S28",
    "stateName": "Uttarakhand",
    "districtCode": "S2806",
    "districtName": "Bageshwar",
    "acNumber": 46,
    "acName": "Kapkot",
    "partNumber": 33,
    "partName": "Gogina",
    "lat": 30.0757784,
    "lon": 80.0766901
  },
  {
    "partId": 1667,
    "stateCode": "S28",
    "stateName": "Uttarakhand",
    "districtCode": "S2806",
    "districtName": "Bageshwar",
    "acNumber": 46,
    "acName": "Kapkot",
    "partNumber": 34,
    "partName": "Keemu",
    "lat": 30.100508050000002,
    "lon": 79.92985657692986
  },
  {
    "partId": 1677,
    "stateCode": "S28",
    "stateName": "Uttarakhand",
    "districtCode": "S2806",
    "districtName": "Bageshwar",
    "acNumber": 46,
    "acName": "Kapkot",
    "partNumber": 35,
    "partName": "Ratirkethi",
    "lat": 30.100508050000002,
    "lon": 79.92985657692986
  },
  {
    "partId": 1734,
    "stateCode": "S28",
    "stateName": "Uttarakhand",
    "districtCode": "S2806",
    "districtName": "Bageshwar",
    "acNumber": 46,
    "acName": "Kapkot",
    "partNumber": 36,
    "partName": "Ratirketi",
    "lat": 30.100508050000002,
    "lon": 79.92985657692986
  },
  {
    "partId": 1637,
    "stateCode": "S28",
    "stateName": "Uttarakhand",
    "districtCode": "S2806",
    "districtName": "Bageshwar",
    "acNumber": 46,
    "acName": "Kapkot",
    "partNumber": 37,
    "partName": "Birwa binola( Hamti kapadi)",
    "lat": 30.100508050000002,
    "lon": 79.92985657692986
  },
  {
    "partId": 1638,
    "stateCode": "S28",
    "stateName": "Uttarakhand",
    "districtCode": "S2806",
    "districtName": "Bageshwar",
    "acNumber": 46,
    "acName": "Kapkot",
    "partNumber": 38,
    "partName": "Leeti",
    "lat": 30.100508050000002,
    "lon": 79.92985657692986
  },
  {
    "partId": 1678,
    "stateCode": "S28",
    "stateName": "Uttarakhand",
    "districtCode": "S2806",
    "districtName": "Bageshwar",
    "acNumber": 46,
    "acName": "Kapkot",
    "partNumber": 39,
    "partName": "Leeti",
    "lat": 30.100508050000002,
    "lon": 79.92985657692986
  },
  {
    "partId": 1639,
    "stateCode": "S28",
    "stateName": "Uttarakhand",
    "districtCode": "S2806",
    "districtName": "Bageshwar",
    "acNumber": 46,
    "acName": "Kapkot",
    "partNumber": 40,
    "partName": "Shama",
    "lat": 29.9744739,
    "lon": 80.0262311
  },
  {
    "partId": 1640,
    "stateCode": "S28",
    "stateName": "Uttarakhand",
    "districtCode": "S2806",
    "districtName": "Bageshwar",
    "acNumber": 46,
    "acName": "Kapkot",
    "partNumber": 41,
    "partName": "Shama Panyali",
    "lat": 30.100508050000002,
    "lon": 79.92985657692986
  },
  {
    "partId": 1562,
    "stateCode": "S28",
    "stateName": "Uttarakhand",
    "districtCode": "S2806",
    "districtName": "Bageshwar",
    "acNumber": 46,
    "acName": "Kapkot",
    "partNumber": 42,
    "partName": "Nani Panyali",
    "lat": 30.026893270000002,
    "lon": 79.92005611331713
  },
  {
    "partId": 1679,
    "stateCode": "S28",
    "stateName": "Uttarakhand",
    "districtCode": "S2806",
    "districtName": "Bageshwar",
    "acNumber": 46,
    "acName": "Kapkot",
    "partNumber": 43,
    "partName": "Harsingiyabagar",
    "lat": 30.100508050000002,
    "lon": 79.92985657692986
  },
  {
    "partId": 1668,
    "stateCode": "S28",
    "stateName": "Uttarakhand",
    "districtCode": "S2806",
    "districtName": "Bageshwar",
    "acNumber": 46,
    "acName": "Kapkot",
    "partNumber": 44,
    "partName": "Seeri",
    "lat": 30.100508050000002,
    "lon": 79.92985657692986
  },
  {
    "partId": 1641,
    "stateCode": "S28",
    "stateName": "Uttarakhand",
    "districtCode": "S2806",
    "districtName": "Bageshwar",
    "acNumber": 46,
    "acName": "Kapkot",
    "partNumber": 45,
    "partName": "Baret",
    "lat": 29.8998146,
    "lon": 79.5979643
  },
  {
    "partId": 1669,
    "stateCode": "S28",
    "stateName": "Uttarakhand",
    "districtCode": "S2806",
    "districtName": "Bageshwar",
    "acNumber": 46,
    "acName": "Kapkot",
    "partNumber": 46,
    "partName": "Nachati",
    "lat": 30.100508050000002,
    "lon": 79.92985657692986
  },
  {
    "partId": 1642,
    "stateCode": "S28",
    "stateName": "Uttarakhand",
    "districtCode": "S2806",
    "districtName": "Bageshwar",
    "acNumber": 46,
    "acName": "Kapkot",
    "partNumber": 47,
    "partName": "Ramari",
    "lat": 29.9625523,
    "lon": 80.0923993
  },
  {
    "partId": 1643,
    "stateCode": "S28",
    "stateName": "Uttarakhand",
    "districtCode": "S2806",
    "districtName": "Bageshwar",
    "acNumber": 46,
    "acName": "Kapkot",
    "partNumber": 48,
    "partName": "Mahargarhi (Namtichetabagarh)",
    "lat": 30.100508050000002,
    "lon": 79.92985657692986
  },
  {
    "partId": 1563,
    "stateCode": "S28",
    "stateName": "Uttarakhand",
    "districtCode": "S2806",
    "districtName": "Bageshwar",
    "acNumber": 46,
    "acName": "Kapkot",
    "partNumber": 49,
    "partName": "Kanouli",
    "lat": 30.100508050000002,
    "lon": 79.92985657692986
  },
  {
    "partId": 1644,
    "stateCode": "S28",
    "stateName": "Uttarakhand",
    "districtCode": "S2806",
    "districtName": "Bageshwar",
    "acNumber": 46,
    "acName": "Kapkot",
    "partNumber": 50,
    "partName": "Kheti",
    "lat": 29.9098311,
    "lon": 80.1337624
  },
  {
    "partId": 1645,
    "stateCode": "S28",
    "stateName": "Uttarakhand",
    "districtCode": "S2806",
    "districtName": "Bageshwar",
    "acNumber": 46,
    "acName": "Kapkot",
    "partNumber": 51,
    "partName": "Kalapairkapri",
    "lat": 30.100508050000002,
    "lon": 79.92985657692986
  },
  {
    "partId": 1646,
    "stateCode": "S28",
    "stateName": "Uttarakhand",
    "districtCode": "S2806",
    "districtName": "Bageshwar",
    "acNumber": 46,
    "acName": "Kapkot",
    "partNumber": 52,
    "partName": "Lathi",
    "lat": 29.9279177,
    "lon": 80.0689655
  },
  {
    "partId": 1647,
    "stateCode": "S28",
    "stateName": "Uttarakhand",
    "districtCode": "S2806",
    "districtName": "Bageshwar",
    "acNumber": 46,
    "acName": "Kapkot",
    "partNumber": 53,
    "partName": "Majkhet",
    "lat": 29.9409459,
    "lon": 80.0348304
  },
  {
    "partId": 1648,
    "stateCode": "S28",
    "stateName": "Uttarakhand",
    "districtCode": "S2806",
    "districtName": "Bageshwar",
    "acNumber": 46,
    "acName": "Kapkot",
    "partNumber": 54,
    "partName": "Chucher",
    "lat": 30.100508050000002,
    "lon": 79.92985657692986
  },
  {
    "partId": 1564,
    "stateCode": "S28",
    "stateName": "Uttarakhand",
    "districtCode": "S2806",
    "districtName": "Bageshwar",
    "acNumber": 46,
    "acName": "Kapkot",
    "partNumber": 55,
    "partName": "Naikana",
    "lat": 29.9571515,
    "lon": 80.0354969
  },
  {
    "partId": 1649,
    "stateCode": "S28",
    "stateName": "Uttarakhand",
    "districtCode": "S2806",
    "districtName": "Bageshwar",
    "acNumber": 46,
    "acName": "Kapkot",
    "partNumber": 56,
    "partName": "Sumalgaon",
    "lat": 30.100508050000002,
    "lon": 79.92985657692986
  },
  {
    "partId": 1650,
    "stateCode": "S28",
    "stateName": "Uttarakhand",
    "districtCode": "S2806",
    "districtName": "Bageshwar",
    "acNumber": 46,
    "acName": "Kapkot",
    "partNumber": 57,
    "partName": "Bhanar",
    "lat": 29.9516624,
    "lon": 80.0347406
  },
  {
    "partId": 1651,
    "stateCode": "S28",
    "stateName": "Uttarakhand",
    "districtCode": "S2806",
    "districtName": "Bageshwar",
    "acNumber": 46,
    "acName": "Kapkot",
    "partNumber": 58,
    "partName": "Jhopara",
    "lat": 30.100508050000002,
    "lon": 79.92985657692986
  },
  {
    "partId": 1652,
    "stateCode": "S28",
    "stateName": "Uttarakhand",
    "districtCode": "S2806",
    "districtName": "Bageshwar",
    "acNumber": 46,
    "acName": "Kapkot",
    "partNumber": 59,
    "partName": "Farsali Walli",
    "lat": 30.100508050000002,
    "lon": 79.92985657692986
  },
  {
    "partId": 1565,
    "stateCode": "S28",
    "stateName": "Uttarakhand",
    "districtCode": "S2806",
    "districtName": "Bageshwar",
    "acNumber": 46,
    "acName": "Kapkot",
    "partNumber": 60,
    "partName": "Malla Desh",
    "lat": 30.100508050000002,
    "lon": 79.92985657692986
  },
  {
    "partId": 1653,
    "stateCode": "S28",
    "stateName": "Uttarakhand",
    "districtCode": "S2806",
    "districtName": "Bageshwar",
    "acNumber": 46,
    "acName": "Kapkot",
    "partNumber": 61,
    "partName": "Farsali Palli",
    "lat": 30.026893270000002,
    "lon": 79.92005611331713
  },
  {
    "partId": 1654,
    "stateCode": "S28",
    "stateName": "Uttarakhand",
    "districtCode": "S2806",
    "districtName": "Bageshwar",
    "acNumber": 46,
    "acName": "Kapkot",
    "partNumber": 62,
    "partName": "Guler Gurchhutti",
    "lat": 30.100508050000002,
    "lon": 79.92985657692986
  },
  {
    "partId": 1735,
    "stateCode": "S28",
    "stateName": "Uttarakhand",
    "districtCode": "S2806",
    "districtName": "Bageshwar",
    "acNumber": 46,
    "acName": "Kapkot",
    "partNumber": 63,
    "partName": "Kharkkanatoli Navin",
    "lat": 30.100508050000002,
    "lon": 79.92985657692986
  },
  {
    "partId": 1655,
    "stateCode": "S28",
    "stateName": "Uttarakhand",
    "districtCode": "S2806",
    "districtName": "Bageshwar",
    "acNumber": 46,
    "acName": "Kapkot",
    "partNumber": 64,
    "partName": "Gulam",
    "lat": 30.100508050000002,
    "lon": 79.92985657692986
  },
  {
    "partId": 1670,
    "stateCode": "S28",
    "stateName": "Uttarakhand",
    "districtCode": "S2806",
    "districtName": "Bageshwar",
    "acNumber": 46,
    "acName": "Kapkot",
    "partNumber": 65,
    "partName": "Nargara",
    "lat": 30.100508050000002,
    "lon": 79.92985657692986
  },
  {
    "partId": 1566,
    "stateCode": "S28",
    "stateName": "Uttarakhand",
    "districtCode": "S2806",
    "districtName": "Bageshwar",
    "acNumber": 46,
    "acName": "Kapkot",
    "partNumber": 66,
    "partName": "Bhaisudikuter",
    "lat": 30.100508050000002,
    "lon": 79.92985657692986
  },
  {
    "partId": 1656,
    "stateCode": "S28",
    "stateName": "Uttarakhand",
    "districtCode": "S2806",
    "districtName": "Bageshwar",
    "acNumber": 46,
    "acName": "Kapkot",
    "partNumber": 67,
    "partName": "Bhayun",
    "lat": 29.9421615,
    "lon": 79.9008178
  },
  {
    "partId": 1657,
    "stateCode": "S28",
    "stateName": "Uttarakhand",
    "districtCode": "S2806",
    "districtName": "Bageshwar",
    "acNumber": 46,
    "acName": "Kapkot",
    "partNumber": 68,
    "partName": "Bamsera (Khaibagar)",
    "lat": 30.100508050000002,
    "lon": 79.92985657692986
  },
  {
    "partId": 1658,
    "stateCode": "S28",
    "stateName": "Uttarakhand",
    "districtCode": "S2806",
    "districtName": "Bageshwar",
    "acNumber": 46,
    "acName": "Kapkot",
    "partNumber": 69,
    "partName": "Aithan",
    "lat": 30.100508050000002,
    "lon": 79.92985657692986
  },
  {
    "partId": 1659,
    "stateCode": "S28",
    "stateName": "Uttarakhand",
    "districtCode": "S2806",
    "districtName": "Bageshwar",
    "acNumber": 46,
    "acName": "Kapkot",
    "partNumber": 70,
    "partName": "Fulwari",
    "lat": 30.026893270000002,
    "lon": 79.92005611331713
  },
  {
    "partId": 1726,
    "stateCode": "S28",
    "stateName": "Uttarakhand",
    "districtCode": "S2806",
    "districtName": "Bageshwar",
    "acNumber": 46,
    "acName": "Kapkot",
    "partNumber": 71,
    "partName": "Toli",
    "lat": 30.0100611,
    "lon": 79.8456609
  },
  {
    "partId": 1736,
    "stateCode": "S28",
    "stateName": "Uttarakhand",
    "districtCode": "S2806",
    "districtName": "Bageshwar",
    "acNumber": 46,
    "acName": "Kapkot",
    "partNumber": 72,
    "partName": "Sulmati",
    "lat": 29.995381,
    "lon": 79.8691034
  },
  {
    "partId": 1727,
    "stateCode": "S28",
    "stateName": "Uttarakhand",
    "districtCode": "S2806",
    "districtName": "Bageshwar",
    "acNumber": 46,
    "acName": "Kapkot",
    "partNumber": 73,
    "partName": "Pothing (East Part)",
    "lat": 30.100508050000002,
    "lon": 79.92985657692986
  },
  {
    "partId": 1728,
    "stateCode": "S28",
    "stateName": "Uttarakhand",
    "districtCode": "S2806",
    "districtName": "Bageshwar",
    "acNumber": 46,
    "acName": "Kapkot",
    "partNumber": 74,
    "partName": "Pothing (West Part)",
    "lat": 30.100508050000002,
    "lon": 79.92985657692986
  },
  {
    "partId": 1729,
    "stateCode": "S28",
    "stateName": "Uttarakhand",
    "districtCode": "S2806",
    "districtName": "Bageshwar",
    "acNumber": 46,
    "acName": "Kapkot",
    "partNumber": 75,
    "partName": "ShobhaKund Pothing",
    "lat": 30.026893270000002,
    "lon": 79.92005611331713
  },
  {
    "partId": 1730,
    "stateCode": "S28",
    "stateName": "Uttarakhand",
    "districtCode": "S2806",
    "districtName": "Bageshwar",
    "acNumber": 46,
    "acName": "Kapkot",
    "partNumber": 76,
    "partName": "Bithi Panyati",
    "lat": 30.100508050000002,
    "lon": 79.92985657692986
  },
  {
    "partId": 1731,
    "stateCode": "S28",
    "stateName": "Uttarakhand",
    "districtCode": "S2806",
    "districtName": "Bageshwar",
    "acNumber": 46,
    "acName": "Kapkot",
    "partNumber": 77,
    "partName": "Kapkot (East Part)",
    "lat": 30.100508050000002,
    "lon": 79.92985657692986
  },
  {
    "partId": 1732,
    "stateCode": "S28",
    "stateName": "Uttarakhand",
    "districtCode": "S2806",
    "districtName": "Bageshwar",
    "acNumber": 46,
    "acName": "Kapkot",
    "partNumber": 78,
    "partName": "Kapkot (West Part)",
    "lat": 30.100508050000002,
    "lon": 79.92985657692986
  },
  {
    "partId": 1701,
    "stateCode": "S28",
    "stateName": "Uttarakhand",
    "districtCode": "S2806",
    "districtName": "Bageshwar",
    "acNumber": 46,
    "acName": "Kapkot",
    "partNumber": 79,
    "partName": "Utroura",
    "lat": 30.100508050000002,
    "lon": 79.92985657692986
  },
  {
    "partId": 1737,
    "stateCode": "S28",
    "stateName": "Uttarakhand",
    "districtCode": "S2806",
    "districtName": "Bageshwar",
    "acNumber": 46,
    "acName": "Kapkot",
    "partNumber": 80,
    "partName": "Poling",
    "lat": 30.100508050000002,
    "lon": 79.92985657692986
  },
  {
    "partId": 1702,
    "stateCode": "S28",
    "stateName": "Uttarakhand",
    "districtCode": "S2806",
    "districtName": "Bageshwar",
    "acNumber": 46,
    "acName": "Kapkot",
    "partNumber": 81,
    "partName": "Lili",
    "lat": 29.9443369,
    "lon": 79.8617649
  },
  {
    "partId": 1703,
    "stateCode": "S28",
    "stateName": "Uttarakhand",
    "districtCode": "S2806",
    "districtName": "Bageshwar",
    "acNumber": 46,
    "acName": "Kapkot",
    "partNumber": 82,
    "partName": "Chalkana",
    "lat": 29.9238636,
    "lon": 79.8266387
  },
  {
    "partId": 1704,
    "stateCode": "S28",
    "stateName": "Uttarakhand",
    "districtCode": "S2806",
    "districtName": "Bageshwar",
    "acNumber": 46,
    "acName": "Kapkot",
    "partNumber": 83,
    "partName": "Purkuni",
    "lat": 30.100508050000002,
    "lon": 79.92985657692986
  },
  {
    "partId": 1705,
    "stateCode": "S28",
    "stateName": "Uttarakhand",
    "districtCode": "S2806",
    "districtName": "Bageshwar",
    "acNumber": 46,
    "acName": "Kapkot",
    "partNumber": 84,
    "partName": "Jagthana",
    "lat": 29.9676152,
    "lon": 79.7815495
  },
  {
    "partId": 1706,
    "stateCode": "S28",
    "stateName": "Uttarakhand",
    "districtCode": "S2806",
    "districtName": "Bageshwar",
    "acNumber": 46,
    "acName": "Kapkot",
    "partNumber": 85,
    "partName": "Baisani",
    "lat": 29.9090313,
    "lon": 79.6921956
  },
  {
    "partId": 1738,
    "stateCode": "S28",
    "stateName": "Uttarakhand",
    "districtCode": "S2806",
    "districtName": "Bageshwar",
    "acNumber": 46,
    "acName": "Kapkot",
    "partNumber": 86,
    "partName": "Pausari",
    "lat": 30.100508050000002,
    "lon": 79.92985657692986
  },
  {
    "partId": 1707,
    "stateCode": "S28",
    "stateName": "Uttarakhand",
    "districtCode": "S2806",
    "districtName": "Bageshwar",
    "acNumber": 46,
    "acName": "Kapkot",
    "partNumber": 87,
    "partName": "Kanyalikot",
    "lat": 30.100508050000002,
    "lon": 79.92985657692986
  },
  {
    "partId": 1708,
    "stateCode": "S28",
    "stateName": "Uttarakhand",
    "districtCode": "S2806",
    "districtName": "Bageshwar",
    "acNumber": 46,
    "acName": "Kapkot",
    "partNumber": 88,
    "partName": "Chachai",
    "lat": 29.9246261,
    "lon": 79.7928428
  },
  {
    "partId": 1709,
    "stateCode": "S28",
    "stateName": "Uttarakhand",
    "districtCode": "S2806",
    "districtName": "Bageshwar",
    "acNumber": 46,
    "acName": "Kapkot",
    "partNumber": 89,
    "partName": "Harsila",
    "lat": 30.026893270000002,
    "lon": 79.92005611331713
  },
  {
    "partId": 1671,
    "stateCode": "S28",
    "stateName": "Uttarakhand",
    "districtCode": "S2806",
    "districtName": "Bageshwar",
    "acNumber": 46,
    "acName": "Kapkot",
    "partNumber": 90,
    "partName": "Gairkhet",
    "lat": 29.9185819,
    "lon": 79.8413157
  },
  {
    "partId": 1710,
    "stateCode": "S28",
    "stateName": "Uttarakhand",
    "districtCode": "S2806",
    "districtName": "Bageshwar",
    "acNumber": 46,
    "acName": "Kapkot",
    "partNumber": 91,
    "partName": "Golana",
    "lat": 30.100508050000002,
    "lon": 79.92985657692986
  },
  {
    "partId": 1660,
    "stateCode": "S28",
    "stateName": "Uttarakhand",
    "districtCode": "S2806",
    "districtName": "Bageshwar",
    "acNumber": 46,
    "acName": "Kapkot",
    "partNumber": 92,
    "partName": "Ason",
    "lat": 29.91989,
    "lon": 79.87885
  },
  {
    "partId": 1680,
    "stateCode": "S28",
    "stateName": "Uttarakhand",
    "districtCode": "S2806",
    "districtName": "Bageshwar",
    "acNumber": 46,
    "acName": "Kapkot",
    "partNumber": 93,
    "partName": "Baskuna",
    "lat": 29.9118863,
    "lon": 79.8987043
  },
  {
    "partId": 1661,
    "stateCode": "S28",
    "stateName": "Uttarakhand",
    "districtCode": "S2806",
    "districtName": "Bageshwar",
    "acNumber": 46,
    "acName": "Kapkot",
    "partNumber": 94,
    "partName": "Gadera",
    "lat": 29.8753133,
    "lon": 79.9341202
  },
  {
    "partId": 1567,
    "stateCode": "S28",
    "stateName": "Uttarakhand",
    "districtCode": "S2806",
    "districtName": "Bageshwar",
    "acNumber": 46,
    "acName": "Kapkot",
    "partNumber": 95,
    "partName": "Jalekh",
    "lat": 29.9344634,
    "lon": 79.9119544
  },
  {
    "partId": 1662,
    "stateCode": "S28",
    "stateName": "Uttarakhand",
    "districtCode": "S2806",
    "districtName": "Bageshwar",
    "acNumber": 46,
    "acName": "Kapkot",
    "partNumber": 96,
    "partName": "Pankad",
    "lat": 30.100508050000002,
    "lon": 79.92985657692986
  },
  {
    "partId": 1663,
    "stateCode": "S28",
    "stateName": "Uttarakhand",
    "districtCode": "S2806",
    "districtName": "Bageshwar",
    "acNumber": 46,
    "acName": "Kapkot",
    "partNumber": 97,
    "partName": "Baira Majhera",
    "lat": 30.100508050000002,
    "lon": 79.92985657692986
  },
  {
    "partId": 1681,
    "stateCode": "S28",
    "stateName": "Uttarakhand",
    "districtCode": "S2806",
    "districtName": "Bageshwar",
    "acNumber": 46,
    "acName": "Kapkot",
    "partNumber": 98,
    "partName": "Udiyar",
    "lat": 30.100508050000002,
    "lon": 79.92985657692986
  },
  {
    "partId": 1664,
    "stateCode": "S28",
    "stateName": "Uttarakhand",
    "districtCode": "S2806",
    "districtName": "Bageshwar",
    "acNumber": 46,
    "acName": "Kapkot",
    "partNumber": 99,
    "partName": "Papoli",
    "lat": 29.9080176,
    "lon": 79.9423599
  },
  {
    "partId": 1571,
    "stateCode": "S28",
    "stateName": "Uttarakhand",
    "districtCode": "S2806",
    "districtName": "Bageshwar",
    "acNumber": 46,
    "acName": "Kapkot",
    "partNumber": 100,
    "partName": "Jarati",
    "lat": 30.026893270000002,
    "lon": 79.92005611331713
  },
  {
    "partId": 1607,
    "stateCode": "S28",
    "stateName": "Uttarakhand",
    "districtCode": "S2806",
    "districtName": "Bageshwar",
    "acNumber": 46,
    "acName": "Kapkot",
    "partNumber": 101,
    "partName": "Rangdev",
    "lat": 30.100508050000002,
    "lon": 79.92985657692986
  },
  {
    "partId": 1682,
    "stateCode": "S28",
    "stateName": "Uttarakhand",
    "districtCode": "S2806",
    "districtName": "Bageshwar",
    "acNumber": 46,
    "acName": "Kapkot",
    "partNumber": 102,
    "partName": "Kidai",
    "lat": 30.100508050000002,
    "lon": 79.92985657692986
  },
  {
    "partId": 1608,
    "stateCode": "S28",
    "stateName": "Uttarakhand",
    "districtCode": "S2806",
    "districtName": "Bageshwar",
    "acNumber": 46,
    "acName": "Kapkot",
    "partNumber": 103,
    "partName": "Pachar",
    "lat": 29.88693,
    "lon": 79.96125
  },
  {
    "partId": 1609,
    "stateCode": "S28",
    "stateName": "Uttarakhand",
    "districtCode": "S2806",
    "districtName": "Bageshwar",
    "acNumber": 46,
    "acName": "Kapkot",
    "partNumber": 104,
    "partName": "Syankote",
    "lat": 30.100508050000002,
    "lon": 79.92985657692986
  },
  {
    "partId": 1711,
    "stateCode": "S28",
    "stateName": "Uttarakhand",
    "districtCode": "S2806",
    "districtName": "Bageshwar",
    "acNumber": 46,
    "acName": "Kapkot",
    "partNumber": 105,
    "partName": "Jalmani",
    "lat": 29.8792682,
    "lon": 79.9747553
  },
  {
    "partId": 1683,
    "stateCode": "S28",
    "stateName": "Uttarakhand",
    "districtCode": "S2806",
    "districtName": "Bageshwar",
    "acNumber": 46,
    "acName": "Kapkot",
    "partNumber": 106,
    "partName": "Horali",
    "lat": 29.8799819,
    "lon": 79.9407281
  },
  {
    "partId": 1610,
    "stateCode": "S28",
    "stateName": "Uttarakhand",
    "districtCode": "S2806",
    "districtName": "Bageshwar",
    "acNumber": 46,
    "acName": "Kapkot",
    "partNumber": 107,
    "partName": "Saneti",
    "lat": 29.9018701,
    "lon": 79.9738169
  },
  {
    "partId": 1568,
    "stateCode": "S28",
    "stateName": "Uttarakhand",
    "districtCode": "S2806",
    "districtName": "Bageshwar",
    "acNumber": 46,
    "acName": "Kapkot",
    "partNumber": 108,
    "partName": "Vaikodi",
    "lat": 30.100508050000002,
    "lon": 79.92985657692986
  },
  {
    "partId": 1572,
    "stateCode": "S28",
    "stateName": "Uttarakhand",
    "districtCode": "S2806",
    "districtName": "Bageshwar",
    "acNumber": 46,
    "acName": "Kapkot",
    "partNumber": 109,
    "partName": "Udhyamsthal",
    "lat": 30.100508050000002,
    "lon": 79.92985657692986
  },
  {
    "partId": 1798,
    "stateCode": "S28",
    "stateName": "Uttarakhand",
    "districtCode": "S2806",
    "districtName": "Bageshwar",
    "acNumber": 46,
    "acName": "Kapkot",
    "partNumber": 110,
    "partName": "Wadyura",
    "lat": 30.100508050000002,
    "lon": 79.92985657692986
  },
  {
    "partId": 1573,
    "stateCode": "S28",
    "stateName": "Uttarakhand",
    "districtCode": "S2806",
    "districtName": "Bageshwar",
    "acNumber": 46,
    "acName": "Kapkot",
    "partNumber": 111,
    "partName": "Sangar",
    "lat": 30.100508050000002,
    "lon": 79.92985657692986
  },
  {
    "partId": 1684,
    "stateCode": "S28",
    "stateName": "Uttarakhand",
    "districtCode": "S2806",
    "districtName": "Bageshwar",
    "acNumber": 46,
    "acName": "Kapkot",
    "partNumber": 112,
    "partName": "Wasti",
    "lat": 30.100508050000002,
    "lon": 79.92985657692986
  },
  {
    "partId": 1574,
    "stateCode": "S28",
    "stateName": "Uttarakhand",
    "districtCode": "S2806",
    "districtName": "Bageshwar",
    "acNumber": 46,
    "acName": "Kapkot",
    "partNumber": 113,
    "partName": "Simgari",
    "lat": 29.8906715,
    "lon": 80.0085139
  },
  {
    "partId": 1712,
    "stateCode": "S28",
    "stateName": "Uttarakhand",
    "districtCode": "S2806",
    "districtName": "Bageshwar",
    "acNumber": 46,
    "acName": "Kapkot",
    "partNumber": 114,
    "partName": "Majhera",
    "lat": 29.8981405,
    "lon": 79.8836732
  },
  {
    "partId": 1575,
    "stateCode": "S28",
    "stateName": "Uttarakhand",
    "districtCode": "S2806",
    "districtName": "Bageshwar",
    "acNumber": 46,
    "acName": "Kapkot",
    "partNumber": 115,
    "partName": "Patal",
    "lat": 30.026893270000002,
    "lon": 79.92005611331713
  },
  {
    "partId": 1685,
    "stateCode": "S28",
    "stateName": "Uttarakhand",
    "districtCode": "S2806",
    "districtName": "Bageshwar",
    "acNumber": 46,
    "acName": "Kapkot",
    "partNumber": 116,
    "partName": "Mahroodi",
    "lat": 30.100508050000002,
    "lon": 79.92985657692986
  },
  {
    "partId": 1741,
    "stateCode": "S28",
    "stateName": "Uttarakhand",
    "districtCode": "S2806",
    "districtName": "Bageshwar",
    "acNumber": 46,
    "acName": "Kapkot",
    "partNumber": 117,
    "partName": "Dosada",
    "lat": 30.100508050000002,
    "lon": 79.92985657692986
  },
  {
    "partId": 1576,
    "stateCode": "S28",
    "stateName": "Uttarakhand",
    "districtCode": "S2806",
    "districtName": "Bageshwar",
    "acNumber": 46,
    "acName": "Kapkot",
    "partNumber": 118,
    "partName": "Bhantola",
    "lat": 29.8626789,
    "lon": 79.9528634
  },
  {
    "partId": 1577,
    "stateCode": "S28",
    "stateName": "Uttarakhand",
    "districtCode": "S2806",
    "districtName": "Bageshwar",
    "acNumber": 46,
    "acName": "Kapkot",
    "partNumber": 119,
    "partName": "Jhankara",
    "lat": 30.100508050000002,
    "lon": 79.92985657692986
  },
  {
    "partId": 1578,
    "stateCode": "S28",
    "stateName": "Uttarakhand",
    "districtCode": "S2806",
    "districtName": "Bageshwar",
    "acNumber": 46,
    "acName": "Kapkot",
    "partNumber": 120,
    "partName": "Jakhani",
    "lat": 30.100508050000002,
    "lon": 79.92985657692986
  },
  {
    "partId": 1686,
    "stateCode": "S28",
    "stateName": "Uttarakhand",
    "districtCode": "S2806",
    "districtName": "Bageshwar",
    "acNumber": 46,
    "acName": "Kapkot",
    "partNumber": 121,
    "partName": "Malsoona",
    "lat": 30.100508050000002,
    "lon": 79.92985657692986
  },
  {
    "partId": 1713,
    "stateCode": "S28",
    "stateName": "Uttarakhand",
    "districtCode": "S2806",
    "districtName": "Bageshwar",
    "acNumber": 46,
    "acName": "Kapkot",
    "partNumber": 122,
    "partName": "Bhaisyuri",
    "lat": 30.100508050000002,
    "lon": 79.92985657692986
  },
  {
    "partId": 1569,
    "stateCode": "S28",
    "stateName": "Uttarakhand",
    "districtCode": "S2806",
    "districtName": "Bageshwar",
    "acNumber": 46,
    "acName": "Kapkot",
    "partNumber": 123,
    "partName": "Taknar",
    "lat": 29.82814015,
    "lon": 79.9842907659208
  },
  {
    "partId": 1579,
    "stateCode": "S28",
    "stateName": "Uttarakhand",
    "districtCode": "S2806",
    "districtName": "Bageshwar",
    "acNumber": 46,
    "acName": "Kapkot",
    "partNumber": 124,
    "partName": "Kameri devi",
    "lat": 29.8430947,
    "lon": 79.9639087
  },
  {
    "partId": 1714,
    "stateCode": "S28",
    "stateName": "Uttarakhand",
    "districtCode": "S2806",
    "districtName": "Bageshwar",
    "acNumber": 46,
    "acName": "Kapkot",
    "partNumber": 125,
    "partName": "Thala",
    "lat": 29.8333103,
    "lon": 79.9533462
  },
  {
    "partId": 1580,
    "stateCode": "S28",
    "stateName": "Uttarakhand",
    "districtCode": "S2806",
    "districtName": "Bageshwar",
    "acNumber": 46,
    "acName": "Kapkot",
    "partNumber": 126,
    "partName": "Khantoli",
    "lat": 29.8294292,
    "lon": 79.9281764
  },
  {
    "partId": 1687,
    "stateCode": "S28",
    "stateName": "Uttarakhand",
    "districtCode": "S2806",
    "districtName": "Bageshwar",
    "acNumber": 46,
    "acName": "Kapkot",
    "partNumber": 127,
    "partName": "Aagar",
    "lat": 30.100508050000002,
    "lon": 79.92985657692986
  },
  {
    "partId": 1581,
    "stateCode": "S28",
    "stateName": "Uttarakhand",
    "districtCode": "S2806",
    "districtName": "Bageshwar",
    "acNumber": 46,
    "acName": "Kapkot",
    "partNumber": 128,
    "partName": "Dhapolasera",
    "lat": 29.81949325,
    "lon": 79.9158325224908
  },
  {
    "partId": 1582,
    "stateCode": "S28",
    "stateName": "Uttarakhand",
    "districtCode": "S2806",
    "districtName": "Bageshwar",
    "acNumber": 46,
    "acName": "Kapkot",
    "partNumber": 129,
    "partName": "Chantola",
    "lat": 30.100508050000002,
    "lon": 79.92985657692986
  },
  {
    "partId": 1688,
    "stateCode": "S28",
    "stateName": "Uttarakhand",
    "districtCode": "S2806",
    "districtName": "Bageshwar",
    "acNumber": 46,
    "acName": "Kapkot",
    "partNumber": 130,
    "partName": "Devtoli",
    "lat": 30.2873106,
    "lon": 79.8502492
  },
  {
    "partId": 1739,
    "stateCode": "S28",
    "stateName": "Uttarakhand",
    "districtCode": "S2806",
    "districtName": "Bageshwar",
    "acNumber": 46,
    "acName": "Kapkot",
    "partNumber": 131,
    "partName": "Thanga",
    "lat": 30.100508050000002,
    "lon": 79.92985657692986
  },
  {
    "partId": 1583,
    "stateCode": "S28",
    "stateName": "Uttarakhand",
    "districtCode": "S2806",
    "districtName": "Bageshwar",
    "acNumber": 46,
    "acName": "Kapkot",
    "partNumber": 132,
    "partName": "Dharimadhya",
    "lat": 30.100508050000002,
    "lon": 79.92985657692986
  },
  {
    "partId": 1715,
    "stateCode": "S28",
    "stateName": "Uttarakhand",
    "districtCode": "S2806",
    "districtName": "Bageshwar",
    "acNumber": 46,
    "acName": "Kapkot",
    "partNumber": 133,
    "partName": "Rawatsera",
    "lat": 29.7793388,
    "lon": 79.976718379322
  },
  {
    "partId": 1584,
    "stateCode": "S28",
    "stateName": "Uttarakhand",
    "districtCode": "S2806",
    "districtName": "Bageshwar",
    "acNumber": 46,
    "acName": "Kapkot",
    "partNumber": 134,
    "partName": "Bheta",
    "lat": 29.8863089,
    "lon": 79.6032429
  },
  {
    "partId": 1689,
    "stateCode": "S28",
    "stateName": "Uttarakhand",
    "districtCode": "S2806",
    "districtName": "Bageshwar",
    "acNumber": 46,
    "acName": "Kapkot",
    "partNumber": 135,
    "partName": "Rawatsera",
    "lat": 29.7793388,
    "lon": 79.976718379322
  },
  {
    "partId": 1716,
    "stateCode": "S28",
    "stateName": "Uttarakhand",
    "districtCode": "S2806",
    "districtName": "Bageshwar",
    "acNumber": 46,
    "acName": "Kapkot",
    "partNumber": 136,
    "partName": "Paithan",
    "lat": 29.78661075,
    "lon": 79.97909317098174
  },
  {
    "partId": 1585,
    "stateCode": "S28",
    "stateName": "Uttarakhand",
    "districtCode": "S2806",
    "districtName": "Bageshwar",
    "acNumber": 46,
    "acName": "Kapkot",
    "partNumber": 137,
    "partName": "Bheta",
    "lat": 29.8863089,
    "lon": 79.6032429
  },
  {
    "partId": 1586,
    "stateCode": "S28",
    "stateName": "Uttarakhand",
    "districtCode": "S2806",
    "districtName": "Bageshwar",
    "acNumber": 46,
    "acName": "Kapkot",
    "partNumber": 138,
    "partName": "Khatigaon",
    "lat": 29.7960567,
    "lon": 79.9860477
  },
  {
    "partId": 1690,
    "stateCode": "S28",
    "stateName": "Uttarakhand",
    "districtCode": "S2806",
    "districtName": "Bageshwar",
    "acNumber": 46,
    "acName": "Kapkot",
    "partNumber": 139,
    "partName": "Banegaon",
    "lat": 29.80028365,
    "lon": 79.96085268319655
  },
  {
    "partId": 1587,
    "stateCode": "S28",
    "stateName": "Uttarakhand",
    "districtCode": "S2806",
    "districtName": "Bageshwar",
    "acNumber": 46,
    "acName": "Kapkot",
    "partNumber": 140,
    "partName": "Saniudiyar (North Part)",
    "lat": 30.100508050000002,
    "lon": 79.92985657692986
  },
  {
    "partId": 1691,
    "stateCode": "S28",
    "stateName": "Uttarakhand",
    "districtCode": "S2806",
    "districtName": "Bageshwar",
    "acNumber": 46,
    "acName": "Kapkot",
    "partNumber": 141,
    "partName": "Saniudiyar (South Part)",
    "lat": 30.100508050000002,
    "lon": 79.92985657692986
  },