[
  {
    "partId": 4342,
    "stateCode": "S28",
    "stateName": "Uttarakhand",
    "districtCode": "S2812",
    "districtName": "Pauri Garhwal",
    "acNumber": 39,
    "acName": "Chaubattakhal",
    "partNumber": 1,
    "partName": "Jaintoli Talli",
    "lat": 29.95697,
    "lon": 78.87772
  },
  {
    "partId": 4343,
    "stateCode": "S28",
    "stateName": "Uttarakhand",
    "districtCode": "S2812",
    "districtName": "Pauri Garhwal",
    "acNumber": 39,
    "acName": "Chaubattakhal",
    "partNumber": 2,
    "partName": "Patisain",
    "lat": 29.98169,
    "lon": 78.78022
  },
  {
    "partId": 4344,
    "stateCode": "S28",
    "stateName": "Uttarakhand",
    "districtCode": "S2812",
    "districtName": "Pauri Garhwal",
    "acNumber": 39,
    "acName": "Chaubattakhal",
    "partNumber": 3,
    "partName": "Simarkhal",
    "lat": 29.95697,
    "lon": 78.87772
  },
  {
    "partId": 4345,
    "stateCode": "S28",
    "stateName": "Uttarakhand",
    "districtCode": "S2812",
    "districtName": "Pauri Garhwal",
    "acNumber": 39,
    "acName": "Chaubattakhal",
    "partNumber": 4,
    "partName": "Kulasu",
    "lat": 29.9705407,
    "lon": 78.8195658
  },
  {
    "partId": 4346,
    "stateCode": "S28",
    "stateName": "Uttarakhand",
    "districtCode": "S2812",
    "districtName": "Pauri Garhwal",
    "acNumber": 39,
    "acName": "Chaubattakhal",
    "partNumber": 5,
    "partName": "Thapalgair",
    "lat": 29.95697,
    "lon": 78.87772
  },
  {
    "partId": 4347,
    "stateCode": "S28",
    "stateName": "Uttarakhand",
    "districtCode": "S2812",
    "districtName": "Pauri Garhwal",
    "acNumber": 39,
    "acName": "Chaubattakhal",
    "partNumber": 6,
    "partName": "Tachhwar",
    "lat": 29.95697,
    "lon": 78.87772
  },
  {
    "partId": 4348,
    "stateCode": "S28",
    "stateName": "Uttarakhand",
    "districtCode": "S2812",
    "districtName": "Pauri Garhwal",
    "acNumber": 39,
    "acName": "Chaubattakhal",
    "partNumber": 7,
    "partName": "Nandakhal",
    "lat": 29.95697,
    "lon": 78.87772
  },
  {
    "partId": 4349,
    "stateCode": "S28",
    "stateName": "Uttarakhand",
    "districtCode": "S2812",
    "districtName": "Pauri Garhwal",
    "acNumber": 39,
    "acName": "Chaubattakhal",
    "partNumber": 8,
    "partName": "Kandai",
    "lat": 29.9714795,
    "lon": 79.1494345
  },
  {
    "partId": 4350,
    "stateCode": "S28",
    "stateName": "Uttarakhand",
    "districtCode": "S2812",
    "districtName": "Pauri Garhwal",
    "acNumber": 39,
    "acName": "Chaubattakhal",
    "partNumber": 9,
    "partName": "Borgaon",
    "lat": 29.7822221,
    "lon": 78.6538468
  },
  {
    "partId": 4351,
    "stateCode": "S28",
    "stateName": "Uttarakhand",
    "districtCode": "S2812",
    "districtName": "Pauri Garhwal",
    "acNumber": 39,
    "acName": "Chaubattakhal",
    "partNumber": 10,
    "partName": "Syoli",
    "lat": 30.1711388,
    "lon": 79.0501606
  },
  {
    "partId": 4352,
    "stateCode": "S28",
    "stateName": "Uttarakhand",
    "districtCode": "S2812",
    "districtName": "Pauri Garhwal",
    "acNumber": 39,
    "acName": "Chaubattakhal",
    "partNumber": 11,
    "partName": "Halaie Malli",
    "lat": 29.95697,
    "lon": 78.87772
  },
  {
    "partId": 4353,
    "stateCode": "S28",
    "stateName": "Uttarakhand",
    "districtCode": "S2812",
    "districtName": "Pauri Garhwal",
    "acNumber": 39,
    "acName": "Chaubattakhal",
    "partNumber": 12,
    "partName": "Gurar Malla",
    "lat": 29.95697,
    "lon": 78.87772
  },
  {
    "partId": 4354,
    "stateCode": "S28",
    "stateName": "Uttarakhand",
    "districtCode": "S2812",
    "districtName": "Pauri Garhwal",
    "acNumber": 39,
    "acName": "Chaubattakhal",
    "partNumber": 13,
    "partName": "Latibau",
    "lat": 29.95697,
    "lon": 78.87772
  },
  {
    "partId": 4355,
    "stateCode": "S28",
    "stateName": "Uttarakhand",
    "districtCode": "S2812",
    "districtName": "Pauri Garhwal",
    "acNumber": 39,
    "acName": "Chaubattakhal",
    "partNumber": 14,
    "partName": "Dharasu N.W.",
    "lat": 29.95697,
    "lon": 78.87772
  },
  {
    "partId": 4356,
    "stateCode": "S28",
    "stateName": "Uttarakhand",
    "districtCode": "S2812",
    "districtName": "Pauri Garhwal",
    "acNumber": 39,
    "acName": "Chaubattakhal",
    "partNumber": 15,
    "partName": "Dharasu S.W",
    "lat": 29.95697,
    "lon": 78.87772
  },
  {
    "partId": 4357,
    "stateCode": "S28",
    "stateName": "Uttarakhand",
    "districtCode": "S2812",
    "districtName": "Pauri Garhwal",
    "acNumber": 39,
    "acName": "Chaubattakhal",
    "partNumber": 16,
    "partName": "Irakhal",
    "lat": 29.95697,
    "lon": 78.87772
  },
  {
    "partId": 4358,
    "stateCode": "S28",
    "stateName": "Uttarakhand",
    "districtCode": "S2812",
    "districtName": "Pauri Garhwal",
    "acNumber": 39,
    "acName": "Chaubattakhal",
    "partNumber": 17,
    "partName": "Musasu",
    "lat": 30.0032045,
    "lon": 78.8454008
  },
  {
    "partId": 4359,
    "stateCode": "S28",
    "stateName": "Uttarakhand",
    "districtCode": "S2812",
    "districtName": "Pauri Garhwal",
    "acNumber": 39,
    "acName": "Chaubattakhal",
    "partNumber": 18,
    "partName": "Matiyalna",
    "lat": 29.95697,
    "lon": 78.87772
  },
  {
    "partId": 4360,
    "stateCode": "S28",
    "stateName": "Uttarakhand",
    "districtCode": "S2812",
    "districtName": "Pauri Garhwal",
    "acNumber": 39,
    "acName": "Chaubattakhal",
    "partNumber": 19,
    "partName": "Kota",
    "lat": 30.0947543,
    "lon": 78.8711715
  },
  {
    "partId": 4361,
    "stateCode": "S28",
    "stateName": "Uttarakhand",
    "districtCode": "S2812",
    "districtName": "Pauri Garhwal",
    "acNumber": 39,
    "acName": "Chaubattakhal",
    "partNumber": 20,
    "partName": "Badoli",
    "lat": 29.9037209,
    "lon": 78.4733677
  },
  {
    "partId": 4362,
    "stateCode": "S28",
    "stateName": "Uttarakhand",
    "districtCode": "S2812",
    "districtName": "Pauri Garhwal",
    "acNumber": 39,
    "acName": "Chaubattakhal",
    "partNumber": 21,
    "partName": "Sasaun",
    "lat": 29.9735242,
    "lon": 79.131968
  },
  {
    "partId": 4363,
    "stateCode": "S28",
    "stateName": "Uttarakhand",
    "districtCode": "S2812",
    "districtName": "Pauri Garhwal",
    "acNumber": 39,
    "acName": "Chaubattakhal",
    "partNumber": 22,
    "partName": "Masaun",
    "lat": 29.9216505,
    "lon": 79.0734744
  },
  {
    "partId": 4364,
    "stateCode": "S28",
    "stateName": "Uttarakhand",
    "districtCode": "S2812",
    "districtName": "Pauri Garhwal",
    "acNumber": 39,
    "acName": "Chaubattakhal",
    "partNumber": 23,
    "partName": "Dawilakhal",
    "lat": 29.95697,
    "lon": 78.87772
  },
  {
    "partId": 4365,
    "stateCode": "S28",
    "stateName": "Uttarakhand",
    "districtCode": "S2812",
    "districtName": "Pauri Garhwal",
    "acNumber": 39,
    "acName": "Chaubattakhal",
    "partNumber": 24,
    "partName": "Gadari",
    "lat": 29.95697,
    "lon": 78.87772
  },
  {
    "partId": 4366,
    "stateCode": "S28",
    "stateName": "Uttarakhand",
    "districtCode": "S2812",
    "districtName": "Pauri Garhwal",
    "acNumber": 39,
    "acName": "Chaubattakhal",
    "partNumber": 25,
    "partName": "Sandana",
    "lat": 29.7311229,
    "lon": 79.0743327
  },
  {
    "partId": 4367,
    "stateCode": "S28",
    "stateName": "Uttarakhand",
    "districtCode": "S2812",
    "districtName": "Pauri Garhwal",
    "acNumber": 39,
    "acName": "Chaubattakhal",
    "partNumber": 26,
    "partName": "Chopra Chargad",
    "lat": 29.95697,
    "lon": 78.87772
  },
  {
    "partId": 4368,
    "stateCode": "S28",
    "stateName": "Uttarakhand",
    "districtCode": "S2812",
    "districtName": "Pauri Garhwal",
    "acNumber": 39,
    "acName": "Chaubattakhal",
    "partNumber": 27,
    "partName": "Jhalpadi",
    "lat": 29.95697,
    "lon": 78.87772
  },
  {
    "partId": 4369,
    "stateCode": "S28",
    "stateName": "Uttarakhand",
    "districtCode": "S2812",
    "districtName": "Pauri Garhwal",
    "acNumber": 39,
    "acName": "Chaubattakhal",
    "partNumber": 28,
    "partName": "Chaubattakhal",
    "lat": 29.95697,
    "lon": 78.87772
  },
  {
    "partId": 4370,
    "stateCode": "S28",
    "stateName": "Uttarakhand",
    "districtCode": "S2812",
    "districtName": "Pauri Garhwal",
    "acNumber": 39,
    "acName": "Chaubattakhal",
    "partNumber": 29,
    "partName": "Chamnau",
    "lat": 29.9476652,
    "lon": 78.8836496
  },
  {
    "partId": 4371,
    "stateCode": "S28",
    "stateName": "Uttarakhand",
    "districtCode": "S2812",
    "districtName": "Pauri Garhwal",
    "acNumber": 39,
    "acName": "Chaubattakhal",
    "partNumber": 30,
    "partName": "Devrajkhal",
    "lat": 29.9320058,
    "lon": 78.8726376
  },
  {
    "partId": 4372,
    "stateCode": "S28",
    "stateName": "Uttarakhand",
    "districtCode": "S2812",
    "districtName": "Pauri Garhwal",
    "acNumber": 39,
    "acName": "Chaubattakhal",
    "partNumber": 31,
    "partName": "Suraidang Satpali",
    "lat": 29.95697,
    "lon": 78.87772
  },
  {
    "partId": 4373,
    "stateCode": "S28",
    "stateName": "Uttarakhand",
    "districtCode": "S2812",
    "districtName": "Pauri Garhwal",
    "acNumber": 39,
    "acName": "Chaubattakhal",
    "partNumber": 32,
    "partName": "Ringwari",
    "lat": 29.95697,
    "lon": 78.87772
  },
  {
    "partId": 4374,
    "stateCode": "S28",
    "stateName": "Uttarakhand",
    "districtCode": "S2812",
    "districtName": "Pauri Garhwal",
    "acNumber": 39,
    "acName": "Chaubattakhal",
    "partNumber": 33,
    "partName": "Naugaonkhal",
    "lat": 29.96246,
    "lon": 78.86399
  },
  {
    "partId": 4375,
    "stateCode": "S28",
    "stateName": "Uttarakhand",
    "districtCode": "S2812",
    "districtName": "Pauri Garhwal",
    "acNumber": 39,
    "acName": "Chaubattakhal",
    "partNumber": 34,
    "partName": "Ranswa",
    "lat": 29.95697,
    "lon": 78.87772
  },
  {
    "partId": 4376,
    "stateCode": "S28",
    "stateName": "Uttarakhand",
    "districtCode": "S2812",
    "districtName": "Pauri Garhwal",
    "acNumber": 39,
    "acName": "Chaubattakhal",
    "partNumber": 35,
    "partName": "Mald",
    "lat": 29.9185075,
    "lon": 78.8691544
  },
  {
    "partId": 4377,
    "stateCode": "S28",
    "stateName": "Uttarakhand",
    "districtCode": "S2812",
    "districtName": "Pauri Garhwal",
    "acNumber": 39,
    "acName": "Chaubattakhal",
    "partNumber": 36,
    "partName": "Naie",
    "lat": 29.95697,
    "lon": 78.87772
  },
  {
    "partId": 4378,
    "stateCode": "S28",
    "stateName": "Uttarakhand",
    "districtCode": "S2812",
    "districtName": "Pauri Garhwal",
    "acNumber": 39,
    "acName": "Chaubattakhal",
    "partNumber": 37,
    "partName": "Baundar",
    "lat": 29.9281967,
    "lon": 78.8455295
  },
  {
    "partId": 4379,
    "stateCode": "S28",
    "stateName": "Uttarakhand",
    "districtCode": "S2812",
    "districtName": "Pauri Garhwal",
    "acNumber": 39,
    "acName": "Chaubattakhal",
    "partNumber": 38,
    "partName": "Mahadevsain",
    "lat": 29.95697,
    "lon": 78.87772
  },
  {
    "partId": 4380,
    "stateCode": "S28",
    "stateName": "Uttarakhand",
    "districtCode": "S2812",
    "districtName": "Pauri Garhwal",
    "acNumber": 39,
    "acName": "Chaubattakhal",
    "partNumber": 39,
    "partName": "Shrikot",
    "lat": 29.9443184,
    "lon": 78.9097094
  },
  {
    "partId": 4381,
    "stateCode": "S28",
    "stateName": "Uttarakhand",
    "districtCode": "S2812",
    "districtName": "Pauri Garhwal",
    "acNumber": 39,
    "acName": "Chaubattakhal",
    "partNumber": 40,
    "partName": "Gawani",
    "lat": 29.9612444,
    "lon": 78.9156583
  },
  {
    "partId": 4382,
    "stateCode": "S28",
    "stateName": "Uttarakhand",
    "districtCode": "S2812",
    "districtName": "Pauri Garhwal",
    "acNumber": 39,
    "acName": "Chaubattakhal",
    "partNumber": 41,
    "partName": "Kimgadi",
    "lat": 29.9651778,
    "lon": 78.9118445
  },
  {
    "partId": 4383,
    "stateCode": "S28",
    "stateName": "Uttarakhand",
    "districtCode": "S2812",
    "districtName": "Pauri Garhwal",
    "acNumber": 39,
    "acName": "Chaubattakhal",
    "partNumber": 42,
    "partName": "Dantha",
    "lat": 29.9666464,
    "lon": 78.9055681
  },
  {
    "partId": 4384,
    "stateCode": "S28",
    "stateName": "Uttarakhand",
    "districtCode": "S2812",
    "districtName": "Pauri Garhwal",
    "acNumber": 39,
    "acName": "Chaubattakhal",
    "partNumber": 43,
    "partName": "Kolakhal",
    "lat": 29.95697,
    "lon": 78.87772
  },
  {
    "partId": 4385,
    "stateCode": "S28",
    "stateName": "Uttarakhand",
    "districtCode": "S2812",
    "districtName": "Pauri Garhwal",
    "acNumber": 39,
    "acName": "Chaubattakhal",
    "partNumber": 44,
    "partName": "Patoti",
    "lat": 29.95697,
    "lon": 78.87772
  },
  {
    "partId": 4386,
    "stateCode": "S28",
    "stateName": "Uttarakhand",
    "districtCode": "S2812",
    "districtName": "Pauri Garhwal",
    "acNumber": 39,
    "acName": "Chaubattakhal",
    "partNumber": 45,
    "partName": "Saknoli",
    "lat": 29.8938247,
    "lon": 78.9250302
  },
  {
    "partId": 4387,
    "stateCode": "S28",
    "stateName": "Uttarakhand",
    "districtCode": "S2812",
    "districtName": "Pauri Garhwal",
    "acNumber": 39,
    "acName": "Chaubattakhal",
    "partNumber": 46,
    "partName": "Bagdi Gaad",
    "lat": 29.95697,
    "lon": 78.87772
  },
  {
    "partId": 4388,
    "stateCode": "S28",
    "stateName": "Uttarakhand",
    "districtCode": "S2812",
    "districtName": "Pauri Garhwal",
    "acNumber": 39,
    "acName": "Chaubattakhal",
    "partNumber": 47,
    "partName": "Kasyani",
    "lat": 29.95697,
    "lon": 78.87772
  },
  {
    "partId": 4389,
    "stateCode": "S28",
    "stateName": "Uttarakhand",
    "districtCode": "S2812",
    "districtName": "Pauri Garhwal",
    "acNumber": 39,
    "acName": "Chaubattakhal",
    "partNumber": 48,
    "partName": "Kanauthakhal",
    "lat": 29.95697,
    "lon": 78.87772
  },
  {
    "partId": 4390,
    "stateCode": "S28",
    "stateName": "Uttarakhand",
    "districtCode": "S2812",
    "districtName": "Pauri Garhwal",
    "acNumber": 39,
    "acName": "Chaubattakhal",
    "partNumber": 49,
    "partName": "Khalyundanda- Khalyunkhet",
    "lat": 29.95697,
    "lon": 78.87772
  },
  {
    "partId": 4391,
    "stateCode": "S28",
    "stateName": "Uttarakhand",
    "districtCode": "S2812",
    "districtName": "Pauri Garhwal",
    "acNumber": 39,
    "acName": "Chaubattakhal",
    "partNumber": 50,
    "partName": "Pokhra",
    "lat": 29.913626,
    "lon": 78.920441
  },
  {
    "partId": 4392,
    "stateCode": "S28",
    "stateName": "Uttarakhand",
    "districtCode": "S2812",
    "districtName": "Pauri Garhwal",
    "acNumber": 39,
    "acName": "Chaubattakhal",
    "partNumber": 51,
    "partName": "Melgaon",
    "lat": 29.9083989,
    "lon": 78.9250195
  },
  {
    "partId": 4393,
    "stateCode": "S28",
    "stateName": "Uttarakhand",
    "districtCode": "S2812",
    "districtName": "Pauri Garhwal",
    "acNumber": 39,
    "acName": "Chaubattakhal",
    "partNumber": 52,
    "partName": "Khergaon",
    "lat": 29.95697,
    "lon": 78.87772
  },
  {
    "partId": 4394,
    "stateCode": "S28",
    "stateName": "Uttarakhand",
    "districtCode": "S2812",
    "districtName": "Pauri Garhwal",
    "acNumber": 39,
    "acName": "Chaubattakhal",
    "partNumber": 53,
    "partName": "Jaikhal",
    "lat": 29.95697,
    "lon": 78.87772
  },
  {
    "partId": 4395,
    "stateCode": "S28",
    "stateName": "Uttarakhand",
    "districtCode": "S2812",
    "districtName": "Pauri Garhwal",
    "acNumber": 39,
    "acName": "Chaubattakhal",
    "partNumber": 54,
    "partName": "Liyakhal",
    "lat": 29.95697,
    "lon": 78.87772
  },
  {
    "partId": 4396,
    "stateCode": "S28",
    "stateName": "Uttarakhand",
    "districtCode": "S2812",
    "districtName": "Pauri Garhwal",
    "acNumber": 39,
    "acName": "Chaubattakhal",
    "partNumber": 55,
    "partName": "Padiyar Gaon",
    "lat": 29.95697,
    "lon": 78.87772
  },
  {
    "partId": 4397,
    "stateCode": "S28",
    "stateName": "Uttarakhand",
    "districtCode": "S2812",
    "districtName": "Pauri Garhwal",
    "acNumber": 39,
    "acName": "Chaubattakhal",
    "partNumber": 56,
    "partName": "Sediyakhal",
    "lat": 29.92127,
    "lon": 78.90381
  },
  {
    "partId": 4398,
    "stateCode": "S28",
    "stateName": "Uttarakhand",
    "districtCode": "S2812",
    "districtName": "Pauri Garhwal",
    "acNumber": 39,
    "acName": "Chaubattakhal",
    "partNumber": 57,
    "partName": "Sinwal",
    "lat": 29.95697,
    "lon": 78.87772
  },
  {
    "partId": 4399,
    "stateCode": "S28",
    "stateName": "Uttarakhand",
    "districtCode": "S2812",
    "districtName": "Pauri Garhwal",
    "acNumber": 39,
    "acName": "Chaubattakhal",
    "partNumber": 58,
    "partName": "Gadigaon",
    "lat": 30.0401206,
    "lon": 78.9044952
  },
  {
    "partId": 4400,
    "stateCode": "S28",
    "stateName": "Uttarakhand",
    "districtCode": "S2812",
    "districtName": "Pauri Garhwal",
    "acNumber": 39,
    "acName": "Chaubattakhal",
    "partNumber": 59,
    "partName": "Pinani",
    "lat": 30.0245904,
    "lon": 78.9224124
  },
  {
    "partId": 4401,
    "stateCode": "S28",
    "stateName": "Uttarakhand",
    "districtCode": "S2812",
    "districtName": "Pauri Garhwal",
    "acNumber": 39,
    "acName": "Chaubattakhal",
    "partNumber": 60,
    "partName": "Pang",
    "lat": 30.0436127,
    "lon": 78.8654423
  },
  {
    "partId": 4402,
    "stateCode": "S28",
    "stateName": "Uttarakhand",
    "districtCode": "S2812",
    "districtName": "Pauri Garhwal",
    "acNumber": 39,
    "acName": "Chaubattakhal",
    "partNumber": 61,
    "partName": "Pipli",
    "lat": 29.7592735,
    "lon": 78.985455
  },
  {
    "partId": 4403,
    "stateCode": "S28",
    "stateName": "Uttarakhand",
    "districtCode": "S2812",
    "districtName": "Pauri Garhwal",
    "acNumber": 39,
    "acName": "Chaubattakhal",
    "partNumber": 62,
    "partName": "Rishi",
    "lat": 29.95697,
    "lon": 78.87772
  },
  {
    "partId": 4404,
    "stateCode": "S28",
    "stateName": "Uttarakhand",
    "districtCode": "S2812",
    "districtName": "Pauri Garhwal",
    "acNumber": 39,
    "acName": "Chaubattakhal",
    "partNumber": 63,
    "partName": "Molthi Talli Chauthi",
    "lat": 29.95697,
    "lon": 78.87772
  },
  {
    "partId": 4405,
    "stateCode": "S28",
    "stateName": "Uttarakhand",
    "districtCode": "S2812",
    "districtName": "Pauri Garhwal",
    "acNumber": 39,
    "acName": "Chaubattakhal",
    "partNumber": 64,
    "partName": "Ira Malla",
    "lat": 29.95697,
    "lon": 78.87772
  },
  {
    "partId": 4406,
    "stateCode": "S28",
    "stateName": "Uttarakhand",
    "districtCode": "S2812",
    "districtName": "Pauri Garhwal",
    "acNumber": 39,
    "acName": "Chaubattakhal",
    "partNumber": 65,
    "partName": "Kyard Talla",
    "lat": 29.95697,
    "lon": 78.87772
  },
  {
    "partId": 4407,
    "stateCode": "S28",
    "stateName": "Uttarakhand",
    "districtCode": "S2812",
    "districtName": "Pauri Garhwal",
    "acNumber": 39,
    "acName": "Chaubattakhal",
    "partNumber": 66,
    "partName": "Basyur",
    "lat": 29.9206463,
    "lon": 78.7736463
  },
  {
    "partId": 4408,
    "stateCode": "S28",
    "stateName": "Uttarakhand",
    "districtCode": "S2812",
    "districtName": "Pauri Garhwal",
    "acNumber": 39,
    "acName": "Chaubattakhal",
    "partNumber": 67,
    "partName": "Khuleu",
    "lat": 29.9309489,
    "lon": 78.7724018
  },
  {
    "partId": 4409,
    "stateCode": "S28",
    "stateName": "Uttarakhand",
    "districtCode": "S2812",
    "districtName": "Pauri Garhwal",
    "acNumber": 39,
    "acName": "Chaubattakhal",
    "partNumber": 68,
    "partName": "Naugaon Vinodu",
    "lat": 29.95697,
    "lon": 78.87772
  },
  {
    "partId": 4410,
    "stateCode": "S28",
    "stateName": "Uttarakhand",
    "districtCode": "S2812",
    "districtName": "Pauri Garhwal",
    "acNumber": 39,
    "acName": "Chaubattakhal",
    "partNumber": 69,
    "partName": "Malethi",
    "lat": 29.8855313,
    "lon": 78.7433663
  },
  {
    "partId": 4411,
    "stateCode": "S28",
    "stateName": "Uttarakhand",
    "districtCode": "S2812",
    "districtName": "Pauri Garhwal",
    "acNumber": 39,
    "acName": "Chaubattakhal",
    "partNumber": 70,
    "partName": "Danda Malla",
    "lat": 29.9133512,
    "lon": 78.7379677
  },
  {
    "partId": 4412,
    "stateCode": "S28",
    "stateName": "Uttarakhand",
    "districtCode": "S2812",
    "districtName": "Pauri Garhwal",
    "acNumber": 39,
    "acName": "Chaubattakhal",
    "partNumber": 71,
    "partName": "Chaumasudhar",
    "lat": 29.95697,
    "lon": 78.87772
  },
  {
    "partId": 4413,
    "stateCode": "S28",
    "stateName": "Uttarakhand",
    "districtCode": "S2812",
    "districtName": "Pauri Garhwal",
    "acNumber": 39,
    "acName": "Chaubattakhal",
    "partNumber": 72,
    "partName": "Shrikotkhal",
    "lat": 29.95697,
    "lon": 78.87772
  },
  {
    "partId": 4414,
    "stateCode": "S28",
    "stateName": "Uttarakhand",
    "districtCode": "S2812",
    "districtName": "Pauri Garhwal",
    "acNumber": 39,
    "acName": "Chaubattakhal",
    "partNumber": 73,
    "partName": "Maundari",
    "lat": 29.9194932,
    "lon": 78.7521457
  },
  {
    "partId": 4415,
    "stateCode": "S28",
    "stateName": "Uttarakhand",
    "districtCode": "S2812",
    "districtName": "Pauri Garhwal",
    "acNumber": 39,
    "acName": "Chaubattakhal",
    "partNumber": 74,
    "partName": "Baunsal",
    "lat": 29.95697,
    "lon": 78.87772
  },
  {
    "partId": 4416,
    "stateCode": "S28",
    "stateName": "Uttarakhand",
    "districtCode": "S2812",
    "districtName": "Pauri Garhwal",
    "acNumber": 39,
    "acName": "Chaubattakhal",
    "partNumber": 75,
    "partName": "Bachheli",
    "lat": 29.95697,
    "lon": 78.87772
  },
  {
    "partId": 4417,
    "stateCode": "S28",
    "stateName": "Uttarakhand",
    "districtCode": "S2812",
    "districtName": "Pauri Garhwal",
    "acNumber": 39,
    "acName": "Chaubattakhal",
    "partNumber": 76,
    "partName": "Pakhri",
    "lat": 29.9504075,
    "lon": 78.7664258
  },
  {
    "partId": 4418,
    "stateCode": "S28",
    "stateName": "Uttarakhand",
    "districtCode": "S2812",
    "districtName": "Pauri Garhwal",
    "acNumber": 39,
    "acName": "Chaubattakhal",
    "partNumber": 77,
    "partName": "Amotha",
    "lat": 29.95697,
    "lon": 78.87772
  },
  {
    "partId": 4419,
    "stateCode": "S28",
    "stateName": "Uttarakhand",
    "districtCode": "S2812",
    "districtName": "Pauri Garhwal",
    "acNumber": 39,
    "acName": "Chaubattakhal",
    "partNumber": 78,
    "partName": "Bagyali",
    "lat": 29.9564776,
    "lon": 78.7963056
  },
  {
    "partId": 4420,
    "stateCode": "S28",
    "stateName": "Uttarakhand",
    "districtCode": "S2812",
    "districtName": "Pauri Garhwal",
    "acNumber": 39,
    "acName": "Chaubattakhal",
    "partNumber": 79,
    "partName": "Ekeshwar",
    "lat": 29.94324,
    "lon": 78.81729
  },
  {
    "partId": 4421,
    "stateCode": "S28",
    "stateName": "Uttarakhand",
    "districtCode": "S2812",
    "districtName": "Pauri Garhwal",
    "acNumber": 39,
    "acName": "Chaubattakhal",
    "partNumber": 80,
    "partName": "Badoli",
    "lat": 29.9037209,
    "lon": 78.4733677
  },
  {
    "partId": 4422,
    "stateCode": "S28",
    "stateName": "Uttarakhand",
    "districtCode": "S2812",
    "districtName": "Pauri Garhwal",
    "acNumber": 39,
    "acName": "Chaubattakhal",
    "partNumber": 81,
    "partName": "Chaurkhal",
    "lat": 29.95697,
    "lon": 78.87772
  },
  {
    "partId": 4423,
    "stateCode": "S28",
    "stateName": "Uttarakhand",
    "districtCode": "S2812",
    "districtName": "Pauri Garhwal",
    "acNumber": 39,
    "acName": "Chaubattakhal",
    "partNumber": 82,
    "partName": "Bijoli",
    "lat": 29.911349,
    "lon": 78.577641
  },
  {
    "partId": 4424,
    "stateCode": "S28",
    "stateName": "Uttarakhand",
    "districtCode": "S2812",
    "districtName": "Pauri Garhwal",
    "acNumber": 39,
    "acName": "Chaubattakhal",
    "partNumber": 83,
    "partName": "Tilkholi",
    "lat": 29.878039,
    "lon": 78.8553357
  },
  {
    "partId": 4425,
    "stateCode": "S28",
    "stateName": "Uttarakhand",
    "districtCode": "S2812",
    "districtName": "Pauri Garhwal",
    "acNumber": 39,
    "acName": "Chaubattakhal",
    "partNumber": 84,
    "partName": "Mahargaon Malla",
    "lat": 29.8760017,
    "lon": 78.8701629
  },
  {
    "partId": 4426,
    "stateCode": "S28",
    "stateName": "Uttarakhand",
    "districtCode": "S2812",
    "districtName": "Pauri Garhwal",
    "acNumber": 39,
    "acName": "Chaubattakhal",
    "partNumber": 85,
    "partName": "Gawana Malla",
    "lat": 29.8796484,
    "lon": 78.8466024
  },
  {
    "partId": 4427,
    "stateCode": "S28",
    "stateName": "Uttarakhand",
    "districtCode": "S2812",
    "districtName": "Pauri Garhwal",
    "acNumber": 39,
    "acName": "Chaubattakhal",
    "partNumber": 86,
    "partName": "Jajeri",
    "lat": 29.95697,
    "lon": 78.87772
  },
  {
    "partId": 4428,
    "stateCode": "S28",
    "stateName": "Uttarakhand",
    "districtCode": "S2812",
    "districtName": "Pauri Garhwal",
    "acNumber": 39,
    "acName": "Chaubattakhal",
    "partNumber": 87,
    "partName": "Reethakhal",
    "lat": 29.95697,
    "lon": 78.87772
  },
  {
    "partId": 4429,
    "stateCode": "S28",
    "stateName": "Uttarakhand",
    "districtCode": "S2812",
    "districtName": "Pauri Garhwal",
    "acNumber": 39,
    "acName": "Chaubattakhal",
    "partNumber": 88,
    "partName": "Sangalakoti",
    "lat": 29.95697,
    "lon": 78.87772
  },
  {
    "partId": 4430,
    "stateCode": "S28",
    "stateName": "Uttarakhand",
    "districtCode": "S2812",
    "districtName": "Pauri Garhwal",
    "acNumber": 39,
    "acName": "Chaubattakhal",
    "partNumber": 89,
    "partName": "Halooni",
    "lat": 29.95697,
    "lon": 78.87772
  },
  {
    "partId": 4431,
    "stateCode": "S28",
    "stateName": "Uttarakhand",
    "districtCode": "S2812",
    "districtName": "Pauri Garhwal",
    "acNumber": 39,
    "acName": "Chaubattakhal",
    "partNumber": 90,
    "partName": "Chaur",
    "lat": 29.8188834,
    "lon": 78.9903903
  },
  {
    "partId": 4432,
    "stateCode": "S28",
    "stateName": "Uttarakhand",
    "districtCode": "S2812",
    "districtName": "Pauri Garhwal",
    "acNumber": 39,
    "acName": "Chaubattakhal",
    "partNumber": 91,
    "partName": "Basai",
    "lat": 29.755481,
    "lon": 78.6635906
  },
  {
    "partId": 4433,
    "stateCode": "S28",
    "stateName": "Uttarakhand",
    "districtCode": "S2812",
    "districtName": "Pauri Garhwal",
    "acNumber": 39,
    "acName": "Chaubattakhal",
    "partNumber": 92,
    "partName": "Gheruwa Malla",
    "lat": 29.95697,
    "lon": 78.87772
  },
  {
    "partId": 4434,
    "stateCode": "S28",
    "stateName": "Uttarakhand",
    "districtCode": "S2812",
    "districtName": "Pauri Garhwal",
    "acNumber": 39,
    "acName": "Chaubattakhal",
    "partNumber": 93,
    "partName": "Kandai",
    "lat": 29.9714795,
    "lon": 79.1494345
  },
  {
    "partId": 4435,
    "stateCode": "S28",
    "stateName": "Uttarakhand",
    "districtCode": "S2812",
    "districtName": "Pauri Garhwal",
    "acNumber": 39,
    "acName": "Chaubattakhal",
    "partNumber": 94,
    "partName": "Babina Dudharkhal",
    "lat": 29.95697,
    "lon": 78.87772
  },
  {
    "partId": 4436,
    "stateCode": "S28",
    "stateName": "Uttarakhand",
    "districtCode": "S2812",
    "districtName": "Pauri Garhwal",
    "acNumber": 39,
    "acName": "Chaubattakhal",
    "partNumber": 95,
    "partName": "Kota",
    "lat": 30.0947543,
    "lon": 78.8711715
  },
  {
    "partId": 4437,
    "stateCode": "S28",
    "stateName": "Uttarakhand",
    "districtCode": "S2812",
    "districtName": "Pauri Garhwal",
    "acNumber": 39,
    "acName": "Chaubattakhal",
    "partNumber": 96,
    "partName": "Thalda",
    "lat": 29.8473168,
    "lon": 78.70704792061838
  },
  {
    "partId": 4438,
    "stateCode": "S28",
    "stateName": "Uttarakhand",
    "districtCode": "S2812",
    "districtName": "Pauri Garhwal",
    "acNumber": 39,
    "acName": "Chaubattakhal",
    "partNumber": 97,
    "partName": "Khairasain",
    "lat": 29.940346299999998,
    "lon": 78.85551680128064
  },
  {
    "partId": 4439,
    "stateCode": "S28",
    "stateName": "Uttarakhand",
    "districtCode": "S2812",
    "districtName": "Pauri Garhwal",
    "acNumber": 39,
    "acName": "Chaubattakhal",
    "partNumber": 98,
    "partName": "Gawana",
    "lat": 29.95697,
    "lon": 78.87772
  },
  {
    "partId": 4440,
    "stateCode": "S28",
    "stateName": "Uttarakhand",
    "districtCode": "S2812",
    "districtName": "Pauri Garhwal",
    "acNumber": 39,
    "acName": "Chaubattakhal",
    "partNumber": 99,
    "partName": "Kharkoli",
    "lat": 29.8473168,
    "lon": 78.70704792061838
  },
  {
    "partId": 4441,
    "stateCode": "S28",
    "stateName": "Uttarakhand",
    "districtCode": "S2812",
    "districtName": "Pauri Garhwal",
    "acNumber": 39,
    "acName": "Chaubattakhal",
    "partNumber": 100,
    "partName": "Bandun",
    "lat": 29.8473168,
    "lon": 78.70704792061838
  },
  {
    "partId": 4775,
    "stateCode": "S28",
    "stateName": "Uttarakhand",
    "districtCode": "S2812",
    "districtName": "Pauri Garhwal",
    "acNumber": 39,
    "acName": "Chaubattakhal",
    "partNumber": 101,
    "partName": "Gweelani",
    "lat": 29.95697,
    "lon": 78.87772
  },
  {
    "partId": 4442,
    "stateCode": "S28",
    "stateName": "Uttarakhand",
    "districtCode": "S2812",
    "districtName": "Pauri Garhwal",
    "acNumber": 39,
    "acName": "Chaubattakhal",
    "partNumber": 102,
    "partName": "Barsuri",
    "lat": 29.9613603,
    "lon": 78.6419885
  },
  {
    "partId": 4443,
    "stateCode": "S28",
    "stateName": "Uttarakhand",
    "districtCode": "S2812",
    "districtName": "Pauri Garhwal",
    "acNumber": 39,
    "acName": "Chaubattakhal",
    "partNumber": 103,
    "partName": "Patli",
    "lat": 30.0270706,
    "lon": 78.3879447
  },
  {
    "partId": 4444,
    "stateCode": "S28",
    "stateName": "Uttarakhand",
    "districtCode": "S2812",
    "districtName": "Pauri Garhwal",
    "acNumber": 39,
    "acName": "Chaubattakhal",
    "partNumber": 104,
    "partName": "Bhalgaon",
    "lat": 29.9507476,
    "lon": 78.6308533
  },
  {
    "partId": 4445,
    "stateCode": "S28",
    "stateName": "Uttarakhand",
    "districtCode": "S2812",
    "districtName": "Pauri Garhwal",
    "acNumber": 39,
    "acName": "Chaubattakhal",
    "partNumber": 105,
    "partName": "Kotalmanda",
    "lat": 29.95697,
    "lon": 78.87772
  },
  {
    "partId": 4446,
    "stateCode": "S28",
    "stateName": "Uttarakhand",
    "districtCode": "S2812",
    "districtName": "Pauri Garhwal",
    "acNumber": 39,
    "acName": "Chaubattakhal",
    "partNumber": 106,
    "partName": "Kulhar",
    "lat": 29.95697,
    "lon": 78.87772
  },
  {
    "partId": 4447,
    "stateCode": "S28",
    "stateName": "Uttarakhand",
    "districtCode": "S2812",
    "districtName": "Pauri Garhwal",
    "acNumber": 39,
    "acName": "Chaubattakhal",
    "partNumber": 107,
    "partName": "Satpuli N.W.",
    "lat": 29.95697,
    "lon": 78.87772
  },
  {
    "partId": 4448,
    "stateCode": "S28",
    "stateName": "Uttarakhand",
    "districtCode": "S2812",
    "districtName": "Pauri Garhwal",
    "acNumber": 39,
    "acName": "Chaubattakhal",
    "partNumber": 108,
    "partName": "Satpuli S.W",
    "lat": 29.95697,
    "lon": 78.87772
  },
  {
    "partId": 4449,
    "stateCode": "S28",
    "stateName": "Uttarakhand",
    "districtCode": "S2812",
    "districtName": "Pauri Garhwal",
    "acNumber": 39,
    "acName": "Chaubattakhal",
    "partNumber": 109,
    "partName": "Satputli Malli",
    "lat": 29.95697,
    "lon": 78.87772
  },
  {
    "partId": 4450,
    "stateCode": "S28",
    "stateName": "Uttarakhand",
    "districtCode": "S2812",
    "districtName": "Pauri Garhwal",
    "acNumber": 39,
    "acName": "Chaubattakhal",
    "partNumber": 110,
    "partName": "Odal",
    "lat": 29.8837445,
    "lon": 78.5633537
  },
  {
    "partId": 4451,
    "stateCode": "S28",
    "stateName": "Uttarakhand",
    "districtCode": "S2812",
    "districtName": "Pauri Garhwal",
    "acNumber": 39,
    "acName": "Chaubattakhal",
    "partNumber": 111,
    "partName": "Gween Chhota",
    "lat": 29.95697,
    "lon": 78.87772
  },
  {
    "partId": 4452,
    "stateCode": "S28",
    "stateName": "Uttarakhand",
    "districtCode": "S2812",
    "districtName": "Pauri Garhwal",
    "acNumber": 39,
    "acName": "Chaubattakhal",
    "partNumber": 112,
    "partName": "Buransi",
    "lat": 29.9401365,
    "lon": 78.6715976
  },
  {
    "partId": 4453,
    "stateCode": "S28",
    "stateName": "Uttarakhand",
    "districtCode": "S2812",
    "districtName": "Pauri Garhwal",
    "acNumber": 39,
    "acName": "Chaubattakhal",
    "partNumber": 113,
    "partName": "Seela Bhanghat",
    "lat": 29.95697,
    "lon": 78.87772
  },
  {
    "partId": 4454,
    "stateCode": "S28",
    "stateName": "Uttarakhand",
    "districtCode": "S2812",
    "districtName": "Pauri Garhwal",
    "acNumber": 39,
    "acName": "Chaubattakhal",
    "partNumber": 114,
    "partName": "Kandakhal",
    "lat": 29.8755549,
    "lon": 78.7283258
  },
  {
    "partId": 4455,
    "stateCode": "S28",
    "stateName": "Uttarakhand",
    "districtCode": "S2812",
    "districtName": "Pauri Garhwal",
    "acNumber": 39,
    "acName": "Chaubattakhal",
    "partNumber": 115,
    "partName": "Kafaldi",
    "lat": 29.95697,
    "lon": 78.87772
  },
  {
    "partId": 4456,
    "stateCode": "S28",
    "stateName": "Uttarakhand",
    "districtCode": "S2812",
    "districtName": "Pauri Garhwal",
    "acNumber": 39,
    "acName": "Chaubattakhal",
    "partNumber": 116,
    "partName": "Peera",
    "lat": 29.8473168,
    "lon": 78.70704792061838
  },
  {
    "partId": 4457,
    "stateCode": "S28",
    "stateName": "Uttarakhand",
    "districtCode": "S2812",
    "districtName": "Pauri Garhwal",
    "acNumber": 39,
    "acName": "Chaubattakhal",
    "partNumber": 117,
    "partName": "Chaie",
    "lat": 29.95697,
    "lon": 78.87772
  },
  {
    "partId": 4458,
    "stateCode": "S28",
    "stateName": "Uttarakhand",
    "districtCode": "S2812",
    "districtName": "Pauri Garhwal",
    "acNumber": 39,
    "acName": "Chaubattakhal",
    "partNumber": 118,
    "partName": "Bhainswada",
    "lat": 29.95697,
    "lon": 78.87772
  },
  {
    "partId": 4459,
    "stateCode": "S28",
    "stateName": "Uttarakhand",
    "districtCode": "S2812",
    "districtName": "Pauri Garhwal",
    "acNumber": 39,
    "acName": "Chaubattakhal",
    "partNumber": 119,
    "partName": "Saindhar",
    "lat": 29.8738285,
    "lon": 78.9709302
  },
  {
    "partId": 4460,
    "stateCode": "S28",
    "stateName": "Uttarakhand",
    "districtCode": "S2812",
    "districtName": "Pauri Garhwal",
    "acNumber": 39,
    "acName": "Chaubattakhal",
    "partNumber": 120,
    "partName": "Sundarkhal",
    "lat": 29.8473168,
    "lon": 78.70704792061838
  },
  {
    "partId": 4461,
    "stateCode": "S28",
    "stateName": "Uttarakhand",
    "districtCode": "S2812",
    "districtName": "Pauri Garhwal",
    "acNumber": 39,
    "acName": "Chaubattakhal",
    "partNumber": 121,
    "partName": "Baijraun",
    "lat": 29.95697,
    "lon": 78.87772
  },
  {
    "partId": 4462,
    "stateCode": "S28",
    "stateName": "Uttarakhand",
    "districtCode": "S2812",
    "districtName": "Pauri Garhwal",
    "acNumber": 39,
    "acName": "Chaubattakhal",
    "partNumber": 122,
    "partName": "Jiwaie",
    "lat": 29.95697,
    "lon": 78.87772
  },
  {
    "partId": 4463,
    "stateCode": "S28",
    "stateName": "Uttarakhand",
    "districtCode": "S2812",
    "districtName": "Pauri Garhwal",
    "acNumber": 39,
    "acName": "Chaubattakhal",
    "partNumber": 123,
    "partName": "Birgana",
    "lat": 29.9612531,
    "lon": 79.0156728
  },
  {
    "partId": 4776,
    "stateCode": "S28",
    "stateName": "Uttarakhand",
    "districtCode": "S2812",
    "districtName": "Pauri Garhwal",
    "acNumber": 39,
    "acName": "Chaubattakhal",
    "partNumber": 124,
    "partName": "Nanshu",
    "lat": 29.95697,
    "lon": 78.87772
  },
  {
    "partId": 4464,
    "stateCode": "S28",
    "stateName": "Uttarakhand",
    "districtCode": "S2812",
    "districtName": "Pauri Garhwal",
    "acNumber": 39,
    "acName": "Chaubattakhal",
    "partNumber": 125,
    "partName": "Sukai",
    "lat": 29.95697,
    "lon": 78.87772
  },
  {
    "partId": 4465,
    "stateCode": "S28",
    "stateName": "Uttarakhand",
    "districtCode": "S2812",
    "districtName": "Pauri Garhwal",
    "acNumber": 39,
    "acName": "Chaubattakhal",
    "partNumber": 126,
    "partName": "Dumlot Talla",
    "lat": 29.95697,
    "lon": 78.87772
  },
  {
    "partId": 4466,
    "stateCode": "S28",
    "stateName": "Uttarakhand",
    "districtCode": "S2812",
    "districtName": "Pauri Garhwal",
    "acNumber": 39,
    "acName": "Chaubattakhal",
    "partNumber": 127,
    "partName": "Kamliya Walla",
    "lat": 29.8473168,
    "lon": 78.70704792061838
  },
  {
    "partId": 4467,
    "stateCode": "S28",
    "stateName": "Uttarakhand",
    "districtCode": "S2812",
    "districtName": "Pauri Garhwal",
    "acNumber": 39,
    "acName": "Chaubattakhal",
    "partNumber": 128,
    "partName": "luxmeshwar",
    "lat": 29.95697,
    "lon": 78.87772
  },
  {
    "partId": 4468,
    "stateCode": "S28",
    "stateName": "Uttarakhand",
    "districtCode": "S2812",
    "districtName": "Pauri Garhwal",
    "acNumber": 39,
    "acName": "Chaubattakhal",
    "partNumber": 129,
    "partName": "Garkot",
    "lat": 29.9818471,
    "lon": 78.5276799
  },
  {
    "partId": 4469,
    "stateCode": "S28",
    "stateName": "Uttarakhand",
    "districtCode": "S2812",
    "districtName": "Pauri Garhwal",
    "acNumber": 39,
    "acName": "Chaubattakhal",
    "partNumber": 130,
    "partName": "Chourkhinda",
    "lat": 29.95697,
    "lon": 78.87772
  },
  {
    "partId": 4470,
    "stateCode": "S28",
    "stateName": "Uttarakhand",
    "districtCode": "S2812",
    "districtName": "Pauri Garhwal",
    "acNumber": 39,
    "acName": "Chaubattakhal",
    "partNumber": 131,
    "partName": "Arkandai",
    "lat": 29.95697,
    "lon": 78.87772
  },
  {
    "partId": 4471,
    "stateCode": "S28",
    "stateName": "Uttarakhand",
    "districtCode": "S2812",
    "districtName": "Pauri Garhwal",
    "acNumber": 39,
    "acName": "Chaubattakhal",
    "partNumber": 132,
    "partName": "Farsari",
    "lat": 29.95697,
    "lon": 78.87772
  },
  {
    "partId": 4472,
    "stateCode": "S28",
    "stateName": "Uttarakhand",
    "districtCode": "S2812",
    "districtName": "Pauri Garhwal",
    "acNumber": 39,
    "acName": "Chaubattakhal",
    "partNumber": 133,
    "partName": "Kasani",
    "lat": 29.8883926,
    "lon": 79.0020203
  },
  {
    "partId": 4473,
    "stateCode": "S28",
    "stateName": "Uttarakhand",
    "districtCode": "S2812",
    "districtName": "Pauri Garhwal",
    "acNumber": 39,
    "acName": "Chaubattakhal",
    "partNumber": 134,
    "partName": "Laingal",
    "lat": 29.95697,
    "lon": 78.87772
  },
  {
    "partId": 4474,
    "stateCode": "S28",
    "stateName": "Uttarakhand",
    "districtCode": "S2812",
    "districtName": "Pauri Garhwal",
    "acNumber": 39,
    "acName": "Chaubattakhal",
    "partNumber": 135,
    "partName": "Bharolikhal",
    "lat": 29.95697,
    "lon": 78.87772
  },
  {
    "partId": 4475,
    "stateCode": "S28",
    "stateName": "Uttarakhand",
    "districtCode": "S2812",
    "districtName": "Pauri Garhwal",
    "acNumber": 39,
    "acName": "Chaubattakhal",
    "partNumber": 136,
    "partName": "Bharolikhal",
    "lat": 29.8473168,
    "lon": 78.70704792061838
  },
  {
    "partId": 4476,
    "stateCode": "S28",
    "stateName": "Uttarakhand",
    "districtCode": "S2812",
    "districtName": "Pauri Garhwal",
    "acNumber": 39,
    "acName": "Chaubattakhal",
    "partNumber": 137,
    "partName": "Chaundla",
    "lat": 29.95697,
    "lon": 78.87772
  },
  {
    "partId": 4477,
    "stateCode": "S28",
    "stateName": "Uttarakhand",
    "districtCode": "S2812",
    "districtName": "Pauri Garhwal",
    "acNumber": 39,
    "acName": "Chaubattakhal",
    "partNumber": 138,
    "partName": "Bedikhal",
    "lat": 29.88144,
    "lon": 79.00406
  },
  {
    "partId": 4478,
    "stateCode": "S28",
    "stateName": "Uttarakhand",
    "districtCode": "S2812",
    "districtName": "Pauri Garhwal",
    "acNumber": 39,
    "acName": "Chaubattakhal",
    "partNumber": 139,
    "partName": "Bangar",
    "lat": 29.890625,
    "lon": 79.0221047
  },
  {
    "partId": 4479,
    "stateCode": "S28",
    "stateName": "Uttarakhand",
    "districtCode": "S2812",
    "districtName": "Pauri Garhwal",
    "acNumber": 39,
    "acName": "Chaubattakhal",
    "partNumber": 140,
    "partName": "Bhaurad",
    "lat": 29.8669774,
    "lon": 79.0185857
  },
  {
    "partId": 4480,
    "stateCode": "S28",
    "stateName": "Uttarakhand",
    "districtCode": "S2812",
    "districtName": "Pauri Garhwal",
    "acNumber": 39,
    "acName": "Chaubattakhal",
    "partNumber": 141,
    "partName": "Padinda(Sera)",
    "lat": 29.95697,
    "lon": 78.87772
  },
  {
    "partId": 4481,
    "stateCode": "S28",
    "stateName": "Uttarakhand",
    "districtCode": "S2812",
    "districtName": "Pauri Garhwal",
    "acNumber": 39,
    "acName": "Chaubattakhal",
    "partNumber": 142,
    "partName": "Dhobighat",
    "lat": 29.95697,
    "lon": 78.87772
  },
  {
    "partId": 4482,
    "stateCode": "S28",
    "stateName": "Uttarakhand",
    "districtCode": "S2812",
    "districtName": "Pauri Garhwal",
    "acNumber": 39,
    "acName": "Chaubattakhal",
    "partNumber": 143,
    "partName": "Jogimarhi",
    "lat": 29.8935219,
    "lon": 79.0913433
  },
  {
    "partId": 4483,
    "stateCode": "S28",
    "stateName": "Uttarakhand",
    "districtCode": "S2812",
    "districtName": "Pauri Garhwal",
    "acNumber": 39,
    "acName": "Chaubattakhal",
    "partNumber": 144,
    "partName": "Lachhi",
    "lat": 29.8953873,
    "lon": 79.0522367
  },
  {
    "partId": 4484,
    "stateCode": "S28",
    "stateName": "Uttarakhand",
    "districtCode": "S2812",
    "districtName": "Pauri Garhwal",
    "acNumber": 39,
    "acName": "Chaubattakhal",
    "partNumber": 145,
    "partName": "Pateldhar",
    "lat": 29.95697,
    "lon": 78.87772
  },
  {
    "partId": 4485,
    "stateCode": "S28",
    "stateName": "Uttarakhand",
    "districtCode": "S2812",
    "districtName": "Pauri Garhwal",
    "acNumber": 39,
    "acName": "Chaubattakhal",
    "partNumber": 146,
    "partName": "Syunsi",
    "lat": 29.8908055,
    "lon": 79.0247843
  },
  {
    "partId": 4486,
    "stateCode": "S28",
    "stateName": "Uttarakhand",
    "districtCode": "S2812",
    "districtName": "Pauri Garhwal",
    "acNumber": 39,
    "acName": "Chaubattakhal",
    "partNumber": 147,
    "partName": "Aamkulau",
    "lat": 29.95697,
    "lon": 78.87772
  },
  {
    "partId": 4487,
    "stateCode": "S28",
    "stateName": "Uttarakhand",
    "districtCode": "S2812",
    "districtName": "Pauri Garhwal",
    "acNumber": 39,
    "acName": "Chaubattakhal",
    "partNumber": 148,
    "partName": "Birokhal",
    "lat": 29.8473168,
    "lon": 78.70704792061838
  },
  {
    "partId": 4488,
    "stateCode": "S28",
    "stateName": "Uttarakhand",
    "districtCode": "S2812",
    "districtName": "Pauri Garhwal",
    "acNumber": 39,
    "acName": "Chaubattakhal",
    "partNumber": 149,
    "partName": "Bironkhal",
    "lat": 29.84024,
    "lon": 79.03153
  },
  {
    "partId": 4489,
    "stateCode": "S28",
    "stateName": "Uttarakhand",
    "districtCode": "S2812",
    "districtName": "Pauri Garhwal",
    "acNumber": 39,
    "acName": "Chaubattakhal",
    "partNumber": 150,
    "partName": "Rikhar",
    "lat": 29.95697,
    "lon": 78.87772
  },
  {
    "partId": 4490,
    "stateCode": "S28",
    "stateName": "Uttarakhand",
    "districtCode": "S2812",
    "districtName": "Pauri Garhwal",
    "acNumber": 39,
    "acName": "Chaubattakhal",
    "partNumber": 151,
    "partName": "Sinduri",
    "lat": 30.0504109,
    "lon": 78.3917427
  },
  {
    "partId": 4491,
    "stateCode": "S28",
    "stateName": "Uttarakhand",
    "districtCode": "S2812",
    "districtName": "Pauri Garhwal",
    "acNumber": 39,
    "acName": "Chaubattakhal",
    "partNumber": 152,
    "partName": "Maithana",
    "lat": 30.1948624,
    "lon": 78.7453222
  },
  {
    "partId": 4492,
    "stateCode": "S28",
    "stateName": "Uttarakhand",
    "districtCode": "S2812",
    "districtName": "Pauri Garhwal",
    "acNumber": 39,
    "acName": "Chaubattakhal",
    "partNumber": 153,
    "partName": "Sisai",
    "lat": 29.8320756,
    "lon": 79.0292029
  },
  {
    "partId": 4493,
    "stateCode": "S28",
    "stateName": "Uttarakhand",
    "districtCode": "S2812",
    "districtName": "Pauri Garhwal",
    "acNumber": 39,
    "acName": "Chaubattakhal",
    "partNumber": 154,
    "partName": "Kolari",
    "lat": 29.95697,
    "lon": 78.87772
  },
  {
    "partId": 4494,
    "stateCode": "S28",
    "stateName": "Uttarakhand",
    "districtCode": "S2812",
    "districtName": "Pauri Garhwal",
    "acNumber": 39,
    "acName": "Chaubattakhal",
    "partNumber": 155,
    "partName": "Nau",
    "lat": 29.954414,
    "lon": 78.8002109
  },
  {
    "partId": 4495,
    "stateCode": "S28",
    "stateName": "Uttarakhand",
    "districtCode": "S2812",
    "districtName": "Pauri Garhwal",
    "acNumber": 39,
    "acName": "Chaubattakhal",
    "partNumber": 156,
    "partName": "Seeli Talli",
    "lat": 29.95697,
    "lon": 78.87772
  },
  {
    "partId": 4496,
    "stateCode": "S28",
    "stateName": "Uttarakhand",
    "districtCode": "S2812",
    "districtName": "Pauri Garhwal",
    "acNumber": 39,
    "acName": "Chaubattakhal",
    "partNumber": 157,
    "partName": "Jamriya Seeli Malli",
    "lat": 29.95697,
    "lon": 78.87772
  },
  {
    "partId": 4497,
    "stateCode": "S28",
    "stateName": "Uttarakhand",
    "districtCode": "S2812",
    "districtName": "Pauri Garhwal",
    "acNumber": 39,
    "acName": "Chaubattakhal",
    "partNumber": 158,
    "partName": "Thakulsari",
    "lat": 29.95697,
    "lon": 78.87772
  },
  {
    "partId": 4498,
    "stateCode": "S28",
    "stateName": "Uttarakhand",
    "districtCode": "S2812",
    "districtName": "Pauri Garhwal",
    "acNumber": 39,
    "acName": "Chaubattakhal",
    "partNumber": 159,
    "partName": "Divolikhal",
    "lat": 29.8473168,
    "lon": 78.70704792061838
  },
  {
    "partId": 4499,
    "stateCode": "S28",
    "stateName": "Uttarakhand",
    "districtCode": "S2812",
    "districtName": "Pauri Garhwal",
    "acNumber": 39,
    "acName": "Chaubattakhal",
    "partNumber": 160,
    "partName": "Kotha",
    "lat": 29.8473168,
    "lon": 78.70704792061838
  },
  {
    "partId": 4500,
    "stateCode": "S28",
    "stateName": "Uttarakhand",
    "districtCode": "S2812",
    "districtName": "Pauri Garhwal",
    "acNumber": 39,
    "acName": "Chaubattakhal",
    "partNumber": 161,
    "partName": "Gweenkhal",
    "lat": 29.95697,
    "lon": 78.87772
  },
  {
    "partId": 4501,
    "stateCode": "S28",
    "stateName": "Uttarakhand",
    "districtCode": "S2812",
    "districtName": "Pauri Garhwal",
    "acNumber": 39,
    "acName": "Chaubattakhal",
    "partNumber": 162,
    "partName": "Kothila (Gujiya Mahadev)",
    "lat": 29.95697,
    "lon": 78.87772
  },
  {
    "partId": 4636,
    "stateCode": "S28",
    "stateName": "Uttarakhand",
    "districtCode": "S2812",
    "districtName": "Pauri Garhwal",
    "acNumber": 41,
    "acName": "Kotdwar",
    "partNumber": 1,
    "partName": "Shivpur-1 Room No 1",
    "lat": 29.7459823,
    "lon": 78.5201358
  },
  {
    "partId": 4637,
    "stateCode": "S28",
    "stateName": "Uttarakhand",
    "districtCode": "S2812",
    "districtName": "Pauri Garhwal",
    "acNumber": 41,
    "acName": "Kotdwar",
    "partNumber": 2,
    "partName": "Shivpur-2 Room No 2",
    "lat": 29.7459823,
    "lon": 78.5201358
  },
  {
    "partId": 4638,
    "stateCode": "S28",
    "stateName": "Uttarakhand",
    "districtCode": "S2812",
    "districtName": "Pauri Garhwal",
    "acNumber": 41,
    "acName": "Kotdwar",
    "partNumber": 3,
    "partName": "Shivpur-3 Room No 1",
    "lat": 29.7459823,
    "lon": 78.5201358
  },
  {
    "partId": 4639,
    "stateCode": "S28",
    "stateName": "Uttarakhand",
    "districtCode": "S2812",
    "districtName": "Pauri Garhwal",
    "acNumber": 41,
    "acName": "Kotdwar",
    "partNumber": 4,
    "partName": "Shivpur-4 Room No 2",
    "lat": 29.8473168,
    "lon": 78.70704792061838
  },
  {
    "partId": 4640,
    "stateCode": "S28",
    "stateName": "Uttarakhand",
    "districtCode": "S2812",
    "districtName": "Pauri Garhwal",
    "acNumber": 41,
    "acName": "Kotdwar",
    "partNumber": 5,
    "partName": "Shivpur-5 Room No 3",
    "lat": 29.7459823,
    "lon": 78.5201358
  },
  {
    "partId": 4641,
    "stateCode": "S28",
    "stateName": "Uttarakhand",
    "districtCode": "S2812",
    "districtName": "Pauri Garhwal",
    "acNumber": 41,
    "acName": "Kotdwar",
    "partNumber": 6,
    "partName": "Lalpur-1 (South Wing) Room No.1",
    "lat": 29.8473168,
    "lon": 78.70704792061838
  },
  {
    "partId": 4642,
    "stateCode": "S28",
    "stateName": "Uttarakhand",
    "districtCode": "S2812",
    "districtName": "Pauri Garhwal",
    "acNumber": 41,
    "acName": "Kotdwar",
    "partNumber": 7,
    "partName": "Lalpur-2 (North Wing) Room No.2",
    "lat": 29.7459823,
    "lon": 78.5201358
  },
  {
    "partId": 4669,
    "stateCode": "S28",
    "stateName": "Uttarakhand",
    "districtCode": "S2812",
    "districtName": "Pauri Garhwal",
    "acNumber": 41,
    "acName": "Kotdwar",
    "partNumber": 8,
    "partName": "Dhruvpur-1",
    "lat": 29.7459823,
    "lon": 78.5201358
  },
  {
    "partId": 4670,
    "stateCode": "S28",
    "stateName": "Uttarakhand",
    "districtCode": "S2812",
    "districtName": "Pauri Garhwal",
    "acNumber": 41,
    "acName": "Kotdwar",
    "partNumber": 9,
    "partName": "Dhruvpur-2",
    "lat": 29.7459823,
    "lon": 78.5201358
  },
  {
    "partId": 4663,
    "stateCode": "S28",
    "stateName": "Uttarakhand",
    "districtCode": "S2812",
    "districtName": "Pauri Garhwal",
    "acNumber": 41,
    "acName": "Kotdwar",
    "partNumber": 10,
    "partName": "Manpur-1 (East Wing) Room No-1",
    "lat": 29.7459823,
    "lon": 78.5201358
  },
  {
    "partId": 4664,
    "stateCode": "S28",
    "stateName": "Uttarakhand",
    "districtCode": "S2812",
    "districtName": "Pauri Garhwal",
    "acNumber": 41,
    "acName": "Kotdwar",
    "partNumber": 11,
    "partName": "Manpur-2 (West Wing) Room No-2",
    "lat": 29.8473168,
    "lon": 78.70704792061838
  },
  {
    "partId": 4665,
    "stateCode": "S28",
    "stateName": "Uttarakhand",
    "districtCode": "S2812",
    "districtName": "Pauri Garhwal",
    "acNumber": 41,
    "acName": "Kotdwar",
    "partNumber": 12,
    "partName": "Manpur-3 (North Wing) Room No-3",
    "lat": 29.7459823,
    "lon": 78.5201358
  },
  {
    "partId": 4666,
    "stateCode": "S28",
    "stateName": "Uttarakhand",
    "districtCode": "S2812",
    "districtName": "Pauri Garhwal",
    "acNumber": 41,
    "acName": "Kotdwar",
    "partNumber": 13,
    "partName": "Manpur-4 (South Wing) Room No-4",
    "lat": 29.7459823,
    "lon": 78.5201358
  },
  {
    "partId": 4646,
    "stateCode": "S28",
    "stateName": "Uttarakhand",
    "districtCode": "S2812",
    "districtName": "Pauri Garhwal",
    "acNumber": 41,
    "acName": "Kotdwar",
    "partNumber": 14,
    "partName": "Padampur Sukhro-1 Room No-1",
    "lat": 29.7459823,
    "lon": 78.5201358
  },
  {
    "partId": 4654,
    "stateCode": "S28",
    "stateName": "Uttarakhand",
    "districtCode": "S2812",
    "districtName": "Pauri Garhwal",
    "acNumber": 41,
    "acName": "Kotdwar",
    "partNumber": 15,
    "partName": "Padampur Sukhro-2 Room No 2",
    "lat": 29.7459823,
    "lon": 78.5201358
  },
  {
    "partId": 4655,
    "stateCode": "S28",
    "stateName": "Uttarakhand",
    "districtCode": "S2812",
    "districtName": "Pauri Garhwal",
    "acNumber": 41,
    "acName": "Kotdwar",
    "partNumber": 16,
    "partName": "Padampur Sukhro-3 Room No-3",
    "lat": 29.7459823,
    "lon": 78.5201358
  },
  {
    "partId": 4656,
    "stateCode": "S28",
    "stateName": "Uttarakhand",
    "districtCode": "S2812",
    "districtName": "Pauri Garhwal",
    "acNumber": 41,
    "acName": "Kotdwar",
    "partNumber": 17,
    "partName": "Shibbunagar -1 Room No 4",
    "lat": 29.7459823,
    "lon": 78.5201358
  },
  {
    "partId": 4645,
    "stateCode": "S28",
    "stateName": "Uttarakhand",
    "districtCode": "S2812",
    "districtName": "Pauri Garhwal",
    "acNumber": 41,
    "acName": "Kotdwar",
    "partNumber": 18,
    "partName": "Padampur Sukhro-4  Room No. 1",
    "lat": 29.7459823,
    "lon": 78.5201358
  },
  {
    "partId": 4647,
    "stateCode": "S28",
    "stateName": "Uttarakhand",
    "districtCode": "S2812",
    "districtName": "Pauri Garhwal",
    "acNumber": 41,
    "acName": "Kotdwar",
    "partNumber": 19,
    "partName": "Padampur Sukhro-5  Room No. 2",
    "lat": 29.7459823,
    "lon": 78.5201358
  },
  {
    "partId": 4643,
    "stateCode": "S28",
    "stateName": "Uttarakhand",
    "districtCode": "S2812",
    "districtName": "Pauri Garhwal",
    "acNumber": 41,
    "acName": "Kotdwar",
    "partNumber": 20,
    "partName": "Padampur Sukhro-6  Room No. 1",
    "lat": 29.7459823,
    "lon": 78.5201358
  },
  {
    "partId": 4644,
    "stateCode": "S28",
    "stateName": "Uttarakhand",
    "districtCode": "S2812",
    "districtName": "Pauri Garhwal",
    "acNumber": 41,
    "acName": "Kotdwar",
    "partNumber": 21,
    "partName": "Padampur Sukhro-7  Room No. 2",
    "lat": 29.7459823,
    "lon": 78.5201358
  },
  {
    "partId": 4652,
    "stateCode": "S28",
    "stateName": "Uttarakhand",
    "districtCode": "S2812",
    "districtName": "Pauri Garhwal",
    "acNumber": 41,
    "acName": "Kotdwar",
    "partNumber": 22,
    "partName": "Padampur Sukhro-8 Room No 3",
    "lat": 29.7459823,
    "lon": 78.5201358
  },
  {
    "partId": 4653,
    "stateCode": "S28",
    "stateName": "Uttarakhand",
    "districtCode": "S2812",
    "districtName": "Pauri Garhwal",
    "acNumber": 41,
    "acName": "Kotdwar",
    "partNumber": 23,
    "partName": "Padampur Sukhro-9 Room No 4",
    "lat": 29.7459823,
    "lon": 78.5201358
  },
  {
    "partId": 4667,
    "stateCode": "S28",
    "stateName": "Uttarakhand",
    "districtCode": "S2812",
    "districtName": "Pauri Garhwal",
    "acNumber": 41,
    "acName": "Kotdwar",
    "partNumber": 24,
    "partName": "Simalchaur-1 (East Wing) Room No 1",
    "lat": 29.7459823,
    "lon": 78.5201358
  },
  {
    "partId": 4668,
    "stateCode": "S28",
    "stateName": "Uttarakhand",
    "districtCode": "S2812",
    "districtName": "Pauri Garhwal",
    "acNumber": 41,
    "acName": "Kotdwar",
    "partNumber": 25,
    "partName": "Simalchaur-2 (West Wing) Room No 2",
    "lat": 29.7459823,
    "lon": 78.5201358
  },
  {
    "partId": 4660,
    "stateCode": "S28",
    "stateName": "Uttarakhand",
    "districtCode": "S2812",
    "districtName": "Pauri Garhwal",
    "acNumber": 41,
    "acName": "Kotdwar",
    "partNumber": 26,
    "partName": "Balbhadrapur-1 Room No- 1",
    "lat": 29.8473168,
    "lon": 78.70704792061838
  },
  {
    "partId": 4661,
    "stateCode": "S28",
    "stateName": "Uttarakhand",
    "districtCode": "S2812",
    "districtName": "Pauri Garhwal",
    "acNumber": 41,
    "acName": "Kotdwar",
    "partNumber": 27,
    "partName": "Balbhadrapur-2 Room No- 3",
    "lat": 29.7459823,
    "lon": 78.5201358
  },
  {
    "partId": 4662,
    "stateCode": "S28",
    "stateName": "Uttarakhand",
    "districtCode": "S2812",
    "districtName": "Pauri Garhwal",
    "acNumber": 41,
    "acName": "Kotdwar",
    "partNumber": 28,
    "partName": "Balbhadrapur-3 Room No- 2",
    "lat": 29.7459823,
    "lon": 78.5201358
  },
  {
    "partId": 4658,
    "stateCode": "S28",
    "stateName": "Uttarakhand",
    "districtCode": "S2812",
    "districtName": "Pauri Garhwal",
    "acNumber": 41,
    "acName": "Kotdwar",
    "partNumber": 29,
    "partName": "Shibbunagar-2 (South Wing) Room No 1",
    "lat": 29.7459823,
    "lon": 78.5201358
  },
  {
    "partId": 4659,
    "stateCode": "S28",
    "stateName": "Uttarakhand",
    "districtCode": "S2812",
    "districtName": "Pauri Garhwal",
    "acNumber": 41,
    "acName": "Kotdwar",
    "partNumber": 30,
    "partName": "Shibbunagar-3 ( North Wing) Room No 2",
    "lat": 29.7459823,
    "lon": 78.5201358
  },
  {
    "partId": 4657,
    "stateCode": "S28",
    "stateName": "Uttarakhand",
    "districtCode": "S2812",
    "districtName": "Pauri Garhwal",
    "acNumber": 41,
    "acName": "Kotdwar",
    "partNumber": 31,
    "partName": "Shibbunagar",
    "lat": 29.74258035,
    "lon": 78.49878845163717
  },
  {
    "partId": 4648,
    "stateCode": "S28",
    "stateName": "Uttarakhand",
    "districtCode": "S2812",
    "districtName": "Pauri Garhwal",
    "acNumber": 41,
    "acName": "Kotdwar",
    "partNumber": 32,
    "partName": "Ratanpur Sukhro Devi-1 (East) Room No. 1",
    "lat": 29.7459823,
    "lon": 78.5201358
  },
  {
    "partId": 4649,
    "stateCode": "S28",
    "stateName": "Uttarakhand",
    "districtCode": "S2812",
    "districtName": "Pauri Garhwal",
    "acNumber": 41,
    "acName": "Kotdwar",
    "partNumber": 33,
    "partName": "Ratanpur Sukhro Devi-2(West) Room No. 2",
    "lat": 29.7459823,
    "lon": 78.5201358
  },
  {
    "partId": 4675,
    "stateCode": "S28",
    "stateName": "Uttarakhand",
    "districtCode": "S2812",
    "districtName": "Pauri Garhwal",
    "acNumber": 41,
    "acName": "Kotdwar",
    "partNumber": 34,
    "partName": "Sitabpur-1 Room No-1",
    "lat": 29.7459823,
    "lon": 78.5201358
  },
  {
    "partId": 4676,
    "stateCode": "S28",
    "stateName": "Uttarakhand",
    "districtCode": "S2812",
    "districtName": "Pauri Garhwal",
    "acNumber": 41,
    "acName": "Kotdwar",
    "partNumber": 35,
    "partName": "Sitabpur-2 Room No-2",
    "lat": 29.7459823,
    "lon": 78.5201358
  },
  {
    "partId": 4677,
    "stateCode": "S28",
    "stateName": "Uttarakhand",
    "districtCode": "S2812",
    "districtName": "Pauri Garhwal",
    "acNumber": 41,
    "acName": "Kotdwar",
    "partNumber": 36,
    "partName": "Sitabpur-3",
    "lat": 29.7459823,
    "lon": 78.5201358
  },
  {
    "partId": 4671,
    "stateCode": "S28",
    "stateName": "Uttarakhand",
    "districtCode": "S2812",
    "districtName": "Pauri Garhwal",
    "acNumber": 41,
    "acName": "Kotdwar",
    "partNumber": 37,
    "partName": "Balasaur-1 Room No-1",
    "lat": 29.7459823,
    "lon": 78.5201358
  },
  {
    "partId": 4672,
    "stateCode": "S28",
    "stateName": "Uttarakhand",
    "districtCode": "S2812",
    "districtName": "Pauri Garhwal",
    "acNumber": 41,
    "acName": "Kotdwar",
    "partNumber": 38,
    "partName": "Balasaur-2 Room No-2",
    "lat": 29.8473168,
    "lon": 78.70704792061838
  },
  {
    "partId": 4673,
    "stateCode": "S28",
    "stateName": "Uttarakhand",
    "districtCode": "S2812",
    "districtName": "Pauri Garhwal",
    "acNumber": 41,
    "acName": "Kotdwar",
    "partNumber": 39,
    "partName": "Balasaur-3 Room No-3",
    "lat": 29.7459823,
    "lon": 78.5201358
  },
  {
    "partId": 4678,
    "stateCode": "S28",
    "stateName": "Uttarakhand",
    "districtCode": "S2812",
    "districtName": "Pauri Garhwal",
    "acNumber": 41,
    "acName": "Kotdwar",
    "partNumber": 40,
    "partName": "Balasaur-4 Room No-4",
    "lat": 29.7459823,
    "lon": 78.5201358
  },
  {
    "partId": 4650,
    "stateCode": "S28",
    "stateName": "Uttarakhand",
    "districtCode": "S2812",
    "districtName": "Pauri Garhwal",
    "acNumber": 41,
    "acName": "Kotdwar",
    "partNumber": 41,
    "partName": "Harsinghpur-1 (East) Room No 1",
    "lat": 29.7459823,
    "lon": 78.5201358
  },
  {
    "partId": 4651,
    "stateCode": "S28",
    "stateName": "Uttarakhand",
    "districtCode": "S2812",
    "districtName": "Pauri Garhwal",
    "acNumber": 41,
    "acName": "Kotdwar",
    "partNumber": 42,
    "partName": "Harsinghpur-2 (West) Room No 2",
    "lat": 29.7459823,
    "lon": 78.5201358
  },
  {
    "partId": 4674,
    "stateCode": "S28",
    "stateName": "Uttarakhand",
    "districtCode": "S2812",
    "districtName": "Pauri Garhwal",
    "acNumber": 41,
    "acName": "Kotdwar",
    "partNumber": 43,
    "partName": "Kaudiya",
    "lat": 29.7459823,
    "lon": 78.5201358
  },
  {
    "partId": 4679,
    "stateCode": "S28",
    "stateName": "Uttarakhand",
    "districtCode": "S2812",
    "districtName": "Pauri Garhwal",
    "acNumber": 41,
    "acName": "Kotdwar",
    "partNumber": 44,
    "partName": "Janki Nagar-1 Room No-1",
    "lat": 29.7459823,
    "lon": 78.5201358
  },
  {
    "partId": 4689,
    "stateCode": "S28",
    "stateName": "Uttarakhand",
    "districtCode": "S2812",
    "districtName": "Pauri Garhwal",
    "acNumber": 41,
    "acName": "Kotdwar",
    "partNumber": 45,
    "partName": "Janki Nagar-2 Room No-2",
    "lat": 29.7459823,
    "lon": 78.5201358
  },
  {
    "partId": 4690,
    "stateCode": "S28",
    "stateName": "Uttarakhand",
    "districtCode": "S2812",
    "districtName": "Pauri Garhwal",
    "acNumber": 41,
    "acName": "Kotdwar",
    "partNumber": 46,
    "partName": "Janki Nagar-3 Room No-3",
    "lat": 29.7459823,
    "lon": 78.5201358
  },
  {
    "partId": 4706,
    "stateCode": "S28",
    "stateName": "Uttarakhand",
    "districtCode": "S2812",
    "districtName": "Pauri Garhwal",
    "acNumber": 41,
    "acName": "Kotdwar",
    "partNumber": 47,
    "partName": "Nayagaun Kotdwar",
    "lat": 29.7459823,
    "lon": 78.5201358
  },
  {
    "partId": 4680,
    "stateCode": "S28",
    "stateName": "Uttarakhand",
    "districtCode": "S2812",
    "districtName": "Pauri Garhwal",
    "acNumber": 41,
    "acName": "Kotdwar",
    "partNumber": 48,
    "partName": "Kashirampur B Najibabad Road B-1 Room No-1",
    "lat": 29.7459823,
    "lon": 78.5201358
  },
  {
    "partId": 4681,
    "stateCode": "S28",
    "stateName": "Uttarakhand",
    "districtCode": "S2812",
    "districtName": "Pauri Garhwal",
    "acNumber": 41,
    "acName": "Kotdwar",
    "partNumber": 49,
    "partName": "Kashirampur B Najibabad Road B-2 Room No-2",
    "lat": 29.8473168,
    "lon": 78.70704792061838
  },
  {
    "partId": 4682,
    "stateCode": "S28",
    "stateName": "Uttarakhand",
    "districtCode": "S2812",
    "districtName": "Pauri Garhwal",
    "acNumber": 41,
    "acName": "Kotdwar",
    "partNumber": 50,
    "partName": "Kotdwar Nagar Area No 6",
    "lat": 29.7459823,
    "lon": 78.5201358
  },
  {
    "partId": 4683,
    "stateCode": "S28",
    "stateName": "Uttarakhand",
    "districtCode": "S2812",
    "districtName": "Pauri Garhwal",
    "acNumber": 41,
    "acName": "Kotdwar",
    "partNumber": 51,
    "partName": "Kotdwar-1 Room No-1",
    "lat": 29.7459823,
    "lon": 78.5201358
  },
  {
    "partId": 4684,
    "stateCode": "S28",
    "stateName": "Uttarakhand",
    "districtCode": "S2812",
    "districtName": "Pauri Garhwal",
    "acNumber": 41,
    "acName": "Kotdwar",
    "partNumber": 52,
    "partName": "Kotdwar-2 Room No-2",
    "lat": 29.7459823,
    "lon": 78.5201358
  },
  {
    "partId": 4685,
    "stateCode": "S28",
    "stateName": "Uttarakhand",
    "districtCode": "S2812",
    "districtName": "Pauri Garhwal",
    "acNumber": 41,
    "acName": "Kotdwar",
    "partNumber": 53,
    "partName": "Kotdwar-3 Room No-3",
    "lat": 29.7459823,
    "lon": 78.5201358
  },
  {
    "partId": 4686,
    "stateCode": "S28",
    "stateName": "Uttarakhand",
    "districtCode": "S2812",
    "districtName": "Pauri Garhwal",
    "acNumber": 41,
    "acName": "Kotdwar",
    "partNumber": 54,
    "partName": "Kotdwar-4 Room No-1",
    "lat": 29.7459823,
    "lon": 78.5201358
  },
  {
    "partId": 4687,
    "stateCode": "S28",
    "stateName": "Uttarakhand",
    "districtCode": "S2812",
    "districtName": "Pauri Garhwal",
    "acNumber": 41,
    "acName": "Kotdwar",
    "partNumber": 55,
    "partName": "Kotdwar-5 Room No-2",
    "lat": 29.7459823,
    "lon": 78.5201358
  },
  {
    "partId": 4688,
    "stateCode": "S28",
    "stateName": "Uttarakhand",
    "districtCode": "S2812",
    "districtName": "Pauri Garhwal",
    "acNumber": 41,
    "acName": "Kotdwar",
    "partNumber": 56,
    "partName": "Kotdwar-6 Room No-3",
    "lat": 29.7459823,
    "lon": 78.5201358
  },
  {
    "partId": 4691,
    "stateCode": "S28",
    "stateName": "Uttarakhand",
    "districtCode": "S2812",
    "districtName": "Pauri Garhwal",
    "acNumber": 41,
    "acName": "Kotdwar",
    "partNumber": 57,
    "partName": "Kotdwar-7 Room No-4",
    "lat": 29.7459823,
    "lon": 78.5201358
  },
  {
    "partId": 4696,
    "stateCode": "S28",
    "stateName": "Uttarakhand",
    "districtCode": "S2812",
    "districtName": "Pauri Garhwal",
    "acNumber": 41,
    "acName": "Kotdwar",
    "partNumber": 58,
    "partName": "Jaunpur-1",
    "lat": 29.7459823,
    "lon": 78.5201358
  },
  {
    "partId": 4703,
    "stateCode": "S28",
    "stateName": "Uttarakhand",
    "districtCode": "S2812",
    "districtName": "Pauri Garhwal",
    "acNumber": 41,
    "acName": "Kotdwar",
    "partNumber": 59,
    "partName": "Aampadav Kotdwar-1 Room No-1",
    "lat": 29.7459823,
    "lon": 78.5201358
  },
  {
    "partId": 4704,
    "stateCode": "S28",
    "stateName": "Uttarakhand",
    "districtCode": "S2812",
    "districtName": "Pauri Garhwal",
    "acNumber": 41,
    "acName": "Kotdwar",
    "partNumber": 60,
    "partName": "Aampadav Kotdwar-2 Room No-2",
    "lat": 29.7459823,
    "lon": 78.5201358
  },
  {
    "partId": 4705,
    "stateCode": "S28",
    "stateName": "Uttarakhand",
    "districtCode": "S2812",
    "districtName": "Pauri Garhwal",
    "acNumber": 41,
    "acName": "Kotdwar",
    "partNumber": 61,
    "partName": "Aampadav Kotdwar-3 Room No-3",
    "lat": 29.7459823,
    "lon": 78.5201358
  },
  {
    "partId": 4694,
    "stateCode": "S28",
    "stateName": "Uttarakhand",
    "districtCode": "S2812",
    "districtName": "Pauri Garhwal",
    "acNumber": 41,
    "acName": "Kotdwar",
    "partNumber": 62,
    "partName": "Jaunpur-2",
    "lat": 29.8473168,
    "lon": 78.70704792061838
  },
  {
    "partId": 4692,
    "stateCode": "S28",
    "stateName": "Uttarakhand",
    "districtCode": "S2812",
    "districtName": "Pauri Garhwal",
    "acNumber": 41,
    "acName": "Kotdwar",
    "partNumber": 63,
    "partName": "Apar Kalabarh-1 North Wing",
    "lat": 29.7459823,
    "lon": 78.5201358
  },
  {
    "partId": 4693,
    "stateCode": "S28",
    "stateName": "Uttarakhand",
    "districtCode": "S2812",
    "districtName": "Pauri Garhwal",
    "acNumber": 41,
    "acName": "Kotdwar",
    "partNumber": 64,
    "partName": "Apar Kalabarh-2 Kalabad",
    "lat": 29.7459823,
    "lon": 78.5201358
  },
  {
    "partId": 4695,
    "stateCode": "S28",
    "stateName": "Uttarakhand",
    "districtCode": "S2812",
    "districtName": "Pauri Garhwal",
    "acNumber": 41,
    "acName": "Kotdwar",
    "partNumber": 65,
    "partName": "Lower Kalabad",
    "lat": 29.8473168,
    "lon": 78.70704792061838
  },
  {
    "partId": 4697,
    "stateCode": "S28",
    "stateName": "Uttarakhand",
    "districtCode": "S2812",
    "districtName": "Pauri Garhwal",
    "acNumber": 41,
    "acName": "Kotdwar",
    "partNumber": 66,
    "partName": "Jaunpur-3 Room No-1",
    "lat": 29.7459823,
    "lon": 78.5201358
  },
  {
    "partId": 4698,
    "stateCode": "S28",
    "stateName": "Uttarakhand",
    "districtCode": "S2812",
    "districtName": "Pauri Garhwal",
    "acNumber": 41,
    "acName": "Kotdwar",
    "partNumber": 67,
    "partName": "Kotdwar-12 Room No-2",
    "lat": 29.7459823,
    "lon": 78.5201358
  },
  {
    "partId": 4700,
    "stateCode": "S28",
    "stateName": "Uttarakhand",
    "districtCode": "S2812",
    "districtName": "Pauri Garhwal",
    "acNumber": 41,
    "acName": "Kotdwar",
    "partNumber": 68,
    "partName": "Kotdwar-13 Room No-3",
    "lat": 29.7459823,
    "lon": 78.5201358
  },
  {
    "partId": 4701,
    "stateCode": "S28",
    "stateName": "Uttarakhand",
    "districtCode": "S2812",
    "districtName": "Pauri Garhwal",
    "acNumber": 41,
    "acName": "Kotdwar",
    "partNumber": 69,
    "partName": "Garighat Kotdwar-1 Room No-1",
    "lat": 29.7459823,
    "lon": 78.5201358
  },
  {
    "partId": 4702,
    "stateCode": "S28",
    "stateName": "Uttarakhand",
    "districtCode": "S2812",
    "districtName": "Pauri Garhwal",
    "acNumber": 41,
    "acName": "Kotdwar",
    "partNumber": 70,
    "partName": "Garighat Kotdwar-2 Room No-2",
    "lat": 29.7459823,
    "lon": 78.5201358
  },
  {
    "partId": 4699,
    "stateCode": "S28",
    "stateName": "Uttarakhand",
    "districtCode": "S2812",
    "districtName": "Pauri Garhwal",
    "acNumber": 41,
    "acName": "Kotdwar",
    "partNumber": 71,
    "partName": "Giwai Garighat Kotdwar",
    "lat": 29.7459823,
    "lon": 78.5201358
  },
  {
    "partId": 4711,
    "stateCode": "S28",
    "stateName": "Uttarakhand",
    "districtCode": "S2812",
    "districtName": "Pauri Garhwal",
    "acNumber": 41,
    "acName": "Kotdwar",
    "partNumber": 72,
    "partName": "Malgodam Road Kotdwar-1 Room No-1",
    "lat": 29.7459823,
    "lon": 78.5201358
  },
  {
    "partId": 4712,
    "stateCode": "S28",
    "stateName": "Uttarakhand",
    "districtCode": "S2812",
    "districtName": "Pauri Garhwal",
    "acNumber": 41,
    "acName": "Kotdwar",
    "partNumber": 73,
    "partName": "Malgodam Road Kotdwar-2 Room No-2",
    "lat": 29.7459823,
    "lon": 78.5201358
  },
  {
    "partId": 4713,
    "stateCode": "S28",
    "stateName": "Uttarakhand",
    "districtCode": "S2812",
    "districtName": "Pauri Garhwal",
    "acNumber": 41,
    "acName": "Kotdwar",
    "partNumber": 74,
    "partName": "Malgodam Road kotdwar-3",
    "lat": 29.8473168,
    "lon": 78.70704792061838
  },
  {
    "partId": 4709,
    "stateCode": "S28",
    "stateName": "Uttarakhand",
    "districtCode": "S2812",
    "districtName": "Pauri Garhwal",
    "acNumber": 41,
    "acName": "Kotdwar",
    "partNumber": 75,
    "partName": "Garighat-1 Room No-1",
    "lat": 29.7459823,
    "lon": 78.5201358
  },
  {
    "partId": 4710,
    "stateCode": "S28",
    "stateName": "Uttarakhand",
    "districtCode": "S2812",
    "districtName": "Pauri Garhwal",
    "acNumber": 41,
    "acName": "Kotdwar",
    "partNumber": 76,
    "partName": "Garighat-2 Room No-2",
    "lat": 29.7459823,
    "lon": 78.5201358
  },
  {
    "partId": 4707,
    "stateCode": "S28",
    "stateName": "Uttarakhand",
    "districtCode": "S2812",
    "districtName": "Pauri Garhwal",
    "acNumber": 41,
    "acName": "Kotdwar",
    "partNumber": 77,
    "partName": "Malgodam Road-1 (East) Room No-1",
    "lat": 29.7459823,
    "lon": 78.5201358
  },
  {
    "partId": 4708,
    "stateCode": "S28",
    "stateName": "Uttarakhand",
    "districtCode": "S2812",
    "districtName": "Pauri Garhwal",
    "acNumber": 41,
    "acName": "Kotdwar",
    "partNumber": 78,
    "partName": "Malgodam Road-2 (West) Room No-2",
    "lat": 29.7459823,
    "lon": 78.5201358
  },
  {
    "partId": 4719,
    "stateCode": "S28",
    "stateName": "Uttarakhand",
    "districtCode": "S2812",
    "districtName": "Pauri Garhwal",
    "acNumber": 41,
    "acName": "Kotdwar",
    "partNumber": 79,
    "partName": "Grastanganj",
    "lat": 29.7459823,
    "lon": 78.5201358
  },
  {
    "partId": 4714,
    "stateCode": "S28",
    "stateName": "Uttarakhand",
    "districtCode": "S2812",
    "districtName": "Pauri Garhwal",
    "acNumber": 41,
    "acName": "Kotdwar",
    "partNumber": 80,
    "partName": "Kumbhichaur-1 Room No-1",
    "lat": 29.7459823,
    "lon": 78.5201358
  },
  {
    "partId": 4715,
    "stateCode": "S28",
    "stateName": "Uttarakhand",
    "districtCode": "S2812",
    "districtName": "Pauri Garhwal",
    "acNumber": 41,
    "acName": "Kotdwar",
    "partNumber": 81,
    "partName": "Jeetpur (Kumbhichaur) Room No-1",
    "lat": 29.7459823,
    "lon": 78.5201358
  },
  {
    "partId": 4716,
    "stateCode": "S28",
    "stateName": "Uttarakhand",
    "districtCode": "S2812",
    "districtName": "Pauri Garhwal",
    "acNumber": 41,
    "acName": "Kotdwar",
    "partNumber": 82,
    "partName": "Vishanpur (Kumbhichaur) Room No-2",
    "lat": 29.7459823,
    "lon": 78.5201358
  },
  {
    "partId": 4717,
    "stateCode": "S28",
    "stateName": "Uttarakhand",
    "districtCode": "S2812",
    "districtName": "Pauri Garhwal",
    "acNumber": 41,
    "acName": "Kotdwar",
    "partNumber": 83,
    "partName": "Ratanpur-1 (Kumbhichaur) Room No-2",
    "lat": 29.7459823,
    "lon": 78.5201358
  },
  {
    "partId": 4718,
    "stateCode": "S28",
    "stateName": "Uttarakhand",
    "districtCode": "S2812",
    "districtName": "Pauri Garhwal",
    "acNumber": 41,
    "acName": "Kotdwar",
    "partNumber": 84,
    "partName": "Ratanpur-2 (Kumbhichaur) Room No-3",
    "lat": 29.8473168,
    "lon": 78.70704792061838
  },
  {
    "partId": 4720,
    "stateCode": "S28",
    "stateName": "Uttarakhand",
    "districtCode": "S2812",
    "districtName": "Pauri Garhwal",
    "acNumber": 41,
    "acName": "Kotdwar",
    "partNumber": 85,
    "partName": "Lalpani-1 Room No-1",
    "lat": 29.7459823,
    "lon": 78.5201358
  },
  {
    "partId": 4721,
    "stateCode": "S28",
    "stateName": "Uttarakhand",
    "districtCode": "S2812",
    "districtName": "Pauri Garhwal",
    "acNumber": 41,
    "acName": "Kotdwar",
    "partNumber": 86,
    "partName": "Lalpani-2 Room No-2",
    "lat": 29.7459823,
    "lon": 78.5201358
  },
  {
    "partId": 4722,
    "stateCode": "S28",
    "stateName": "Uttarakhand",
    "districtCode": "S2812",
    "districtName": "Pauri Garhwal",
    "acNumber": 41,
    "acName": "Kotdwar",
    "partNumber": 87,
    "partName": "Saneh Room No-1",
    "lat": 29.7459823,
    "lon": 78.5201358
  },
  {
    "partId": 4723,
    "stateCode": "S28",
    "stateName": "Uttarakhand",
    "districtCode": "S2812",
    "districtName": "Pauri Garhwal",
    "acNumber": 41,
    "acName": "Kotdwar",
    "partNumber": 88,
    "partName": "Kothridhak",
    "lat": 29.8473168,
    "lon": 78.70704792061838
  },
  {
    "partId": 4762,
    "stateCode": "S28",
    "stateName": "Uttarakhand",
    "districtCode": "S2812",
    "districtName": "Pauri Garhwal",
    "acNumber": 41,
    "acName": "Kotdwar",
    "partNumber": 89,
    "partName": "Nimbuchaur-1 (Ghamandpur) Room No-1",
    "lat": 29.7459823,
    "lon": 78.5201358
  },
  {
    "partId": 4763,
    "stateCode": "S28",
    "stateName": "Uttarakhand",
    "districtCode": "S2812",
    "districtName": "Pauri Garhwal",
    "acNumber": 41,
    "acName": "Kotdwar",
    "partNumber": 90,
    "partName": "Nimbuchaur-2 (Ghamandpur) Room No-2",
    "lat": 29.7459823,
    "lon": 78.5201358
  },
  {
    "partId": 4764,
    "stateCode": "S28",
    "stateName": "Uttarakhand",
    "districtCode": "S2812",
    "districtName": "Pauri Garhwal",
    "acNumber": 41,
    "acName": "Kotdwar",
    "partNumber": 91,
    "partName": "Nimbuchaur-3 (Ghamandpur) Room No-3",
    "lat": 29.7459823,
    "lon": 78.5201358
  },
  {
    "partId": 4767,
    "stateCode": "S28",
    "stateName": "Uttarakhand",
    "districtCode": "S2812",
    "districtName": "Pauri Garhwal",
    "acNumber": 41,
    "acName": "Kotdwar",
    "partNumber": 92,
    "partName": "Satichaur",
    "lat": 29.8473168,
    "lon": 78.70704792061838
  },
  {
    "partId": 4768,
    "stateCode": "S28",
    "stateName": "Uttarakhand",
    "districtCode": "S2812",
    "districtName": "Pauri Garhwal",
    "acNumber": 41,
    "acName": "Kotdwar",
    "partNumber": 93,
    "partName": "Nandpur-1 Room No-1",
    "lat": 29.7459823,
    "lon": 78.5201358
  },
  {
    "partId": 4770,
    "stateCode": "S28",
    "stateName": "Uttarakhand",
    "districtCode": "S2812",
    "districtName": "Pauri Garhwal",
    "acNumber": 41,
    "acName": "Kotdwar",
    "partNumber": 94,
    "partName": "Ghamandpur-1 Room No-2",
    "lat": 29.7459823,
    "lon": 78.5201358
  },
  {
    "partId": 4771,
    "stateCode": "S28",
    "stateName": "Uttarakhand",
    "districtCode": "S2812",
    "districtName": "Pauri Garhwal",
    "acNumber": 41,
    "acName": "Kotdwar",
    "partNumber": 95,
    "partName": "Ghamandpur-2 Room No-3",
    "lat": 29.7459823,
    "lon": 78.5201358
  },
  {
    "partId": 4765,
    "stateCode": "S28",
    "stateName": "Uttarakhand",
    "districtCode": "S2812",
    "districtName": "Pauri Garhwal",
    "acNumber": 41,
    "acName": "Kotdwar",
    "partNumber": 96,
    "partName": "Mawakot-1 Room No-1",
    "lat": 29.7459823,
    "lon": 78.5201358
  },
  {
    "partId": 4766,
    "stateCode": "S28",
    "stateName": "Uttarakhand",
    "districtCode": "S2812",
    "districtName": "Pauri Garhwal",
    "acNumber": 41,
    "acName": "Kotdwar",
    "partNumber": 97,
    "partName": "Mawakot-2 Room No-2",
    "lat": 29.7459823,
    "lon": 78.5201358
  },
  {
    "partId": 4772,
    "stateCode": "S28",
    "stateName": "Uttarakhand",
    "districtCode": "S2812",
    "districtName": "Pauri Garhwal",
    "acNumber": 41,
    "acName": "Kotdwar",
    "partNumber": 98,
    "partName": "Mawakot-3",
    "lat": 29.7459823,
    "lon": 78.5201358
  },
  {
    "partId": 4769,
    "stateCode": "S28",
    "stateName": "Uttarakhand",
    "districtCode": "S2812",
    "districtName": "Pauri Garhwal",
    "acNumber": 41,
    "acName": "Kotdwar",
    "partNumber": 99,
    "partName": "Nandpur-2 Room No-1",
    "lat": 29.7459823,
    "lon": 78.5201358
  },
  {
    "partId": 4758,
    "stateCode": "S28",
    "stateName": "Uttarakhand",
    "districtCode": "S2812",
    "districtName": "Pauri Garhwal",
    "acNumber": 41,
    "acName": "Kotdwar",
    "partNumber": 100,
    "partName": "Padampur Motadhak-1 Room No-1",
    "lat": 29.7459823,
    "lon": 78.5201358
  },
  {
    "partId": 4759,
    "stateCode": "S28",
    "stateName": "Uttarakhand",
    "districtCode": "S2812",
    "districtName": "Pauri Garhwal",
    "acNumber": 41,
    "acName": "Kotdwar",
    "partNumber": 101,
    "partName": "Padampur Motadhak-2 Room No-2",
    "lat": 29.7459823,
    "lon": 78.5201358
  },
  {
    "partId": 4760,
    "stateCode": "S28",
    "stateName": "Uttarakhand",
    "districtCode": "S2812",
    "districtName": "Pauri Garhwal",
    "acNumber": 41,
    "acName": "Kotdwar",
    "partNumber": 102,
    "partName": "Padampur Motadhak-3 Room No-3",
    "lat": 29.7459823,
    "lon": 78.5201358
  },
  {
    "partId": 4761,
    "stateCode": "S28",
    "stateName": "Uttarakhand",
    "districtCode": "S2812",
    "districtName": "Pauri Garhwal",
    "acNumber": 41,
    "acName": "Kotdwar",
    "partNumber": 103,
    "partName": "Umravnagar Padampur Motadhak",
    "lat": 29.8473168,
    "lon": 78.70704792061838
  },
  {
    "partId": 4754,
    "stateCode": "S28",
    "stateName": "Uttarakhand",
    "districtCode": "S2812",
    "districtName": "Pauri Garhwal",
    "acNumber": 41,
    "acName": "Kotdwar",
    "partNumber": 104,
    "partName": "Durgapur-1 Room No-1",
    "lat": 29.7459823,
    "lon": 78.5201358
  },
  {
    "partId": 4755,
    "stateCode": "S28",
    "stateName": "Uttarakhand",
    "districtCode": "S2812",
    "districtName": "Pauri Garhwal",
    "acNumber": 41,
    "acName": "Kotdwar",
    "partNumber": 105,
    "partName": "Durgapur-2 Room No-2",
    "lat": 29.7459823,
    "lon": 78.5201358
  },
  {
    "partId": 4756,
    "stateCode": "S28",
    "stateName": "Uttarakhand",
    "districtCode": "S2812",
    "districtName": "Pauri Garhwal",
    "acNumber": 41,
    "acName": "Kotdwar",
    "partNumber": 106,
    "partName": "Khunibarh Room No-3",
    "lat": 29.7459823,
    "lon": 78.5201358
  },
  {
    "partId": 4757,
    "stateCode": "S28",
    "stateName": "Uttarakhand",
    "districtCode": "S2812",
    "districtName": "Pauri Garhwal",
    "acNumber": 41,
    "acName": "Kotdwar",
    "partNumber": 107,
    "partName": "Jiwanandpur Room No-4",
    "lat": 29.7459823,
    "lon": 78.5201358
  },
  {
    "partId": 4751,
    "stateCode": "S28",
    "stateName": "Uttarakhand",
    "districtCode": "S2812",
    "districtName": "Pauri Garhwal",
    "acNumber": 41,
    "acName": "Kotdwar",
    "partNumber": 108,
    "partName": "Shivrajpur-1 Room No-1",
    "lat": 29.7459823,
    "lon": 78.5201358
  },
  {
    "partId": 4752,
    "stateCode": "S28",
    "stateName": "Uttarakhand",
    "districtCode": "S2812",
    "districtName": "Pauri Garhwal",
    "acNumber": 41,
    "acName": "Kotdwar",
    "partNumber": 109,
    "partName": "Shivrajpur-2 Room No-2",
    "lat": 29.7459823,
    "lon": 78.5201358
  },
  {
    "partId": 4753,
    "stateCode": "S28",
    "stateName": "Uttarakhand",
    "districtCode": "S2812",
    "districtName": "Pauri Garhwal",
    "acNumber": 41,
    "acName": "Kotdwar",
    "partNumber": 110,
    "partName": "Devrampur (Shivrajpur) Room No-1",
    "lat": 29.7459823,
    "lon": 78.5201358
  },
  {
    "partId": 4741,
    "stateCode": "S28",
    "stateName": "Uttarakhand",
    "districtCode": "S2812",
    "districtName": "Pauri Garhwal",
    "acNumber": 41,
    "acName": "Kotdwar",
    "partNumber": 111,
    "partName": "Haldukhata-1 North Wing",
    "lat": 29.8473168,
    "lon": 78.70704792061838
  },
  {
    "partId": 4744,
    "stateCode": "S28",
    "stateName": "Uttarakhand",
    "districtCode": "S2812",
    "districtName": "Pauri Garhwal",
    "acNumber": 41,
    "acName": "Kotdwar",
    "partNumber": 112,
    "partName": "Haldukhata-2 South Wing",
    "lat": 29.7459823,
    "lon": 78.5201358
  },
  {
    "partId": 4742,
    "stateCode": "S28",
    "stateName": "Uttarakhand",
    "districtCode": "S2812",
    "districtName": "Pauri Garhwal",
    "acNumber": 41,
    "acName": "Kotdwar",
    "partNumber": 113,
    "partName": "Luthapur",
    "lat": 29.7459823,
    "lon": 78.5201358
  },
  {
    "partId": 4743,
    "stateCode": "S28",
    "stateName": "Uttarakhand",
    "districtCode": "S2812",
    "districtName": "Pauri Garhwal",
    "acNumber": 41,
    "acName": "Kotdwar",
    "partNumber": 114,
    "partName": "Jashodharpur",
    "lat": 29.7459823,
    "lon": 78.5201358
  },
  {
    "partId": 4745,
    "stateCode": "S28",
    "stateName": "Uttarakhand",
    "districtCode": "S2812",
    "districtName": "Pauri Garhwal",
    "acNumber": 41,
    "acName": "Kotdwar",
    "partNumber": 115,
    "partName": "Manpur(Kalalghati) Room No-1",
    "lat": 29.7459823,
    "lon": 78.5201358
  },
  {
    "partId": 4746,
    "stateCode": "S28",
    "stateName": "Uttarakhand",
    "districtCode": "S2812",
    "districtName": "Pauri Garhwal",
    "acNumber": 41,
    "acName": "Kotdwar",
    "partNumber": 116,
    "partName": "Lachampur(Kalalghati) Room No-2",
    "lat": 29.7459823,
    "lon": 78.5201358
  },
  {
    "partId": 4747,
    "stateCode": "S28",
    "stateName": "Uttarakhand",
    "districtCode": "S2812",
    "districtName": "Pauri Garhwal",
    "acNumber": 41,
    "acName": "Kotdwar",
    "partNumber": 117,
    "partName": "Maganpur(Kalalghati) Room No-3",
    "lat": 29.7459823,
    "lon": 78.5201358
  },
  {
    "partId": 4748,
    "stateCode": "S28",
    "stateName": "Uttarakhand",
    "districtCode": "S2812",
    "districtName": "Pauri Garhwal",
    "acNumber": 41,
    "acName": "Kotdwar",
    "partNumber": 118,
    "partName": "Trilokpur(Kalalghati) Room No-4",
    "lat": 29.7459823,
    "lon": 78.5201358
  },
  {
    "partId": 4749,
    "stateCode": "S28",
    "stateName": "Uttarakhand",
    "districtCode": "S2812",
    "districtName": "Pauri Garhwal",
    "acNumber": 41,
    "acName": "Kotdwar",
    "partNumber": 119,
    "partName": "Udayrampur(Kalalghati) Room No-1",
    "lat": 29.7459823,
    "lon": 78.5201358
  },
  {
    "partId": 4750,
    "stateCode": "S28",
    "stateName": "Uttarakhand",
    "districtCode": "S2812",
    "districtName": "Pauri Garhwal",
    "acNumber": 41,
    "acName": "Kotdwar",
    "partNumber": 120,
    "partName": "Udayrampur Nayawad (Kalalghati) Room No-2",
    "lat": 29.7459823,
    "lon": 78.5201358
  },
  {
    "partId": 4729,
    "stateCode": "S28",
    "stateName": "Uttarakhand",
    "districtCode": "S2812",
    "districtName": "Pauri Garhwal",
    "acNumber": 41,
    "acName": "Kotdwar",
    "partNumber": 121,
    "partName": "Ramdayalpur (Lokmanipur Sigaddi)-1",
    "lat": 29.7459823,
    "lon": 78.5201358
  },
  {
    "partId": 4730,
    "stateCode": "S28",
    "stateName": "Uttarakhand",
    "districtCode": "S2812",
    "districtName": "Pauri Garhwal",
    "acNumber": 41,
    "acName": "Kotdwar",
    "partNumber": 122,
    "partName": "Lokmanipur Sigaddi",
    "lat": 29.7459823,
    "lon": 78.5201358
  },
  {
    "partId": 4731,
    "stateCode": "S28",
    "stateName": "Uttarakhand",
    "districtCode": "S2812",
    "districtName": "Pauri Garhwal",
    "acNumber": 41,
    "acName": "Kotdwar",
    "partNumber": 123,
    "partName": "Dalippur Sigaddi-1 Room No-1",
    "lat": 29.7459823,
    "lon": 78.5201358
  },
  {
    "partId": 4732,
    "stateCode": "S28",
    "stateName": "Uttarakhand",
    "districtCode": "S2812",
    "districtName": "Pauri Garhwal",
    "acNumber": 41,
    "acName": "Kotdwar",
    "partNumber": 124,
    "partName": "Dalippur Sigaddi-2 Room No-2",
    "lat": 29.7459823,
    "lon": 78.5201358
  },
  {
    "partId": 4738,
    "stateCode": "S28",
    "stateName": "Uttarakhand",
    "districtCode": "S2812",
    "districtName": "Pauri Garhwal",
    "acNumber": 41,
    "acName": "Kotdwar",
    "partNumber": 125,
    "partName": "Jhandichaur Uttari-1 Room No-1",
    "lat": 29.7459823,
    "lon": 78.5201358
  },
  {
    "partId": 4736,
    "stateCode": "S28",
    "stateName": "Uttarakhand",
    "districtCode": "S2812",
    "districtName": "Pauri Garhwal",
    "acNumber": 41,
    "acName": "Kotdwar",
    "partNumber": 126,
    "partName": "Umravnagar (Jhandichaur) Room no 2",
    "lat": 29.7459823,
    "lon": 78.5201358
  },
  {
    "partId": 4737,
    "stateCode": "S28",
    "stateName": "Uttarakhand",
    "districtCode": "S2812",
    "districtName": "Pauri Garhwal",
    "acNumber": 41,
    "acName": "Kotdwar",
    "partNumber": 127,
    "partName": "Jhandichaur Uttari-2 Room No-3",
    "lat": 29.7459823,
    "lon": 78.5201358
  },
  {
    "partId": 4739,
    "stateCode": "S28",
    "stateName": "Uttarakhand",
    "districtCode": "S2812",
    "districtName": "Pauri Garhwal",
    "acNumber": 41,
    "acName": "Kotdwar",
    "partNumber": 128,
    "partName": "Jhandichaur Paschami-1 Room No-1",
    "lat": 29.7459823,
    "lon": 78.5201358
  },
  {
    "partId": 4740,
    "stateCode": "S28",
    "stateName": "Uttarakhand",
    "districtCode": "S2812",
    "districtName": "Pauri Garhwal",
    "acNumber": 41,
    "acName": "Kotdwar",
    "partNumber": 129,
    "partName": "Jhandichaur Paschami-2 Room No-2",
    "lat": 29.7459823,
    "lon": 78.5201358
  },
  {
    "partId": 4734,
    "stateCode": "S28",
    "stateName": "Uttarakhand",
    "districtCode": "S2812",
    "districtName": "Pauri Garhwal",
    "acNumber": 41,
    "acName": "Kotdwar",
    "partNumber": 130,
    "partName": "Jhandichaur Purvi-2 East Wing",
    "lat": 29.8473168,
    "lon": 78.70704792061838
  },
  {
    "partId": 4733,
    "stateCode": "S28",
    "stateName": "Uttarakhand",
    "districtCode": "S2812",
    "districtName": "Pauri Garhwal",
    "acNumber": 41,
    "acName": "Kotdwar",
    "partNumber": 131,
    "partName": "Jhandichaur Purvi-1 East Wing Room No 1",
    "lat": 29.7459823,
    "lon": 78.5201358
  },
  {
    "partId": 4735,
    "stateCode": "S28",
    "stateName": "Uttarakhand",
    "districtCode": "S2812",
    "districtName": "Pauri Garhwal",
    "acNumber": 41,
    "acName": "Kotdwar",
    "partNumber": 132,
    "partName": "Jhandichaur Purvi-3 East Wing Room No 2",
    "lat": 29.7459823,
    "lon": 78.5201358
  },
  {
    "partId": 4724,
    "stateCode": "S28",
    "stateName": "Uttarakhand",
    "districtCode": "S2812",
    "districtName": "Pauri Garhwal",
    "acNumber": 41,
    "acName": "Kotdwar",
    "partNumber": 133,
    "partName": "Kalagarh-1 Room No-1",
    "lat": 29.8473168,
    "lon": 78.70704792061838
  },
  {
    "partId": 4725,
    "stateCode": "S28",
    "stateName": "Uttarakhand",
    "districtCode": "S2812",
    "districtName": "Pauri Garhwal",
    "acNumber": 41,
    "acName": "Kotdwar",
    "partNumber": 134,
    "partName": "Kalagarh-2 Room No-2",
    "lat": 29.7459823,
    "lon": 78.5201358
  },
  {
    "partId": 4726,
    "stateCode": "S28",
    "stateName": "Uttarakhand",
    "districtCode": "S2812",
    "districtName": "Pauri Garhwal",
    "acNumber": 41,
    "acName": "Kotdwar",
    "partNumber": 135,
    "partName": "Kalagarh-3 East wing  Room No-2",
    "lat": 29.7459823,
    "lon": 78.5201358
  },
  {
    "partId": 4727,
    "stateCode": "S28",
    "stateName": "Uttarakhand",
    "districtCode": "S2812",
    "districtName": "Pauri Garhwal",
    "acNumber": 41,
    "acName": "Kotdwar",
    "partNumber": 136,
    "partName": "Kalagarh East Wing",
    "lat": 29.7459823,
    "lon": 78.5201358
  },
  {
    "partId": 4728,
    "stateCode": "S28",
    "stateName": "Uttarakhand",
    "districtCode": "S2812",
    "districtName": "Pauri Garhwal",
    "acNumber": 41,
    "acName": "Kotdwar",
    "partNumber": 137,
    "partName": "Dhikala",
    "lat": 29.58618,
    "lon": 78.86124
  },
  {
    "partId": 4502,
    "stateCode": "S28",
    "stateName": "Uttarakhand",
    "districtCode": "S2812",
    "districtName": "Pauri Garhwal",
    "acNumber": 40,
    "acName": "Lansdowne",
    "partNumber": 1,
    "partName": "Jaharikhal",
    "lat": 29.79641045,
    "lon": 78.75147086956142
  },
  {
    "partId": 4503,
    "stateCode": "S28",
    "stateName": "Uttarakhand",
    "districtCode": "S2812",
    "districtName": "Pauri Garhwal",
    "acNumber": 40,
    "acName": "Lansdowne",
    "partNumber": 2,
    "partName": "Khundoli",
    "lat": 29.870873,
    "lon": 78.6629278
  },
  {
    "partId": 4504,
    "stateCode": "S28",
    "stateName": "Uttarakhand",
    "districtCode": "S2812",
    "districtName": "Pauri Garhwal",
    "acNumber": 40,
    "acName": "Lansdowne",
    "partNumber": 3,
    "partName": "Jaharikhal",
    "lat": 29.79641045,
    "lon": 78.75147086956142
  },
  {
    "partId": 4505,
    "stateCode": "S28",
    "stateName": "Uttarakhand",
    "districtCode": "S2812",
    "districtName": "Pauri Garhwal",
    "acNumber": 40,
    "acName": "Lansdowne",
    "partNumber": 4,
    "partName": "Sari Malli",
    "lat": 29.79641045,
    "lon": 78.75147086956142
  },
  {
    "partId": 4506,
    "stateCode": "S28",
    "stateName": "Uttarakhand",
    "districtCode": "S2812",
    "districtName": "Pauri Garhwal",
    "acNumber": 40,
    "acName": "Lansdowne",
    "partNumber": 5,
    "partName": "Maindoli",
    "lat": 29.758249,
    "lon": 79.1037297
  },
  {
    "partId": 4507,
    "stateCode": "S28",
    "stateName": "Uttarakhand",
    "districtCode": "S2812",
    "districtName": "Pauri Garhwal",
    "acNumber": 40,
    "acName": "Lansdowne",
    "partNumber": 6,
    "partName": "Tahasil Office Kort Lansdowne",
    "lat": 29.79641045,
    "lon": 78.75147086956142
  },
  {
    "partId": 4508,
    "stateCode": "S28",
    "stateName": "Uttarakhand",
    "districtCode": "S2812",
    "districtName": "Pauri Garhwal",
    "acNumber": 40,
    "acName": "Lansdowne",
    "partNumber": 7,
    "partName": "Office Parganadhikari Lansdowne",
    "lat": 29.79641045,
    "lon": 78.75147086956142
  },
  {
    "partId": 4509,
    "stateCode": "S28",
    "stateName": "Uttarakhand",
    "districtCode": "S2812",
    "districtName": "Pauri Garhwal",
    "acNumber": 40,
    "acName": "Lansdowne",
    "partNumber": 8,
    "partName": "Lansdowne East. Wing",
    "lat": 29.79641045,
    "lon": 78.75147086956142
  },
  {
    "partId": 4510,
    "stateCode": "S28",
    "stateName": "Uttarakhand",
    "districtCode": "S2812",
    "districtName": "Pauri Garhwal",
    "acNumber": 40,
    "acName": "Lansdowne",
    "partNumber": 9,
    "partName": "Lansdowne W. Wing",
    "lat": 29.79641045,
    "lon": 78.75147086956142
  },
  {
    "partId": 4511,
    "stateCode": "S28",
    "stateName": "Uttarakhand",
    "districtCode": "S2812",
    "districtName": "Pauri Garhwal",
    "acNumber": 40,
    "acName": "Lansdowne",
    "partNumber": 10,
    "partName": "Lansdowne",
    "lat": 29.79641045,
    "lon": 78.75147086956142
  },
  {
    "partId": 4512,
    "stateCode": "S28",
    "stateName": "Uttarakhand",
    "districtCode": "S2812",
    "districtName": "Pauri Garhwal",
    "acNumber": 40,
    "acName": "Lansdowne",
    "partNumber": 11,
    "partName": "Chametha",
    "lat": 29.815886,
    "lon": 78.7281525
  },
  {
    "partId": 4513,
    "stateCode": "S28",
    "stateName": "Uttarakhand",
    "districtCode": "S2812",
    "districtName": "Pauri Garhwal",
    "acNumber": 40,
    "acName": "Lansdowne",
    "partNumber": 12,
    "partName": "Deriyakhal",
    "lat": 29.8373516,
    "lon": 78.6983474
  },
  {
    "partId": 4514,
    "stateCode": "S28",
    "stateName": "Uttarakhand",
    "districtCode": "S2812",
    "districtName": "Pauri Garhwal",
    "acNumber": 40,
    "acName": "Lansdowne",
    "partNumber": 13,
    "partName": "Kunjoli",
    "lat": 29.8485891,
    "lon": 78.7142253
  },
  {
    "partId": 4515,
    "stateCode": "S28",
    "stateName": "Uttarakhand",
    "districtCode": "S2812",
    "districtName": "Pauri Garhwal",
    "acNumber": 40,
    "acName": "Lansdowne",
    "partNumber": 14,
    "partName": "Pundergaon",
    "lat": 29.79641045,
    "lon": 78.75147086956142
  },
  {
    "partId": 4516,
    "stateCode": "S28",
    "stateName": "Uttarakhand",
    "districtCode": "S2812",
    "districtName": "Pauri Garhwal",
    "acNumber": 40,
    "acName": "Lansdowne",
    "partNumber": 15,
    "partName": "Sendhikhal",
    "lat": 29.8473168,
    "lon": 78.70704792061838
  },
  {
    "partId": 4517,
    "stateCode": "S28",
    "stateName": "Uttarakhand",
    "districtCode": "S2812",
    "districtName": "Pauri Garhwal",
    "acNumber": 40,
    "acName": "Lansdowne",
    "partNumber": 16,
    "partName": "Bansi",
    "lat": 29.8473168,
    "lon": 78.70704792061838
  },
  {
    "partId": 4518,
    "stateCode": "S28",
    "stateName": "Uttarakhand",
    "districtCode": "S2812",
    "districtName": "Pauri Garhwal",
    "acNumber": 40,
    "acName": "Lansdowne",
    "partNumber": 17,
    "partName": "Tunikhal",
    "lat": 29.79641045,
    "lon": 78.75147086956142
  },
  {
    "partId": 4519,
    "stateCode": "S28",
    "stateName": "Uttarakhand",
    "districtCode": "S2812",
    "districtName": "Pauri Garhwal",
    "acNumber": 40,
    "acName": "Lansdowne",
    "partNumber": 18,
    "partName": "Guniyalgaon",
    "lat": 29.79641045,
    "lon": 78.75147086956142
  },
  {
    "partId": 4520,
    "stateCode": "S28",
    "stateName": "Uttarakhand",
    "districtCode": "S2812",
    "districtName": "Pauri Garhwal",
    "acNumber": 40,
    "acName": "Lansdowne",
    "partNumber": 19,
    "partName": "Dhaulkhetkhal",
    "lat": 29.8473168,
    "lon": 78.70704792061838
  },
  {
    "partId": 4521,
    "stateCode": "S28",
    "stateName": "Uttarakhand",
    "districtCode": "S2812",
    "districtName": "Pauri Garhwal",
    "acNumber": 40,
    "acName": "Lansdowne",
    "partNumber": 20,
    "partName": "Buchakhal",
    "lat": 29.7806938,
    "lon": 78.7352874
  },
  {
    "partId": 4522,
    "stateCode": "S28",
    "stateName": "Uttarakhand",
    "districtCode": "S2812",
    "districtName": "Pauri Garhwal",
    "acNumber": 40,
    "acName": "Lansdowne",
    "partNumber": 21,
    "partName": "Mahargaon",
    "lat": 29.8043989,
    "lon": 78.7377246
  },
  {
    "partId": 4523,
    "stateCode": "S28",
    "stateName": "Uttarakhand",
    "districtCode": "S2812",
    "districtName": "Pauri Garhwal",
    "acNumber": 40,
    "acName": "Lansdowne",
    "partNumber": 22,
    "partName": "Khubani",
    "lat": 29.7285888,
    "lon": 78.7842679
  },
  {
    "partId": 4524,
    "stateCode": "S28",
    "stateName": "Uttarakhand",
    "districtCode": "S2812",
    "districtName": "Pauri Garhwal",
    "acNumber": 40,
    "acName": "Lansdowne",
    "partNumber": 23,
    "partName": "Badgaon",
    "lat": 29.7737463,
    "lon": 78.7571668
  },
  {
    "partId": 4525,
    "stateCode": "S28",
    "stateName": "Uttarakhand",
    "districtCode": "S2812",
    "districtName": "Pauri Garhwal",
    "acNumber": 40,
    "acName": "Lansdowne",
    "partNumber": 24,
    "partName": "Silwar",
    "lat": 29.8473168,
    "lon": 78.70704792061838
  },
  {
    "partId": 4526,
    "stateCode": "S28",
    "stateName": "Uttarakhand",
    "districtCode": "S2812",
    "districtName": "Pauri Garhwal",
    "acNumber": 40,
    "acName": "Lansdowne",
    "partNumber": 25,
    "partName": "Meruda",
    "lat": 29.79641045,
    "lon": 78.75147086956142
  },
  {
    "partId": 4527,
    "stateCode": "S28",
    "stateName": "Uttarakhand",
    "districtCode": "S2812",
    "districtName": "Pauri Garhwal",
    "acNumber": 40,
    "acName": "Lansdowne",
    "partNumber": 26,
    "partName": "Siddhpur",
    "lat": 29.79641045,
    "lon": 78.75147086956142
  },
  {
    "partId": 4528,
    "stateCode": "S28",
    "stateName": "Uttarakhand",
    "districtCode": "S2812",
    "districtName": "Pauri Garhwal",
    "acNumber": 40,
    "acName": "Lansdowne",
    "partNumber": 27,
    "partName": "Budhgaon",
    "lat": 29.756945,
    "lon": 78.7976575
  },
  {
    "partId": 4529,
    "stateCode": "S28",
    "stateName": "Uttarakhand",
    "districtCode": "S2812",
    "districtName": "Pauri Garhwal",
    "acNumber": 40,
    "acName": "Lansdowne",
    "partNumber": 28,
    "partName": "Kolagad",
    "lat": 29.79641045,
    "lon": 78.75147086956142
  },
  {
    "partId": 4530,
    "stateCode": "S28",
    "stateName": "Uttarakhand",
    "districtCode": "S2812",
    "districtName": "Pauri Garhwal",
    "acNumber": 40,
    "acName": "Lansdowne",
    "partNumber": 29,
    "partName": "Barswar",
    "lat": 29.8116836,
    "lon": 78.6915478
  },
  {
    "partId": 4531,
    "stateCode": "S28",
    "stateName": "Uttarakhand",
    "districtCode": "S2812",
    "districtName": "Pauri Garhwal",
    "acNumber": 40,
    "acName": "Lansdowne",
    "partNumber": 30,
    "partName": "Asankhet",
    "lat": 29.8788019,
    "lon": 78.8256383
  },
  {
    "partId": 4532,
    "stateCode": "S28",
    "stateName": "Uttarakhand",
    "districtCode": "S2812",
    "districtName": "Pauri Garhwal",
    "acNumber": 40,
    "acName": "Lansdowne",
    "partNumber": 31,
    "partName": "Ghanghali",
    "lat": 29.79641045,
    "lon": 78.75147086956142
  },
  {
    "partId": 4533,
    "stateCode": "S28",
    "stateName": "Uttarakhand",
    "districtCode": "S2812",
    "districtName": "Pauri Garhwal",
    "acNumber": 40,
    "acName": "Lansdowne",
    "partNumber": 32,
    "partName": "Chinbau",
    "lat": 29.8183062,
    "lon": 78.749721
  },