[
  {
    "partId": 835,
    "stateCode": "S28",
    "stateName": "Uttarakhand",
    "districtCode": "S2809",
    "districtName": "Uttarkashi",
    "acNumber": 3,
    "acName": "Gangotri",
    "partNumber": 1,
    "partName": "Mukhwa",
    "lat": 30.9943684,
    "lon": 78.9398699
  },
  {
    "partId": 836,
    "stateCode": "S28",
    "stateName": "Uttarakhand",
    "districtCode": "S2809",
    "districtName": "Uttarkashi",
    "acNumber": 3,
    "acName": "Gangotri",
    "partNumber": 2,
    "partName": "Harsil",
    "lat": 31.0369099,
    "lon": 78.7506484
  },
  {
    "partId": 805,
    "stateCode": "S28",
    "stateName": "Uttarakhand",
    "districtCode": "S2809",
    "districtName": "Uttarkashi",
    "acNumber": 3,
    "acName": "Gangotri",
    "partNumber": 3,
    "partName": "Bagori",
    "lat": 31.0395853,
    "lon": 78.7416902
  },
  {
    "partId": 837,
    "stateCode": "S28",
    "stateName": "Uttarakhand",
    "districtCode": "S2809",
    "districtName": "Uttarkashi",
    "acNumber": 3,
    "acName": "Gangotri",
    "partNumber": 4,
    "partName": "Dharali",
    "lat": 31.0408468,
    "lon": 78.7815312
  },
  {
    "partId": 861,
    "stateCode": "S28",
    "stateName": "Uttarakhand",
    "districtCode": "S2809",
    "districtName": "Uttarkashi",
    "acNumber": 3,
    "acName": "Gangotri",
    "partNumber": 5,
    "partName": "gangotri puri",
    "lat": 30.9943684,
    "lon": 78.9398699
  },
  {
    "partId": 838,
    "stateCode": "S28",
    "stateName": "Uttarakhand",
    "districtCode": "S2809",
    "districtName": "Uttarkashi",
    "acNumber": 3,
    "acName": "Gangotri",
    "partNumber": 6,
    "partName": "Jhala",
    "lat": 31.0248573,
    "lon": 78.7101354
  },
  {
    "partId": 839,
    "stateCode": "S28",
    "stateName": "Uttarakhand",
    "districtCode": "S2809",
    "districtName": "Uttarkashi",
    "acNumber": 3,
    "acName": "Gangotri",
    "partNumber": 7,
    "partName": "Purali",
    "lat": 31.0299258,
    "lon": 78.7099965
  },
  {
    "partId": 806,
    "stateCode": "S28",
    "stateName": "Uttarakhand",
    "districtCode": "S2809",
    "districtName": "Uttarkashi",
    "acNumber": 3,
    "acName": "Gangotri",
    "partNumber": 8,
    "partName": "Jaspur",
    "lat": 31.0259448,
    "lon": 78.7064348
  },
  {
    "partId": 840,
    "stateCode": "S28",
    "stateName": "Uttarakhand",
    "districtCode": "S2809",
    "districtName": "Uttarkashi",
    "acNumber": 3,
    "acName": "Gangotri",
    "partNumber": 9,
    "partName": "Sukhi",
    "lat": 30.9943684,
    "lon": 78.9398699
  },
  {
    "partId": 721,
    "stateCode": "S28",
    "stateName": "Uttarakhand",
    "districtCode": "S2809",
    "districtName": "Uttarkashi",
    "acNumber": 3,
    "acName": "Gangotri",
    "partNumber": 10,
    "partName": "Sunagar",
    "lat": 31.01578,
    "lon": 78.71155
  },
  {
    "partId": 807,
    "stateCode": "S28",
    "stateName": "Uttarakhand",
    "districtCode": "S2809",
    "districtName": "Uttarkashi",
    "acNumber": 3,
    "acName": "Gangotri",
    "partNumber": 11,
    "partName": "Hurri",
    "lat": 30.900444,
    "lon": 78.694016
  },
  {
    "partId": 722,
    "stateCode": "S28",
    "stateName": "Uttarakhand",
    "districtCode": "S2809",
    "districtName": "Uttarkashi",
    "acNumber": 3,
    "acName": "Gangotri",
    "partNumber": 12,
    "partName": "Bhangeli",
    "lat": 30.9173929,
    "lon": 78.6694748
  },
  {
    "partId": 723,
    "stateCode": "S28",
    "stateName": "Uttarakhand",
    "districtCode": "S2809",
    "districtName": "Uttarkashi",
    "acNumber": 3,
    "acName": "Gangotri",
    "partNumber": 13,
    "partName": "Tihar",
    "lat": 30.8678396,
    "lon": 78.6397435
  },
  {
    "partId": 853,
    "stateCode": "S28",
    "stateName": "Uttarakhand",
    "districtCode": "S2809",
    "districtName": "Uttarkashi",
    "acNumber": 3,
    "acName": "Gangotri",
    "partNumber": 14,
    "partName": "Sanglai",
    "lat": 30.8606,
    "lon": 78.65113
  },
  {
    "partId": 724,
    "stateCode": "S28",
    "stateName": "Uttarakhand",
    "districtCode": "S2809",
    "districtName": "Uttarkashi",
    "acNumber": 3,
    "acName": "Gangotri",
    "partNumber": 15,
    "partName": "Kujjan",
    "lat": 30.9943684,
    "lon": 78.9398699
  },
  {
    "partId": 808,
    "stateCode": "S28",
    "stateName": "Uttarakhand",
    "districtCode": "S2809",
    "districtName": "Uttarkashi",
    "acNumber": 3,
    "acName": "Gangotri",
    "partNumber": 16,
    "partName": "Raithal",
    "lat": 30.816724,
    "lon": 78.6037914
  },
  {
    "partId": 854,
    "stateCode": "S28",
    "stateName": "Uttarakhand",
    "districtCode": "S2809",
    "districtName": "Uttarkashi",
    "acNumber": 3,
    "acName": "Gangotri",
    "partNumber": 17,
    "partName": "Nateen",
    "lat": 30.9943684,
    "lon": 78.9398699
  },
  {
    "partId": 725,
    "stateCode": "S28",
    "stateName": "Uttarakhand",
    "districtCode": "S2809",
    "districtName": "Uttarkashi",
    "acNumber": 3,
    "acName": "Gangotri",
    "partNumber": 18,
    "partName": "Bandrani",
    "lat": 30.9943684,
    "lon": 78.9398699
  },
  {
    "partId": 809,
    "stateCode": "S28",
    "stateName": "Uttarakhand",
    "districtCode": "S2809",
    "districtName": "Uttarkashi",
    "acNumber": 3,
    "acName": "Gangotri",
    "partNumber": 19,
    "partName": "Barsu",
    "lat": 30.8421128,
    "lon": 78.6039044
  },
  {
    "partId": 726,
    "stateCode": "S28",
    "stateName": "Uttarakhand",
    "districtCode": "S2809",
    "districtName": "Uttarkashi",
    "acNumber": 3,
    "acName": "Gangotri",
    "partNumber": 20,
    "partName": "Pala maradi",
    "lat": 30.9943684,
    "lon": 78.9398699
  },
  {
    "partId": 727,
    "stateCode": "S28",
    "stateName": "Uttarakhand",
    "districtCode": "S2809",
    "districtName": "Uttarkashi",
    "acNumber": 3,
    "acName": "Gangotri",
    "partNumber": 21,
    "partName": "Bhatwari",
    "lat": 31.05613745,
    "lon": 78.98034922981518
  },
  {
    "partId": 810,
    "stateCode": "S28",
    "stateName": "Uttarakhand",
    "districtCode": "S2809",
    "districtName": "Uttarkashi",
    "acNumber": 3,
    "acName": "Gangotri",
    "partNumber": 22,
    "partName": "Kyark",
    "lat": 30.9943684,
    "lon": 78.9398699
  },
  {
    "partId": 728,
    "stateCode": "S28",
    "stateName": "Uttarakhand",
    "districtCode": "S2809",
    "districtName": "Uttarkashi",
    "acNumber": 3,
    "acName": "Gangotri",
    "partNumber": 23,
    "partName": "Malla",
    "lat": 30.78644,
    "lon": 78.61542
  },
  {
    "partId": 746,
    "stateCode": "S28",
    "stateName": "Uttarakhand",
    "districtCode": "S2809",
    "districtName": "Uttarkashi",
    "acNumber": 3,
    "acName": "Gangotri",
    "partNumber": 24,
    "partName": "Bhelatipri",
    "lat": 30.9943684,
    "lon": 78.9398699
  },
  {
    "partId": 729,
    "stateCode": "S28",
    "stateName": "Uttarakhand",
    "districtCode": "S2809",
    "districtName": "Uttarkashi",
    "acNumber": 3,
    "acName": "Gangotri",
    "partNumber": 25,
    "partName": "Lata",
    "lat": 30.7809121,
    "lon": 78.6152303
  },
  {
    "partId": 730,
    "stateCode": "S28",
    "stateName": "Uttarakhand",
    "districtCode": "S2809",
    "districtName": "Uttarkashi",
    "acNumber": 3,
    "acName": "Gangotri",
    "partNumber": 26,
    "partName": "Sainj",
    "lat": 30.76721,
    "lon": 78.58795
  },
  {
    "partId": 731,
    "stateCode": "S28",
    "stateName": "Uttarakhand",
    "districtCode": "S2809",
    "districtName": "Uttarkashi",
    "acNumber": 3,
    "acName": "Gangotri",
    "partNumber": 27,
    "partName": "Jakhol",
    "lat": 31.1111695,
    "lon": 78.2291779
  },
  {
    "partId": 811,
    "stateCode": "S28",
    "stateName": "Uttarakhand",
    "districtCode": "S2809",
    "districtName": "Uttarkashi",
    "acNumber": 3,
    "acName": "Gangotri",
    "partNumber": 28,
    "partName": "Gorsali",
    "lat": 30.7836506,
    "lon": 78.590743
  },
  {
    "partId": 732,
    "stateCode": "S28",
    "stateName": "Uttarakhand",
    "districtCode": "S2809",
    "districtName": "Uttarkashi",
    "acNumber": 3,
    "acName": "Gangotri",
    "partNumber": 29,
    "partName": "Pahi",
    "lat": 30.7932455,
    "lon": 78.6143499
  },
  {
    "partId": 733,
    "stateCode": "S28",
    "stateName": "Uttarakhand",
    "districtCode": "S2809",
    "districtName": "Uttarkashi",
    "acNumber": 3,
    "acName": "Gangotri",
    "partNumber": 30,
    "partName": "Dwari",
    "lat": 30.8048529,
    "lon": 78.619981
  },
  {
    "partId": 734,
    "stateCode": "S28",
    "stateName": "Uttarakhand",
    "districtCode": "S2809",
    "districtName": "Uttarkashi",
    "acNumber": 3,
    "acName": "Gangotri",
    "partNumber": 31,
    "partName": "Jamak",
    "lat": 30.7358922,
    "lon": 78.5271763
  },
  {
    "partId": 735,
    "stateCode": "S28",
    "stateName": "Uttarakhand",
    "districtCode": "S2809",
    "districtName": "Uttarkashi",
    "acNumber": 3,
    "acName": "Gangotri",
    "partNumber": 32,
    "partName": "Kamar",
    "lat": 30.7191567,
    "lon": 78.5421025
  },
  {
    "partId": 812,
    "stateCode": "S28",
    "stateName": "Uttarakhand",
    "districtCode": "S2809",
    "districtName": "Uttarkashi",
    "acNumber": 3,
    "acName": "Gangotri",
    "partNumber": 33,
    "partName": "Maneri",
    "lat": 30.7432969,
    "lon": 78.5390576
  },
  {
    "partId": 855,
    "stateCode": "S28",
    "stateName": "Uttarakhand",
    "districtCode": "S2809",
    "districtName": "Uttarkashi",
    "acNumber": 3,
    "acName": "Gangotri",
    "partNumber": 34,
    "partName": "Ongi",
    "lat": 30.9943684,
    "lon": 78.9398699
  },
  {
    "partId": 736,
    "stateCode": "S28",
    "stateName": "Uttarakhand",
    "districtCode": "S2809",
    "districtName": "Uttarkashi",
    "acNumber": 3,
    "acName": "Gangotri",
    "partNumber": 35,
    "partName": "Didsari",
    "lat": 30.7624448,
    "lon": 78.5891873
  },
  {
    "partId": 813,
    "stateCode": "S28",
    "stateName": "Uttarakhand",
    "districtCode": "S2809",
    "districtName": "Uttarkashi",
    "acNumber": 3,
    "acName": "Gangotri",
    "partNumber": 36,
    "partName": "Bayana may Lonthru",
    "lat": 30.9943684,
    "lon": 78.9398699
  },
  {
    "partId": 737,
    "stateCode": "S28",
    "stateName": "Uttarakhand",
    "districtCode": "S2809",
    "districtName": "Uttarkashi",
    "acNumber": 3,
    "acName": "Gangotri",
    "partNumber": 37,
    "partName": "Saura",
    "lat": 30.7721175,
    "lon": 78.6075201
  },
  {
    "partId": 686,
    "stateCode": "S28",
    "stateName": "Uttarakhand",
    "districtCode": "S2809",
    "districtName": "Uttarkashi",
    "acNumber": 3,
    "acName": "Gangotri",
    "partNumber": 38,
    "partName": "Sari",
    "lat": 30.6702149,
    "lon": 78.0767719
  },
  {
    "partId": 738,
    "stateCode": "S28",
    "stateName": "Uttarakhand",
    "districtCode": "S2809",
    "districtName": "Uttarkashi",
    "acNumber": 3,
    "acName": "Gangotri",
    "partNumber": 39,
    "partName": "Syawa",
    "lat": 30.9943684,
    "lon": 78.9398699
  },
  {
    "partId": 739,
    "stateCode": "S28",
    "stateName": "Uttarakhand",
    "districtCode": "S2809",
    "districtName": "Uttarkashi",
    "acNumber": 3,
    "acName": "Gangotri",
    "partNumber": 40,
    "partName": "Salu (Khani)",
    "lat": 30.9943684,
    "lon": 78.9398699
  },
  {
    "partId": 740,
    "stateCode": "S28",
    "stateName": "Uttarakhand",
    "districtCode": "S2809",
    "districtName": "Uttarkashi",
    "acNumber": 3,
    "acName": "Gangotri",
    "partNumber": 41,
    "partName": "Salang",
    "lat": 30.8400744,
    "lon": 78.6345428042639
  },
  {
    "partId": 814,
    "stateCode": "S28",
    "stateName": "Uttarakhand",
    "districtCode": "S2809",
    "districtName": "Uttarkashi",
    "acNumber": 3,
    "acName": "Gangotri",
    "partNumber": 42,
    "partName": "Bhukki",
    "lat": 30.9943684,
    "lon": 78.9398699
  },
  {
    "partId": 741,
    "stateCode": "S28",
    "stateName": "Uttarakhand",
    "districtCode": "S2809",
    "districtName": "Uttarkashi",
    "acNumber": 3,
    "acName": "Gangotri",
    "partNumber": 43,
    "partName": "Silla",
    "lat": 30.9943684,
    "lon": 78.9398699
  },
  {
    "partId": 742,
    "stateCode": "S28",
    "stateName": "Uttarakhand",
    "districtCode": "S2809",
    "districtName": "Uttarkashi",
    "acNumber": 3,
    "acName": "Gangotri",
    "partNumber": 44,
    "partName": "Jodau",
    "lat": 30.9943684,
    "lon": 78.9398699
  },
  {
    "partId": 743,
    "stateCode": "S28",
    "stateName": "Uttarakhand",
    "districtCode": "S2809",
    "districtName": "Uttarkashi",
    "acNumber": 3,
    "acName": "Gangotri",
    "partNumber": 45,
    "partName": "Pilang",
    "lat": 30.7652586,
    "lon": 78.6638587
  },
  {
    "partId": 815,
    "stateCode": "S28",
    "stateName": "Uttarakhand",
    "districtCode": "S2809",
    "districtName": "Uttarkashi",
    "acNumber": 3,
    "acName": "Gangotri",
    "partNumber": 46,
    "partName": "Bhankoli",
    "lat": 30.8438973,
    "lon": 78.4606326
  },
  {
    "partId": 744,
    "stateCode": "S28",
    "stateName": "Uttarakhand",
    "districtCode": "S2809",
    "districtName": "Uttarkashi",
    "acNumber": 3,
    "acName": "Gangotri",
    "partNumber": 47,
    "partName": "Agora",
    "lat": 30.9943684,
    "lon": 78.9398699
  },
  {
    "partId": 745,
    "stateCode": "S28",
    "stateName": "Uttarakhand",
    "districtCode": "S2809",
    "districtName": "Uttarkashi",
    "acNumber": 3,
    "acName": "Gangotri",
    "partNumber": 48,
    "partName": "Gajoli",
    "lat": 30.8394557,
    "lon": 78.4442805
  },
  {
    "partId": 747,
    "stateCode": "S28",
    "stateName": "Uttarakhand",
    "districtCode": "S2809",
    "districtName": "Uttarkashi",
    "acNumber": 3,
    "acName": "Gangotri",
    "partNumber": 49,
    "partName": "Seku",
    "lat": 30.8279532,
    "lon": 78.4563283
  },
  {
    "partId": 787,
    "stateCode": "S28",
    "stateName": "Uttarakhand",
    "districtCode": "S2809",
    "districtName": "Uttarkashi",
    "acNumber": 3,
    "acName": "Gangotri",
    "partNumber": 50,
    "partName": "Naugaon",
    "lat": 30.78644,
    "lon": 78.13339
  },
  {
    "partId": 816,
    "stateCode": "S28",
    "stateName": "Uttarakhand",
    "districtCode": "S2809",
    "districtName": "Uttarkashi",
    "acNumber": 3,
    "acName": "Gangotri",
    "partNumber": 51,
    "partName": "Netala",
    "lat": 30.74762315,
    "lon": 78.48421532925663
  },
  {
    "partId": 788,
    "stateCode": "S28",
    "stateName": "Uttarakhand",
    "districtCode": "S2809",
    "districtName": "Uttarkashi",
    "acNumber": 3,
    "acName": "Gangotri",
    "partNumber": 52,
    "partName": "Siror",
    "lat": 30.7549121,
    "lon": 78.4989791
  },
  {
    "partId": 789,
    "stateCode": "S28",
    "stateName": "Uttarakhand",
    "districtCode": "S2809",
    "districtName": "Uttarkashi",
    "acNumber": 3,
    "acName": "Gangotri",
    "partNumber": 53,
    "partName": "Heena",
    "lat": 30.9943684,
    "lon": 78.9398699
  },
  {
    "partId": 817,
    "stateCode": "S28",
    "stateName": "Uttarakhand",
    "districtCode": "S2809",
    "districtName": "Uttarkashi",
    "acNumber": 3,
    "acName": "Gangotri",
    "partNumber": 54,
    "partName": "Gangori nagani gawana",
    "lat": 30.9943684,
    "lon": 78.9398699
  },
  {
    "partId": 790,
    "stateCode": "S28",
    "stateName": "Uttarakhand",
    "districtCode": "S2809",
    "districtName": "Uttarkashi",
    "acNumber": 3,
    "acName": "Gangotri",
    "partNumber": 55,
    "partName": "Nald",
    "lat": 30.885174,
    "lon": 78.1856632
  },
  {
    "partId": 856,
    "stateCode": "S28",
    "stateName": "Uttarakhand",
    "districtCode": "S2809",
    "districtName": "Uttarkashi",
    "acNumber": 3,
    "acName": "Gangotri",
    "partNumber": 56,
    "partName": "Chinwa",
    "lat": 30.9943684,
    "lon": 78.9398699
  },
  {
    "partId": 791,
    "stateCode": "S28",
    "stateName": "Uttarakhand",
    "districtCode": "S2809",
    "districtName": "Uttarkashi",
    "acNumber": 3,
    "acName": "Gangotri",
    "partNumber": 57,
    "partName": "Uttaraon",
    "lat": 30.9943684,
    "lon": 78.9398699
  },
  {
    "partId": 792,
    "stateCode": "S28",
    "stateName": "Uttarakhand",
    "districtCode": "S2809",
    "districtName": "Uttarkashi",
    "acNumber": 3,
    "acName": "Gangotri",
    "partNumber": 58,
    "partName": "Pata",
    "lat": 30.9943684,
    "lon": 78.9398699
  },
  {
    "partId": 843,
    "stateCode": "S28",
    "stateName": "Uttarakhand",
    "districtCode": "S2809",
    "districtName": "Uttarkashi",
    "acNumber": 3,
    "acName": "Gangotri",
    "partNumber": 59,
    "partName": "Sangrali",
    "lat": 30.7462385,
    "lon": 78.4406037
  },
  {
    "partId": 818,
    "stateCode": "S28",
    "stateName": "Uttarakhand",
    "districtCode": "S2809",
    "districtName": "Uttarkashi",
    "acNumber": 3,
    "acName": "Gangotri",
    "partNumber": 60,
    "partName": "Bagyal gaon",
    "lat": 30.7466564,
    "lon": 78.457749
  },
  {
    "partId": 793,
    "stateCode": "S28",
    "stateName": "Uttarakhand",
    "districtCode": "S2809",
    "districtName": "Uttarkashi",
    "acNumber": 3,
    "acName": "Gangotri",
    "partNumber": 61,
    "partName": "Sald",
    "lat": 30.9943684,
    "lon": 78.9398699
  },
  {
    "partId": 794,
    "stateCode": "S28",
    "stateName": "Uttarakhand",
    "districtCode": "S2809",
    "districtName": "Uttarkashi",
    "acNumber": 3,
    "acName": "Gangotri",
    "partNumber": 62,
    "partName": "Gamdir gaon",
    "lat": 30.9943684,
    "lon": 78.9398699
  },
  {
    "partId": 795,
    "stateCode": "S28",
    "stateName": "Uttarakhand",
    "districtCode": "S2809",
    "districtName": "Uttarkashi",
    "acNumber": 3,
    "acName": "Gangotri",
    "partNumber": 63,
    "partName": "Gyanja",
    "lat": 30.7541072,
    "lon": 78.414359
  },
  {
    "partId": 796,
    "stateCode": "S28",
    "stateName": "Uttarakhand",
    "districtCode": "S2809",
    "districtName": "Uttarkashi",
    "acNumber": 3,
    "acName": "Gangotri",
    "partNumber": 64,
    "partName": "Nismor",
    "lat": 30.7912468,
    "lon": 78.4025653
  },
  {
    "partId": 844,
    "stateCode": "S28",
    "stateName": "Uttarakhand",
    "districtCode": "S2809",
    "districtName": "Uttarkashi",
    "acNumber": 3,
    "acName": "Gangotri",
    "partNumber": 65,
    "partName": "Gadiyara",
    "lat": 30.9943684,
    "lon": 78.9398699
  },
  {
    "partId": 819,
    "stateCode": "S28",
    "stateName": "Uttarakhand",
    "districtCode": "S2809",
    "districtName": "Uttarkashi",
    "acNumber": 3,
    "acName": "Gangotri",
    "partNumber": 66,
    "partName": "Tiloth R. N. 1",
    "lat": 30.9943684,
    "lon": 78.9398699
  },
  {
    "partId": 797,
    "stateCode": "S28",
    "stateName": "Uttarakhand",
    "districtCode": "S2809",
    "districtName": "Uttarkashi",
    "acNumber": 3,
    "acName": "Gangotri",
    "partNumber": 67,
    "partName": "Tiloth R. N. 2",
    "lat": 30.9943684,
    "lon": 78.9398699
  },
  {
    "partId": 798,
    "stateCode": "S28",
    "stateName": "Uttarakhand",
    "districtCode": "S2809",
    "districtName": "Uttarkashi",
    "acNumber": 3,
    "acName": "Gangotri",
    "partNumber": 68,
    "partName": "Jaspur",
    "lat": 31.0259448,
    "lon": 78.7064348
  },
  {
    "partId": 748,
    "stateCode": "S28",
    "stateName": "Uttarakhand",
    "districtCode": "S2809",
    "districtName": "Uttarkashi",
    "acNumber": 3,
    "acName": "Gangotri",
    "partNumber": 69,
    "partName": "Nirakot",
    "lat": 30.7408122,
    "lon": 78.4872663
  },
  {
    "partId": 820,
    "stateCode": "S28",
    "stateName": "Uttarakhand",
    "districtCode": "S2809",
    "districtName": "Uttarkashi",
    "acNumber": 3,
    "acName": "Gangotri",
    "partNumber": 70,
    "partName": "Mandau",
    "lat": 30.9943684,
    "lon": 78.9398699
  },
  {
    "partId": 799,
    "stateCode": "S28",
    "stateName": "Uttarakhand",
    "districtCode": "S2809",
    "districtName": "Uttarkashi",
    "acNumber": 3,
    "acName": "Gangotri",
    "partNumber": 71,
    "partName": "Dang",
    "lat": 30.9943684,
    "lon": 78.9398699
  },
  {
    "partId": 800,
    "stateCode": "S28",
    "stateName": "Uttarakhand",
    "districtCode": "S2809",
    "districtName": "Uttarkashi",
    "acNumber": 3,
    "acName": "Gangotri",
    "partNumber": 72,
    "partName": "Pokhri",
    "lat": 31.0367689,
    "lon": 78.1060399
  },
  {
    "partId": 801,
    "stateCode": "S28",
    "stateName": "Uttarakhand",
    "districtCode": "S2809",
    "districtName": "Uttarkashi",
    "acNumber": 3,
    "acName": "Gangotri",
    "partNumber": 73,
    "partName": "Kansen",
    "lat": 30.9943684,
    "lon": 78.9398699
  },
  {
    "partId": 802,
    "stateCode": "S28",
    "stateName": "Uttarakhand",
    "districtCode": "S2809",
    "districtName": "Uttarkashi",
    "acNumber": 3,
    "acName": "Gangotri",
    "partNumber": 74,
    "partName": "Kansen",
    "lat": 30.9943684,
    "lon": 78.9398699
  },
  {
    "partId": 688,
    "stateCode": "S28",
    "stateName": "Uttarakhand",
    "districtCode": "S2809",
    "districtName": "Uttarkashi",
    "acNumber": 3,
    "acName": "Gangotri",
    "partNumber": 75,
    "partName": "Ladari R. N. 1",
    "lat": 30.9943684,
    "lon": 78.9398699
  },
  {
    "partId": 803,
    "stateCode": "S28",
    "stateName": "Uttarakhand",
    "districtCode": "S2809",
    "districtName": "Uttarkashi",
    "acNumber": 3,
    "acName": "Gangotri",
    "partNumber": 76,
    "partName": "Ladari R. N. 2",
    "lat": 30.9943684,
    "lon": 78.9398699
  },
  {
    "partId": 689,
    "stateCode": "S28",
    "stateName": "Uttarakhand",
    "districtCode": "S2809",
    "districtName": "Uttarkashi",
    "acNumber": 3,
    "acName": "Gangotri",
    "partNumber": 77,
    "partName": "Kotiyal gaon",
    "lat": 30.7227796,
    "lon": 78.445392
  },
  {
    "partId": 821,
    "stateCode": "S28",
    "stateName": "Uttarakhand",
    "districtCode": "S2809",
    "districtName": "Uttarkashi",
    "acNumber": 3,
    "acName": "Gangotri",
    "partNumber": 78,
    "partName": "Joshiyara",
    "lat": 30.9943684,
    "lon": 78.9398699
  },
  {
    "partId": 690,
    "stateCode": "S28",
    "stateName": "Uttarakhand",
    "districtCode": "S2809",
    "districtName": "Uttarkashi",
    "acNumber": 3,
    "acName": "Gangotri",
    "partNumber": 79,
    "partName": "Bonga",
    "lat": 30.9943684,
    "lon": 78.9398699
  },
  {
    "partId": 691,
    "stateCode": "S28",
    "stateName": "Uttarakhand",
    "districtCode": "S2809",
    "districtName": "Uttarkashi",
    "acNumber": 3,
    "acName": "Gangotri",
    "partNumber": 80,
    "partName": "Bhailuda",
    "lat": 30.9943684,
    "lon": 78.9398699
  },
  {
    "partId": 749,
    "stateCode": "S28",
    "stateName": "Uttarakhand",
    "districtCode": "S2809",
    "districtName": "Uttarkashi",
    "acNumber": 3,
    "acName": "Gangotri",
    "partNumber": 81,
    "partName": "Sadang walla palla",
    "lat": 30.9943684,
    "lon": 78.9398699
  },
  {
    "partId": 692,
    "stateCode": "S28",
    "stateName": "Uttarakhand",
    "districtCode": "S2809",
    "districtName": "Uttarkashi",
    "acNumber": 3,
    "acName": "Gangotri",
    "partNumber": 82,
    "partName": "Athali",
    "lat": 30.9943684,
    "lon": 78.9398699
  },
  {
    "partId": 693,
    "stateCode": "S28",
    "stateName": "Uttarakhand",
    "districtCode": "S2809",
    "districtName": "Uttarkashi",
    "acNumber": 3,
    "acName": "Gangotri",
    "partNumber": 83,
    "partName": "Dilsaur",
    "lat": 30.9943684,
    "lon": 78.9398699
  },
  {
    "partId": 750,
    "stateCode": "S28",
    "stateName": "Uttarakhand",
    "districtCode": "S2809",
    "districtName": "Uttarkashi",
    "acNumber": 3,
    "acName": "Gangotri",
    "partNumber": 84,
    "partName": "Chamkot",
    "lat": 30.7341449,
    "lon": 78.3844256
  },
  {
    "partId": 694,
    "stateCode": "S28",
    "stateName": "Uttarakhand",
    "districtCode": "S2809",
    "districtName": "Uttarkashi",
    "acNumber": 3,
    "acName": "Gangotri",
    "partNumber": 85,
    "partName": "Musitksaur-Bongadi",
    "lat": 30.9943684,
    "lon": 78.9398699
  },
  {
    "partId": 845,
    "stateCode": "S28",
    "stateName": "Uttarakhand",
    "districtCode": "S2809",
    "districtName": "Uttarkashi",
    "acNumber": 3,
    "acName": "Gangotri",
    "partNumber": 86,
    "partName": "Mastari",
    "lat": 30.7125078,
    "lon": 78.4651494
  },
  {
    "partId": 846,
    "stateCode": "S28",
    "stateName": "Uttarakhand",
    "districtCode": "S2809",
    "districtName": "Uttarkashi",
    "acNumber": 3,
    "acName": "Gangotri",
    "partNumber": 87,
    "partName": "Kankrari",
    "lat": 30.9943684,
    "lon": 78.9398699
  },
  {
    "partId": 695,
    "stateCode": "S28",
    "stateName": "Uttarakhand",
    "districtCode": "S2809",
    "districtName": "Uttarkashi",
    "acNumber": 3,
    "acName": "Gangotri",
    "partNumber": 88,
    "partName": "Kuroli",
    "lat": 30.9943684,
    "lon": 78.9398699
  },
  {
    "partId": 696,
    "stateCode": "S28",
    "stateName": "Uttarakhand",
    "districtCode": "S2809",
    "districtName": "Uttarkashi",
    "acNumber": 3,
    "acName": "Gangotri",
    "partNumber": 89,
    "partName": "Thalan",
    "lat": 30.713241949999997,
    "lon": 78.47962019327602
  },
  {
    "partId": 697,
    "stateCode": "S28",
    "stateName": "Uttarakhand",
    "districtCode": "S2809",
    "districtName": "Uttarkashi",
    "acNumber": 3,
    "acName": "Gangotri",
    "partNumber": 90,
    "partName": "Sada",
    "lat": 30.9943684,
    "lon": 78.9398699
  },
  {
    "partId": 698,
    "stateCode": "S28",
    "stateName": "Uttarakhand",
    "districtCode": "S2809",
    "districtName": "Uttarkashi",
    "acNumber": 3,
    "acName": "Gangotri",
    "partNumber": 91,
    "partName": "Manpur",
    "lat": 30.6971486,
    "lon": 78.4842253
  },
  {
    "partId": 699,
    "stateCode": "S28",
    "stateName": "Uttarakhand",
    "districtCode": "S2809",
    "districtName": "Uttarkashi",
    "acNumber": 3,
    "acName": "Gangotri",
    "partNumber": 92,
    "partName": "Aleth",
    "lat": 30.6889653,
    "lon": 78.4869289
  },
  {
    "partId": 700,
    "stateCode": "S28",
    "stateName": "Uttarakhand",
    "districtCode": "S2809",
    "districtName": "Uttarkashi",
    "acNumber": 3,
    "acName": "Gangotri",
    "partNumber": 93,
    "partName": "kishanpur",
    "lat": 30.904036421257484,
    "lon": 78.73896813574149
  },
  {
    "partId": 701,
    "stateCode": "S28",
    "stateName": "Uttarakhand",
    "districtCode": "S2809",
    "districtName": "Uttarkashi",
    "acNumber": 3,
    "acName": "Gangotri",
    "partNumber": 94,
    "partName": "gangori Uttarkashi",
    "lat": 30.9635733,
    "lon": 78.63625207073864
  },
  {
    "partId": 702,
    "stateCode": "S28",
    "stateName": "Uttarakhand",
    "districtCode": "S2809",
    "districtName": "Uttarkashi",
    "acNumber": 3,
    "acName": "Gangotri",
    "partNumber": 95,
    "partName": "Laksheshwar Uttarkashi",
    "lat": 30.904036421257484,
    "lon": 78.73896813574149
  },
  {
    "partId": 703,
    "stateCode": "S28",
    "stateName": "Uttarakhand",
    "districtCode": "S2809",
    "districtName": "Uttarkashi",
    "acNumber": 3,
    "acName": "Gangotri",
    "partNumber": 96,
    "partName": "Ujeli Uttarkashi R. N. 1",
    "lat": 30.9943684,
    "lon": 78.9398699
  },
  {
    "partId": 704,
    "stateCode": "S28",
    "stateName": "Uttarakhand",
    "districtCode": "S2809",
    "districtName": "Uttarkashi",
    "acNumber": 3,
    "acName": "Gangotri",
    "partNumber": 97,
    "partName": "Ujeli Uttarkashi R. N. 2",
    "lat": 30.9943684,
    "lon": 78.9398699
  },
  {
    "partId": 705,
    "stateCode": "S28",
    "stateName": "Uttarakhand",
    "districtCode": "S2809",
    "districtName": "Uttarkashi",
    "acNumber": 3,
    "acName": "Gangotri",
    "partNumber": 98,
    "partName": "Uttarkashi",
    "lat": 30.9943684,
    "lon": 78.9398699
  },
  {
    "partId": 706,
    "stateCode": "S28",
    "stateName": "Uttarakhand",
    "districtCode": "S2809",
    "districtName": "Uttarkashi",
    "acNumber": 3,
    "acName": "Gangotri",
    "partNumber": 99,
    "partName": "Uttarkashi",
    "lat": 30.7291049,
    "lon": 78.4403495
  },
  {
    "partId": 707,
    "stateCode": "S28",
    "stateName": "Uttarakhand",
    "districtCode": "S2809",
    "districtName": "Uttarkashi",
    "acNumber": 3,
    "acName": "Gangotri",
    "partNumber": 100,
    "partName": "Uttarkashi",
    "lat": 30.904036421257484,
    "lon": 78.73896813574149
  },
  {
    "partId": 708,
    "stateCode": "S28",
    "stateName": "Uttarakhand",
    "districtCode": "S2809",
    "districtName": "Uttarkashi",
    "acNumber": 3,
    "acName": "Gangotri",
    "partNumber": 101,
    "partName": "Uttarkashi",
    "lat": 30.9943684,
    "lon": 78.9398699
  },
  {
    "partId": 709,
    "stateCode": "S28",
    "stateName": "Uttarakhand",
    "districtCode": "S2809",
    "districtName": "Uttarkashi",
    "acNumber": 3,
    "acName": "Gangotri",
    "partNumber": 102,
    "partName": "Gyansu",
    "lat": 30.7325614,
    "lon": 78.4247319
  },
  {
    "partId": 1795,
    "stateCode": "S28",
    "stateName": "Uttarakhand",
    "districtCode": "S2809",
    "districtName": "Uttarkashi",
    "acNumber": 3,
    "acName": "Gangotri",
    "partNumber": 103,
    "partName": "Gyansu",
    "lat": 30.904036421257484,
    "lon": 78.73896813574149
  },
  {
    "partId": 710,
    "stateCode": "S28",
    "stateName": "Uttarakhand",
    "districtCode": "S2809",
    "districtName": "Uttarkashi",
    "acNumber": 3,
    "acName": "Gangotri",
    "partNumber": 104,
    "partName": "Gyansu",
    "lat": 30.7325614,
    "lon": 78.4247319
  },
  {
    "partId": 1796,
    "stateCode": "S28",
    "stateName": "Uttarakhand",
    "districtCode": "S2809",
    "districtName": "Uttarkashi",
    "acNumber": 3,
    "acName": "Gangotri",
    "partNumber": 105,
    "partName": "Gyansu R. N. 1",
    "lat": 30.904036421257484,
    "lon": 78.73896813574149
  },
  {
    "partId": 711,
    "stateCode": "S28",
    "stateName": "Uttarakhand",
    "districtCode": "S2809",
    "districtName": "Uttarkashi",
    "acNumber": 3,
    "acName": "Gangotri",
    "partNumber": 106,
    "partName": "Gyansu R. N. 2",
    "lat": 30.9943684,
    "lon": 78.9398699
  },
  {
    "partId": 712,
    "stateCode": "S28",
    "stateName": "Uttarakhand",
    "districtCode": "S2809",
    "districtName": "Uttarkashi",
    "acNumber": 3,
    "acName": "Gangotri",
    "partNumber": 107,
    "partName": "Basunga",
    "lat": 30.9943684,
    "lon": 78.9398699
  },
  {
    "partId": 713,
    "stateCode": "S28",
    "stateName": "Uttarakhand",
    "districtCode": "S2809",
    "districtName": "Uttarkashi",
    "acNumber": 3,
    "acName": "Gangotri",
    "partNumber": 108,
    "partName": "Bharangaon",
    "lat": 30.904036421257484,
    "lon": 78.73896813574149
  },
  {
    "partId": 751,
    "stateCode": "S28",
    "stateName": "Uttarakhand",
    "districtCode": "S2809",
    "districtName": "Uttarkashi",
    "acNumber": 3,
    "acName": "Gangotri",
    "partNumber": 109,
    "partName": "Uparikot",
    "lat": 30.904036421257484,
    "lon": 78.73896813574149
  },
  {
    "partId": 714,
    "stateCode": "S28",
    "stateName": "Uttarakhand",
    "districtCode": "S2809",
    "districtName": "Uttarkashi",
    "acNumber": 3,
    "acName": "Gangotri",
    "partNumber": 110,
    "partName": "Kanwa",
    "lat": 30.7972823,
    "lon": 78.3908866
  },
  {
    "partId": 841,
    "stateCode": "S28",
    "stateName": "Uttarakhand",
    "districtCode": "S2809",
    "districtName": "Uttarkashi",
    "acNumber": 3,
    "acName": "Gangotri",
    "partNumber": 111,
    "partName": "Khurkot",
    "lat": 30.8006709,
    "lon": 78.3887761
  },
  {
    "partId": 715,
    "stateCode": "S28",
    "stateName": "Uttarakhand",
    "districtCode": "S2809",
    "districtName": "Uttarkashi",
    "acNumber": 3,
    "acName": "Gangotri",
    "partNumber": 112,
    "partName": "Baun",
    "lat": 30.7652411,
    "lon": 78.3576914
  },
  {
    "partId": 716,
    "stateCode": "S28",
    "stateName": "Uttarakhand",
    "districtCode": "S2809",
    "districtName": "Uttarkashi",
    "acNumber": 3,
    "acName": "Gangotri",
    "partNumber": 113,
    "partName": "ChinaKholi",
    "lat": 30.7582438,
    "lon": 78.3594184
  },
  {
    "partId": 717,
    "stateCode": "S28",
    "stateName": "Uttarakhand",
    "districtCode": "S2809",
    "districtName": "Uttarkashi",
    "acNumber": 3,
    "acName": "Gangotri",
    "partNumber": 114,
    "partName": "Jiguldi Rawaindhar",
    "lat": 30.9943684,
    "lon": 78.9398699
  },
  {
    "partId": 822,
    "stateCode": "S28",
    "stateName": "Uttarakhand",
    "districtCode": "S2809",
    "districtName": "Uttarkashi",
    "acNumber": 3,
    "acName": "Gangotri",
    "partNumber": 115,
    "partName": "Panjiyala",
    "lat": 30.9943684,
    "lon": 78.9398699
  },
  {
    "partId": 718,
    "stateCode": "S28",
    "stateName": "Uttarakhand",
    "districtCode": "S2809",
    "districtName": "Uttarkashi",
    "acNumber": 3,
    "acName": "Gangotri",
    "partNumber": 116,
    "partName": "Genwala-barsali",
    "lat": 30.9943684,
    "lon": 78.9398699
  },
  {
    "partId": 719,
    "stateCode": "S28",
    "stateName": "Uttarakhand",
    "districtCode": "S2809",
    "districtName": "Uttarkashi",
    "acNumber": 3,
    "acName": "Gangotri",
    "partNumber": 117,
    "partName": "Barethi Barsali",
    "lat": 30.9943684,
    "lon": 78.9398699
  },
  {
    "partId": 1797,
    "stateCode": "S28",
    "stateName": "Uttarakhand",
    "districtCode": "S2809",
    "districtName": "Uttarkashi",
    "acNumber": 3,
    "acName": "Gangotri",
    "partNumber": 118,
    "partName": "Barethi Barsali",
    "lat": 30.9943684,
    "lon": 78.9398699
  },
  {
    "partId": 823,
    "stateCode": "S28",
    "stateName": "Uttarakhand",
    "districtCode": "S2809",
    "districtName": "Uttarkashi",
    "acNumber": 3,
    "acName": "Gangotri",
    "partNumber": 119,
    "partName": "Kharwan Urf Chandpur",
    "lat": 30.9943684,
    "lon": 78.9398699
  },
  {
    "partId": 720,
    "stateCode": "S28",
    "stateName": "Uttarakhand",
    "districtCode": "S2809",
    "districtName": "Uttarkashi",
    "acNumber": 3,
    "acName": "Gangotri",
    "partNumber": 120,
    "partName": "Matli  Ghitiya",
    "lat": 30.9943684,
    "lon": 78.9398699
  },
  {
    "partId": 759,
    "stateCode": "S28",
    "stateName": "Uttarakhand",
    "districtCode": "S2809",
    "districtName": "Uttarkashi",
    "acNumber": 3,
    "acName": "Gangotri",
    "partNumber": 121,
    "partName": "Matli  Kailath",
    "lat": 30.9943684,
    "lon": 78.9398699
  },
  {
    "partId": 760,
    "stateCode": "S28",
    "stateName": "Uttarakhand",
    "districtCode": "S2809",
    "districtName": "Uttarkashi",
    "acNumber": 3,
    "acName": "Gangotri",
    "partNumber": 122,
    "partName": "Beerpur Dunda R. N. 1",
    "lat": 30.904036421257484,
    "lon": 78.73896813574149
  },
  {
    "partId": 824,
    "stateCode": "S28",
    "stateName": "Uttarakhand",
    "districtCode": "S2809",
    "districtName": "Uttarkashi",
    "acNumber": 3,
    "acName": "Gangotri",
    "partNumber": 123,
    "partName": "Beerpur- Dunda R. N. 2",
    "lat": 30.9943684,
    "lon": 78.9398699
  },
  {
    "partId": 761,
    "stateCode": "S28",
    "stateName": "Uttarakhand",
    "districtCode": "S2809",
    "districtName": "Uttarkashi",
    "acNumber": 3,
    "acName": "Gangotri",
    "partNumber": 124,
    "partName": "Devidhar Dunda R. N. 1",
    "lat": 30.904036421257484,
    "lon": 78.73896813574149
  },
  {
    "partId": 752,
    "stateCode": "S28",
    "stateName": "Uttarakhand",
    "districtCode": "S2809",
    "districtName": "Uttarkashi",
    "acNumber": 3,
    "acName": "Gangotri",
    "partNumber": 125,
    "partName": "Jakhari",
    "lat": 30.7102756,
    "lon": 78.3380556
  },
  {
    "partId": 825,
    "stateCode": "S28",
    "stateName": "Uttarakhand",
    "districtCode": "S2809",
    "districtName": "Uttarkashi",
    "acNumber": 3,
    "acName": "Gangotri",
    "partNumber": 126,
    "partName": "Devidhar Dunda R. N. 2",
    "lat": 30.9943684,
    "lon": 78.9398699
  },
  {
    "partId": 753,
    "stateCode": "S28",
    "stateName": "Uttarakhand",
    "districtCode": "S2809",
    "districtName": "Uttarkashi",
    "acNumber": 3,
    "acName": "Gangotri",
    "partNumber": 127,
    "partName": "Khattukhal",
    "lat": 30.9943684,
    "lon": 78.9398699
  },
  {
    "partId": 762,
    "stateCode": "S28",
    "stateName": "Uttarakhand",
    "districtCode": "S2809",
    "districtName": "Uttarkashi",
    "acNumber": 3,
    "acName": "Gangotri",
    "partNumber": 128,
    "partName": "Nakuri",
    "lat": 30.7373613,
    "lon": 78.3503905
  },
  {
    "partId": 754,
    "stateCode": "S28",
    "stateName": "Uttarakhand",
    "districtCode": "S2809",
    "districtName": "Uttarkashi",
    "acNumber": 3,
    "acName": "Gangotri",
    "partNumber": 129,
    "partName": "Kurah",
    "lat": 30.72068,
    "lon": 78.3462524
  },
  {
    "partId": 763,
    "stateCode": "S28",
    "stateName": "Uttarakhand",
    "districtCode": "S2809",
    "districtName": "Uttarkashi",
    "acNumber": 3,
    "acName": "Gangotri",
    "partNumber": 130,
    "partName": "Saundgaon garhbarsali",
    "lat": 30.9943684,
    "lon": 78.9398699
  },
  {
    "partId": 857,
    "stateCode": "S28",
    "stateName": "Uttarakhand",
    "districtCode": "S2809",
    "districtName": "Uttarkashi",
    "acNumber": 3,
    "acName": "Gangotri",
    "partNumber": 131,
    "partName": "Mangli Sera",
    "lat": 30.9943684,
    "lon": 78.9398699
  },
  {
    "partId": 826,
    "stateCode": "S28",
    "stateName": "Uttarakhand",
    "districtCode": "S2809",
    "districtName": "Uttarkashi",
    "acNumber": 3,
    "acName": "Gangotri",
    "partNumber": 132,
    "partName": "Kunsi",
    "lat": 30.9943684,
    "lon": 78.9398699
  },
  {
    "partId": 764,
    "stateCode": "S28",
    "stateName": "Uttarakhand",
    "districtCode": "S2809",
    "districtName": "Uttarkashi",
    "acNumber": 3,
    "acName": "Gangotri",
    "partNumber": 133,
    "partName": "Singot",
    "lat": 30.9943684,
    "lon": 78.9398699
  },
  {
    "partId": 765,
    "stateCode": "S28",
    "stateName": "Uttarakhand",
    "districtCode": "S2809",
    "districtName": "Uttarkashi",
    "acNumber": 3,
    "acName": "Gangotri",
    "partNumber": 134,
    "partName": "Paw",
    "lat": 30.9943684,
    "lon": 78.9398699
  },
  {
    "partId": 766,
    "stateCode": "S28",
    "stateName": "Uttarakhand",
    "districtCode": "S2809",
    "districtName": "Uttarkashi",
    "acNumber": 3,
    "acName": "Gangotri",
    "partNumber": 135,
    "partName": "Fold",
    "lat": 30.6676508,
    "lon": 78.4655548
  },
  {
    "partId": 827,
    "stateCode": "S28",
    "stateName": "Uttarakhand",
    "districtCode": "S2809",
    "districtName": "Uttarkashi",
    "acNumber": 3,
    "acName": "Gangotri",
    "partNumber": 136,
    "partName": "Chakon",
    "lat": 30.904036421257484,
    "lon": 78.73896813574149
  },
  {
    "partId": 842,
    "stateCode": "S28",
    "stateName": "Uttarakhand",
    "districtCode": "S2809",
    "districtName": "Uttarkashi",
    "acNumber": 3,
    "acName": "Gangotri",
    "partNumber": 137,
    "partName": "Digthol",
    "lat": 30.9943684,
    "lon": 78.9398699
  },
  {
    "partId": 767,
    "stateCode": "S28",
    "stateName": "Uttarakhand",
    "districtCode": "S2809",
    "districtName": "Uttarkashi",
    "acNumber": 3,
    "acName": "Gangotri",
    "partNumber": 138,
    "partName": "Bhatwari Dhanari",
    "lat": 30.9943684,
    "lon": 78.9398699
  },
  {
    "partId": 847,
    "stateCode": "S28",
    "stateName": "Uttarakhand",
    "districtCode": "S2809",
    "districtName": "Uttarkashi",
    "acNumber": 3,
    "acName": "Gangotri",
    "partNumber": 139,
    "partName": "Panchan Gaon",
    "lat": 30.9635733,
    "lon": 78.63625207073864
  },
  {
    "partId": 768,
    "stateCode": "S28",
    "stateName": "Uttarakhand",
    "districtCode": "S2809",
    "districtName": "Uttarkashi",
    "acNumber": 3,
    "acName": "Gangotri",
    "partNumber": 140,
    "partName": "Musargaon",
    "lat": 30.9943684,
    "lon": 78.9398699
  },
  {
    "partId": 828,
    "stateCode": "S28",
    "stateName": "Uttarakhand",
    "districtCode": "S2809",
    "districtName": "Uttarkashi",
    "acNumber": 3,
    "acName": "Gangotri",
    "partNumber": 141,
    "partName": "Bagsari  may  Dhungal gaon",
    "lat": 30.9943684,
    "lon": 78.9398699
  },
  {
    "partId": 755,
    "stateCode": "S28",
    "stateName": "Uttarakhand",
    "districtCode": "S2809",
    "districtName": "Uttarkashi",
    "acNumber": 3,
    "acName": "Gangotri",
    "partNumber": 142,
    "partName": "Bagsari",
    "lat": 30.65735,
    "lon": 78.42316
  },
  {
    "partId": 769,
    "stateCode": "S28",
    "stateName": "Uttarakhand",
    "districtCode": "S2809",
    "districtName": "Uttarkashi",
    "acNumber": 3,
    "acName": "Gangotri",
    "partNumber": 143,
    "partName": "Paturi",
    "lat": 30.9943684,
    "lon": 78.9398699
  },
  {
    "partId": 770,
    "stateCode": "S28",
    "stateName": "Uttarakhand",
    "districtCode": "S2809",
    "districtName": "Uttarkashi",
    "acNumber": 3,
    "acName": "Gangotri",
    "partNumber": 144,
    "partName": "Kali gaon",
    "lat": 30.7291933,
    "lon": 78.4364496
  },
  {
    "partId": 848,
    "stateCode": "S28",
    "stateName": "Uttarakhand",
    "districtCode": "S2809",
    "districtName": "Uttarkashi",
    "acNumber": 3,
    "acName": "Gangotri",
    "partNumber": 145,
    "partName": "Bagyal Gaon",
    "lat": 30.7466564,
    "lon": 78.457749
  },
  {
    "partId": 771,
    "stateCode": "S28",
    "stateName": "Uttarakhand",
    "districtCode": "S2809",
    "districtName": "Uttarkashi",
    "acNumber": 3,
    "acName": "Gangotri",
    "partNumber": 146,
    "partName": "Singuni",
    "lat": 30.9943684,
    "lon": 78.9398699
  },
  {
    "partId": 858,
    "stateCode": "S28",
    "stateName": "Uttarakhand",
    "districtCode": "S2809",
    "districtName": "Uttarkashi",
    "acNumber": 3,
    "acName": "Gangotri",
    "partNumber": 147,
    "partName": "Dhungi",
    "lat": 30.6677979,
    "lon": 78.3617663
  },
  {
    "partId": 756,
    "stateCode": "S28",
    "stateName": "Uttarakhand",
    "districtCode": "S2809",
    "districtName": "Uttarkashi",
    "acNumber": 3,
    "acName": "Gangotri",
    "partNumber": 148,
    "partName": "Painibhawan",
    "lat": 30.904036421257484,
    "lon": 78.73896813574149
  },
  {
    "partId": 829,
    "stateCode": "S28",
    "stateName": "Uttarakhand",
    "districtCode": "S2809",
    "districtName": "Uttarkashi",
    "acNumber": 3,
    "acName": "Gangotri",
    "partNumber": 149,
    "partName": "Pipli rajk",
    "lat": 30.9943684,
    "lon": 78.9398699
  },
  {
    "partId": 849,
    "stateCode": "S28",
    "stateName": "Uttarakhand",
    "districtCode": "S2809",
    "districtName": "Uttarkashi",
    "acNumber": 3,
    "acName": "Gangotri",
    "partNumber": 150,
    "partName": "Pipli",
    "lat": 30.6540085,
    "lon": 78.3916808
  },
  {
    "partId": 772,
    "stateCode": "S28",
    "stateName": "Uttarakhand",
    "districtCode": "S2809",
    "districtName": "Uttarkashi",
    "acNumber": 3,
    "acName": "Gangotri",
    "partNumber": 151,
    "partName": "Thati Dhanari",
    "lat": 30.9943684,
    "lon": 78.9398699
  },
  {
    "partId": 773,
    "stateCode": "S28",
    "stateName": "Uttarakhand",
    "districtCode": "S2809",
    "districtName": "Uttarkashi",
    "acNumber": 3,
    "acName": "Gangotri",
    "partNumber": 152,
    "partName": "Ide",
    "lat": 30.9943684,
    "lon": 78.9398699
  },
  {
    "partId": 830,
    "stateCode": "S28",
    "stateName": "Uttarakhand",
    "districtCode": "S2809",
    "districtName": "Uttarkashi",
    "acNumber": 3,
    "acName": "Gangotri",
    "partNumber": 153,
    "partName": "Pujyargaon Dhanari",
    "lat": 30.9943684,
    "lon": 78.9398699
  },
  {
    "partId": 774,
    "stateCode": "S28",
    "stateName": "Uttarakhand",
    "districtCode": "S2809",
    "districtName": "Uttarkashi",
    "acNumber": 3,
    "acName": "Gangotri",
    "partNumber": 154,
    "partName": "Gawana",
    "lat": 30.769701,
    "lon": 78.4875731
  },
  {
    "partId": 859,
    "stateCode": "S28",
    "stateName": "Uttarakhand",
    "districtCode": "S2809",
    "districtName": "Uttarkashi",
    "acNumber": 3,
    "acName": "Gangotri",
    "partNumber": 155,
    "partName": "Diwali",
    "lat": 30.9943684,
    "lon": 78.9398699
  },
  {
    "partId": 775,
    "stateCode": "S28",
    "stateName": "Uttarakhand",
    "districtCode": "S2809",
    "districtName": "Uttarkashi",
    "acNumber": 3,
    "acName": "Gangotri",
    "partNumber": 156,
    "partName": "Astal",
    "lat": 30.7010509,
    "lon": 78.3545995
  },
  {
    "partId": 850,
    "stateCode": "S28",
    "stateName": "Uttarakhand",
    "districtCode": "S2809",
    "districtName": "Uttarkashi",
    "acNumber": 3,
    "acName": "Gangotri",
    "partNumber": 157,
    "partName": "Ranadi",
    "lat": 30.9943684,
    "lon": 78.9398699
  },
  {
    "partId": 776,
    "stateCode": "S28",
    "stateName": "Uttarakhand",
    "districtCode": "S2809",
    "districtName": "Uttarkashi",
    "acNumber": 3,
    "acName": "Gangotri",
    "partNumber": 158,
    "partName": "Bhalsi",
    "lat": 30.6846842,
    "lon": 78.3602857
  },
  {
    "partId": 860,
    "stateCode": "S28",
    "stateName": "Uttarakhand",
    "districtCode": "S2809",
    "districtName": "Uttarkashi",
    "acNumber": 3,
    "acName": "Gangotri",
    "partNumber": 159,
    "partName": "Tukhar Hitanu",
    "lat": 30.9943684,
    "lon": 78.9398699
  },
  {
    "partId": 777,
    "stateCode": "S28",
    "stateName": "Uttarakhand",
    "districtCode": "S2809",
    "districtName": "Uttarkashi",
    "acNumber": 3,
    "acName": "Gangotri",
    "partNumber": 160,
    "partName": "Manjaf",
    "lat": 30.9943684,
    "lon": 78.9398699
  },
  {
    "partId": 778,
    "stateCode": "S28",
    "stateName": "Uttarakhand",
    "districtCode": "S2809",
    "districtName": "Uttarkashi",
    "acNumber": 3,
    "acName": "Gangotri",
    "partNumber": 161,
    "partName": "Kamad",
    "lat": 30.6360971,
    "lon": 78.5622772
  },
  {
    "partId": 831,
    "stateCode": "S28",
    "stateName": "Uttarakhand",
    "districtCode": "S2809",
    "districtName": "Uttarkashi",
    "acNumber": 3,
    "acName": "Gangotri",
    "partNumber": 162,
    "partName": "Bagi",
    "lat": 30.6618639,
    "lon": 78.2600999
  },
  {
    "partId": 779,
    "stateCode": "S28",
    "stateName": "Uttarakhand",
    "districtCode": "S2809",
    "districtName": "Uttarkashi",
    "acNumber": 3,
    "acName": "Gangotri",
    "partNumber": 163,
    "partName": "Thandi",
    "lat": 30.9943684,
    "lon": 78.9398699
  },
  {
    "partId": 780,
    "stateCode": "S28",
    "stateName": "Uttarakhand",
    "districtCode": "S2809",
    "districtName": "Uttarkashi",
    "acNumber": 3,
    "acName": "Gangotri",
    "partNumber": 164,
    "partName": "Kumarkot",
    "lat": 30.9943684,
    "lon": 78.9398699
  },
  {
    "partId": 832,
    "stateCode": "S28",
    "stateName": "Uttarakhand",
    "districtCode": "S2809",
    "districtName": "Uttarkashi",
    "acNumber": 3,
    "acName": "Gangotri",
    "partNumber": 165,
    "partName": "Siri gaon",
    "lat": 30.9635733,
    "lon": 78.63625207073864
  },
  {
    "partId": 851,
    "stateCode": "S28",
    "stateName": "Uttarakhand",
    "districtCode": "S2809",
    "districtName": "Uttarkashi",
    "acNumber": 3,
    "acName": "Gangotri",
    "partNumber": 166,
    "partName": "Dhauntri",
    "lat": 30.6067827,
    "lon": 78.5155581
  },
  {
    "partId": 781,
    "stateCode": "S28",
    "stateName": "Uttarakhand",
    "districtCode": "S2809",
    "districtName": "Uttarkashi",
    "acNumber": 3,
    "acName": "Gangotri",
    "partNumber": 167,
    "partName": "Bharkot",
    "lat": 30.623851,
    "lon": 78.547403
  },
  {
    "partId": 782,
    "stateCode": "S28",
    "stateName": "Uttarakhand",
    "districtCode": "S2809",
    "districtName": "Uttarkashi",
    "acNumber": 3,
    "acName": "Gangotri",
    "partNumber": 168,
    "partName": "Dhontir- Bhetiyara",
    "lat": 30.904036421257484,
    "lon": 78.73896813574149
  },
  {
    "partId": 757,
    "stateCode": "S28",
    "stateName": "Uttarakhand",
    "districtCode": "S2809",
    "districtName": "Uttarkashi",
    "acNumber": 3,
    "acName": "Gangotri",
    "partNumber": 169,
    "partName": "Lodara",
    "lat": 30.6139435,
    "lon": 78.5113891
  },
  {
    "partId": 833,
    "stateCode": "S28",
    "stateName": "Uttarakhand",
    "districtCode": "S2809",
    "districtName": "Uttarkashi",
    "acNumber": 3,
    "acName": "Gangotri",
    "partNumber": 170,
    "partName": "Dikholi",
    "lat": 30.9943684,
    "lon": 78.9398699
  },
  {
    "partId": 783,
    "stateCode": "S28",
    "stateName": "Uttarakhand",
    "districtCode": "S2809",
    "districtName": "Uttarkashi",
    "acNumber": 3,
    "acName": "Gangotri",
    "partNumber": 171,
    "partName": "Udri",
    "lat": 30.5785369,
    "lon": 78.5220875
  },
  {
    "partId": 784,
    "stateCode": "S28",
    "stateName": "Uttarakhand",
    "districtCode": "S2809",
    "districtName": "Uttarkashi",
    "acNumber": 3,
    "acName": "Gangotri",
    "partNumber": 172,
    "partName": "MATTATI",
    "lat": 30.9943684,
    "lon": 78.9398699
  },
  {
    "partId": 687,
    "stateCode": "S28",
    "stateName": "Uttarakhand",
    "districtCode": "S2809",
    "districtName": "Uttarkashi",
    "acNumber": 3,
    "acName": "Gangotri",
    "partNumber": 173,
    "partName": "Badeth Gajna",
    "lat": 30.9943684,
    "lon": 78.9398699
  },
  {
    "partId": 834,
    "stateCode": "S28",
    "stateName": "Uttarakhand",
    "districtCode": "S2809",
    "districtName": "Uttarkashi",
    "acNumber": 3,
    "acName": "Gangotri",
    "partNumber": 174,
    "partName": "Gadhthati",
    "lat": 30.9943684,
    "lon": 78.9398699
  },
  {
    "partId": 785,
    "stateCode": "S28",
    "stateName": "Uttarakhand",
    "districtCode": "S2809",
    "districtName": "Uttarkashi",
    "acNumber": 3,
    "acName": "Gangotri",
    "partNumber": 175,
    "partName": "Newsari Newgaon",
    "lat": 30.9943684,
    "lon": 78.9398699
  },
  {
    "partId": 852,
    "stateCode": "S28",
    "stateName": "Uttarakhand",
    "districtCode": "S2809",
    "districtName": "Uttarkashi",
    "acNumber": 3,
    "acName": "Gangotri",
    "partNumber": 176,
    "partName": "Pokhriyal Gaon",
    "lat": 30.9943684,
    "lon": 78.9398699
  },
  {
    "partId": 804,
    "stateCode": "S28",
    "stateName": "Uttarakhand",
    "districtCode": "S2809",
    "districtName": "Uttarkashi",
    "acNumber": 3,
    "acName": "Gangotri",
    "partNumber": 177,
    "partName": "Naipar",
    "lat": 30.9943684,
    "lon": 78.9398699
  },
  {
    "partId": 758,
    "stateCode": "S28",
    "stateName": "Uttarakhand",
    "districtCode": "S2809",
    "districtName": "Uttarkashi",
    "acNumber": 3,
    "acName": "Gangotri",
    "partNumber": 178,
    "partName": "Bhaint May Nail",
    "lat": 30.9943684,
    "lon": 78.9398699
  },
  {
    "partId": 786,
    "stateCode": "S28",
    "stateName": "Uttarakhand",
    "districtCode": "S2809",
    "districtName": "Uttarkashi",
    "acNumber": 3,
    "acName": "Gangotri",
    "partNumber": 179,
    "partName": "Huldiyana",
    "lat": 30.9943684,
    "lon": 78.9398699
  },
  {
    "partId": 64,
    "stateCode": "S28",
    "stateName": "Uttarakhand",
    "districtCode": "S2809",
    "districtName": "Uttarkashi",
    "acNumber": 1,
    "acName": "Purola",
    "partNumber": 1,
    "partName": "Karra",
    "lat": 30.8786966,
    "lon": 78.0831875
  },
  {
    "partId": 464,
    "stateCode": "S28",
    "stateName": "Uttarakhand",
    "districtCode": "S2809",
    "districtName": "Uttarkashi",
    "acNumber": 1,
    "acName": "Purola",
    "partNumber": 2,
    "partName": "Shikaru",
    "lat": 30.8676414,
    "lon": 78.0386781
  },
  {
    "partId": 65,
    "stateCode": "S28",
    "stateName": "Uttarakhand",
    "districtCode": "S2809",
    "districtName": "Uttarkashi",
    "acNumber": 1,
    "acName": "Purola",
    "partNumber": 3,
    "partName": "Dhakara",
    "lat": 30.9635733,
    "lon": 78.63625207073864
  },
  {
    "partId": 66,
    "stateCode": "S28",
    "stateName": "Uttarakhand",
    "districtCode": "S2809",
    "districtName": "Uttarkashi",
    "acNumber": 1,
    "acName": "Purola",
    "partNumber": 4,
    "partName": "Pujeli",
    "lat": 31.1049938,
    "lon": 78.0888117
  },
  {
    "partId": 67,
    "stateCode": "S28",
    "stateName": "Uttarakhand",
    "districtCode": "S2809",
    "districtName": "Uttarkashi",
    "acNumber": 1,
    "acName": "Purola",
    "partNumber": 5,
    "partName": "Chandeli",
    "lat": 30.8786966,
    "lon": 78.0831875
  },
  {
    "partId": 504,
    "stateCode": "S28",
    "stateName": "Uttarakhand",
    "districtCode": "S2809",
    "districtName": "Uttarkashi",
    "acNumber": 1,
    "acName": "Purola",
    "partNumber": 6,
    "partName": "Saundari",
    "lat": 30.9635733,
    "lon": 78.63625207073864
  },
  {
    "partId": 68,
    "stateCode": "S28",
    "stateName": "Uttarakhand",
    "districtCode": "S2809",
    "districtName": "Uttarkashi",
    "acNumber": 1,
    "acName": "Purola",
    "partNumber": 7,
    "partName": "Netri",
    "lat": 30.8532372,
    "lon": 78.0813575
  },
  {
    "partId": 4,
    "stateCode": "S28",
    "stateName": "Uttarakhand",
    "districtCode": "S2809",
    "districtName": "Uttarkashi",
    "acNumber": 1,
    "acName": "Purola",
    "partNumber": 8,
    "partName": "Kantari",
    "lat": 30.8786966,
    "lon": 78.0831875
  },
  {
    "partId": 13,
    "stateCode": "S28",
    "stateName": "Uttarakhand",
    "districtCode": "S2809",
    "districtName": "Uttarkashi",
    "acNumber": 1,
    "acName": "Purola",
    "partNumber": 9,
    "partName": "Hudoli",
    "lat": 30.8300116,
    "lon": 78.1054273
  },
  {
    "partId": 465,
    "stateCode": "S28",
    "stateName": "Uttarakhand",
    "districtCode": "S2809",
    "districtName": "Uttarkashi",
    "acNumber": 1,
    "acName": "Purola",
    "partNumber": 10,
    "partName": "Thadung",
    "lat": 30.8295151,
    "lon": 78.0956097
  },
  {
    "partId": 14,
    "stateCode": "S28",
    "stateName": "Uttarakhand",
    "districtCode": "S2809",
    "districtName": "Uttarkashi",
    "acNumber": 1,
    "acName": "Purola",
    "partNumber": 11,
    "partName": "Panigaon",
    "lat": 30.8786966,
    "lon": 78.0831875
  },
  {
    "partId": 15,
    "stateCode": "S28",
    "stateName": "Uttarakhand",
    "districtCode": "S2809",
    "districtName": "Uttarkashi",
    "acNumber": 1,
    "acName": "Purola",
    "partNumber": 12,
    "partName": "Sankhal",
    "lat": 30.8786966,
    "lon": 78.0831875
  },
  {
    "partId": 466,
    "stateCode": "S28",
    "stateName": "Uttarakhand",
    "districtCode": "S2809",
    "districtName": "Uttarkashi",
    "acNumber": 1,
    "acName": "Purola",
    "partNumber": 13,
    "partName": "Kamra",
    "lat": 30.7925941,
    "lon": 78.0471503
  },
  {
    "partId": 16,
    "stateCode": "S28",
    "stateName": "Uttarakhand",
    "districtCode": "S2809",
    "districtName": "Uttarkashi",
    "acNumber": 1,
    "acName": "Purola",
    "partNumber": 14,
    "partName": "Bhankoli",
    "lat": 30.8438973,
    "lon": 78.4606326
  },
  {
    "partId": 444,
    "stateCode": "S28",
    "stateName": "Uttarakhand",
    "districtCode": "S2809",
    "districtName": "Uttarkashi",
    "acNumber": 1,
    "acName": "Purola",
    "partNumber": 15,
    "partName": "Chhamrota",
    "lat": 30.9635733,
    "lon": 78.63625207073864
  },
  {
    "partId": 17,
    "stateCode": "S28",
    "stateName": "Uttarakhand",
    "districtCode": "S2809",
    "districtName": "Uttarkashi",
    "acNumber": 1,
    "acName": "Purola",
    "partNumber": 16,
    "partName": "Thali",
    "lat": 30.7852026,
    "lon": 78.1057119
  },
  {
    "partId": 18,
    "stateCode": "S28",
    "stateName": "Uttarakhand",
    "districtCode": "S2809",
    "districtName": "Uttarkashi",
    "acNumber": 1,
    "acName": "Purola",
    "partNumber": 17,
    "partName": "Kumola- Korna",
    "lat": 30.8786966,
    "lon": 78.0831875
  },
  {
    "partId": 19,
    "stateCode": "S28",
    "stateName": "Uttarakhand",
    "districtCode": "S2809",
    "districtName": "Uttarkashi",
    "acNumber": 1,
    "acName": "Purola",
    "partNumber": 18,
    "partName": "Nauri",
    "lat": 30.8786966,
    "lon": 78.0831875
  },
  {
    "partId": 20,
    "stateCode": "S28",
    "stateName": "Uttarakhand",
    "districtCode": "S2809",
    "districtName": "Uttarkashi",
    "acNumber": 1,
    "acName": "Purola",
    "partNumber": 19,
    "partName": "Khawlisera",
    "lat": 30.8786966,
    "lon": 78.0831875
  },
  {
    "partId": 7,
    "stateCode": "S28",
    "stateName": "Uttarakhand",
    "districtCode": "S2809",
    "districtName": "Uttarkashi",
    "acNumber": 1,
    "acName": "Purola",
    "partNumber": 20,
    "partName": "Khabli Shera",
    "lat": 30.8786966,
    "lon": 78.0831875
  },
  {
    "partId": 21,
    "stateCode": "S28",
    "stateName": "Uttarakhand",
    "districtCode": "S2809",
    "districtName": "Uttarkashi",
    "acNumber": 1,
    "acName": "Purola",
    "partNumber": 21,
    "partName": "Chhibala",
    "lat": 30.8786966,
    "lon": 78.0831875
  },
  {
    "partId": 506,
    "stateCode": "S28",
    "stateName": "Uttarakhand",
    "districtCode": "S2809",
    "districtName": "Uttarkashi",
    "acNumber": 1,
    "acName": "Purola",
    "partNumber": 22,
    "partName": "Makhna",
    "lat": 30.8786966,
    "lon": 78.0831875
  },
  {
    "partId": 22,
    "stateCode": "S28",
    "stateName": "Uttarakhand",
    "districtCode": "S2809",
    "districtName": "Uttarkashi",
    "acNumber": 1,
    "acName": "Purola",
    "partNumber": 23,
    "partName": "Purola",
    "lat": 30.8786966,
    "lon": 78.0831875
  },
  {
    "partId": 23,
    "stateCode": "S28",
    "stateName": "Uttarakhand",
    "districtCode": "S2809",
    "districtName": "Uttarkashi",
    "acNumber": 1,
    "acName": "Purola",
    "partNumber": 24,
    "partName": "Purola",
    "lat": 30.8786966,
    "lon": 78.0831875
  },
  {
    "partId": 24,
    "stateCode": "S28",
    "stateName": "Uttarakhand",
    "districtCode": "S2809",
    "districtName": "Uttarkashi",
    "acNumber": 1,
    "acName": "Purola",
    "partNumber": 25,
    "partName": "Kurra",
    "lat": 30.8786966,
    "lon": 78.0831875
  },
  {
    "partId": 25,
    "stateCode": "S28",
    "stateName": "Uttarakhand",
    "districtCode": "S2809",
    "districtName": "Uttarkashi",
    "acNumber": 1,
    "acName": "Purola",
    "partNumber": 26,
    "partName": "Sunali",
    "lat": 30.9635733,
    "lon": 78.63625207073864
  },
  {
    "partId": 505,
    "stateCode": "S28",
    "stateName": "Uttarakhand",
    "districtCode": "S2809",
    "districtName": "Uttarkashi",
    "acNumber": 1,
    "acName": "Purola",
    "partNumber": 27,
    "partName": "Shrikot",
    "lat": 30.63812,
    "lon": 78.2927
  },
  {
    "partId": 26,
    "stateCode": "S28",
    "stateName": "Uttarakhand",
    "districtCode": "S2809",
    "districtName": "Uttarkashi",
    "acNumber": 1,
    "acName": "Purola",
    "partNumber": 28,
    "partName": "Derika",
    "lat": 30.8786966,
    "lon": 78.0831875
  },
  {
    "partId": 467,
    "stateCode": "S28",
    "stateName": "Uttarakhand",
    "districtCode": "S2809",
    "districtName": "Uttarkashi",
    "acNumber": 1,
    "acName": "Purola",
    "partNumber": 29,
    "partName": "Suranu ki seri",
    "lat": 30.8786966,
    "lon": 78.0831875
  },
  {
    "partId": 27,
    "stateCode": "S28",
    "stateName": "Uttarakhand",
    "districtCode": "S2809",
    "districtName": "Uttarkashi",
    "acNumber": 1,
    "acName": "Purola",
    "partNumber": 30,
    "partName": "Mahargaon",
    "lat": 30.8786966,
    "lon": 78.0831875
  },
  {
    "partId": 28,
    "stateCode": "S28",
    "stateName": "Uttarakhand",
    "districtCode": "S2809",
    "districtName": "Uttarkashi",
    "acNumber": 1,
    "acName": "Purola",
    "partNumber": 31,
    "partName": "Math",
    "lat": 30.90454,
    "lon": 78.10456
  },
  {
    "partId": 29,
    "stateCode": "S28",
    "stateName": "Uttarakhand",
    "districtCode": "S2809",
    "districtName": "Uttarkashi",
    "acNumber": 1,
    "acName": "Purola",
    "partNumber": 32,
    "partName": "Kandiyalgaon",
    "lat": 30.8786966,
    "lon": 78.0831875
  },
  {
    "partId": 30,
    "stateCode": "S28",
    "stateName": "Uttarakhand",
    "districtCode": "S2809",
    "districtName": "Uttarkashi",
    "acNumber": 1,
    "acName": "Purola",
    "partNumber": 33,
    "partName": "Moltari",
    "lat": 30.8786966,
    "lon": 78.0831875
  },
  {
    "partId": 468,
    "stateCode": "S28",
    "stateName": "Uttarakhand",
    "districtCode": "S2809",
    "districtName": "Uttarkashi",
    "acNumber": 1,
    "acName": "Purola",
    "partNumber": 34,
    "partName": "koti",
    "lat": 30.89356,
    "lon": 78.10044
  },
  {
    "partId": 469,
    "stateCode": "S28",
    "stateName": "Uttarakhand",
    "districtCode": "S2809",
    "districtName": "Uttarkashi",
    "acNumber": 1,
    "acName": "Purola",
    "partNumber": 35,
    "partName": "kharkyasem",
    "lat": 30.8786966,
    "lon": 78.0831875
  },
  {
    "partId": 31,
    "stateCode": "S28",
    "stateName": "Uttarakhand",
    "districtCode": "S2809",
    "districtName": "Uttarkashi",
    "acNumber": 1,
    "acName": "Purola",
    "partNumber": 36,
    "partName": "Gundiyatgaon",
    "lat": 30.8786966,
    "lon": 78.0831875
  },
  {
    "partId": 32,
    "stateCode": "S28",
    "stateName": "Uttarakhand",
    "districtCode": "S2809",
    "districtName": "Uttarkashi",
    "acNumber": 1,
    "acName": "Purola",
    "partNumber": 37,
    "partName": "Nagjhala",
    "lat": 30.8786966,
    "lon": 78.0831875
  },
  {
    "partId": 33,
    "stateCode": "S28",
    "stateName": "Uttarakhand",
    "districtCode": "S2809",
    "districtName": "Uttarkashi",
    "acNumber": 1,
    "acName": "Purola",
    "partNumber": 38,
    "partName": "Pora",
    "lat": 30.92239,
    "lon": 78.10593
  },
  {
    "partId": 34,
    "stateCode": "S28",
    "stateName": "Uttarakhand",
    "districtCode": "S2809",
    "districtName": "Uttarkashi",
    "acNumber": 1,
    "acName": "Purola",
    "partNumber": 39,
    "partName": "Rewri Syaluka",
    "lat": 30.8786966,
    "lon": 78.0831875
  },
  {
    "partId": 35,
    "stateCode": "S28",
    "stateName": "Uttarakhand",
    "districtCode": "S2809",
    "districtName": "Uttarkashi",
    "acNumber": 1,
    "acName": "Purola",
    "partNumber": 40,
    "partName": "Westi Palli",
    "lat": 30.8786966,
    "lon": 78.0831875
  },
  {
    "partId": 36,
    "stateCode": "S28",
    "stateName": "Uttarakhand",
    "districtCode": "S2809",
    "districtName": "Uttarkashi",
    "acNumber": 1,
    "acName": "Purola",
    "partNumber": 41,
    "partName": "Sargaon Badiyar",
    "lat": 30.8786966,
    "lon": 78.0831875
  },
  {
    "partId": 470,
    "stateCode": "S28",
    "stateName": "Uttarakhand",
    "districtCode": "S2809",
    "districtName": "Uttarkashi",
    "acNumber": 1,
    "acName": "Purola",
    "partNumber": 42,
    "partName": "Dingari",
    "lat": 30.9465243,
    "lon": 78.2173174
  },
  {
    "partId": 37,
    "stateCode": "S28",
    "stateName": "Uttarakhand",
    "districtCode": "S2809",
    "districtName": "Uttarkashi",
    "acNumber": 1,
    "acName": "Purola",
    "partNumber": 43,
    "partName": "Paunti Badiyar",
    "lat": 30.8786966,
    "lon": 78.0831875
  },
  {
    "partId": 471,
    "stateCode": "S28",
    "stateName": "Uttarakhand",
    "districtCode": "S2809",
    "districtName": "Uttarkashi",
    "acNumber": 1,
    "acName": "Purola",
    "partNumber": 44,
    "partName": "Kimdar",
    "lat": 30.9514398,
    "lon": 78.2317811
  },
  {
    "partId": 38,
    "stateCode": "S28",
    "stateName": "Uttarakhand",
    "districtCode": "S2809",
    "districtName": "Uttarkashi",
    "acNumber": 1,
    "acName": "Purola",
    "partNumber": 45,
    "partName": "Chinwan",
    "lat": 30.9635733,
    "lon": 78.63625207073864
  },
  {
    "partId": 39,
    "stateCode": "S28",
    "stateName": "Uttarakhand",
    "districtCode": "S2809",
    "districtName": "Uttarkashi",
    "acNumber": 1,
    "acName": "Purola",
    "partNumber": 46,
    "partName": "Balawat",
    "lat": 30.9635733,
    "lon": 78.63625207073864
  },
  {
    "partId": 472,
    "stateCode": "S28",
    "stateName": "Uttarakhand",
    "districtCode": "S2809",
    "districtName": "Uttarkashi",
    "acNumber": 1,
    "acName": "Purola",
    "partNumber": 47,
    "partName": "Maunda",
    "lat": 31.0965689,
    "lon": 77.9123837
  },
  {
    "partId": 40,
    "stateCode": "S28",
    "stateName": "Uttarakhand",
    "districtCode": "S2809",
    "districtName": "Uttarkashi",
    "acNumber": 1,
    "acName": "Purola",
    "partNumber": 48,
    "partName": "Dharagaon",
    "lat": 30.8786966,
    "lon": 78.0831875
  },
  {
    "partId": 508,
    "stateCode": "S28",
    "stateName": "Uttarakhand",
    "districtCode": "S2809",
    "districtName": "Uttarkashi",
    "acNumber": 1,
    "acName": "Purola",
    "partNumber": 49,
    "partName": "Barnali",
    "lat": 30.9635733,
    "lon": 78.63625207073864
  },
  {
    "partId": 41,
    "stateCode": "S28",
    "stateName": "Uttarakhand",
    "districtCode": "S2809",
    "districtName": "Uttarkashi",
    "acNumber": 1,
    "acName": "Purola",
    "partNumber": 50,
    "partName": "Tikochi",
    "lat": 30.8786966,
    "lon": 78.0831875
  },
  {
    "partId": 457,
    "stateCode": "S28",
    "stateName": "Uttarakhand",
    "districtCode": "S2809",
    "districtName": "Uttarkashi",
    "acNumber": 1,
    "acName": "Purola",
    "partNumber": 51,
    "partName": "Kiranu",
    "lat": 30.8786966,
    "lon": 78.0831875
  },
  {
    "partId": 42,
    "stateCode": "S28",
    "stateName": "Uttarakhand",
    "districtCode": "S2809",
    "districtName": "Uttarkashi",
    "acNumber": 1,
    "acName": "Purola",
    "partNumber": 52,
    "partName": "Makuri",
    "lat": 31.051684,
    "lon": 77.8981626
  },
  {
    "partId": 446,
    "stateCode": "S28",
    "stateName": "Uttarakhand",
    "districtCode": "S2809",
    "districtName": "Uttarkashi",
    "acNumber": 1,
    "acName": "Purola",
    "partNumber": 53,
    "partName": "Duchanu",
    "lat": 30.8786966,
    "lon": 78.0831875
  },
  {
    "partId": 43,
    "stateCode": "S28",
    "stateName": "Uttarakhand",
    "districtCode": "S2809",
    "districtName": "Uttarkashi",
    "acNumber": 1,
    "acName": "Purola",
    "partNumber": 54,
    "partName": "Arakot",
    "lat": 31.04187,
    "lon": 77.82852
  },
  {
    "partId": 447,
    "stateCode": "S28",
    "stateName": "Uttarakhand",
    "districtCode": "S2809",
    "districtName": "Uttarkashi",
    "acNumber": 1,
    "acName": "Purola",
    "partNumber": 55,
    "partName": "Damti maya Thunara (Isali)",
    "lat": 30.8786966,
    "lon": 78.0831875
  },
  {
    "partId": 44,
    "stateCode": "S28",
    "stateName": "Uttarakhand",
    "districtCode": "S2809",
    "districtName": "Uttarkashi",
    "acNumber": 1,
    "acName": "Purola",
    "partNumber": 56,
    "partName": "kaleech",
    "lat": 30.9635733,
    "lon": 78.63625207073864
  },
  {
    "partId": 45,
    "stateCode": "S28",
    "stateName": "Uttarakhand",
    "districtCode": "S2809",
    "districtName": "Uttarkashi",
    "acNumber": 1,
    "acName": "Purola",
    "partNumber": 57,
    "partName": "Mora Odata",
    "lat": 30.8786966,
    "lon": 78.0831875
  },
  {
    "partId": 509,
    "stateCode": "S28",
    "stateName": "Uttarakhand",
    "districtCode": "S2809",
    "districtName": "Uttarkashi",
    "acNumber": 1,
    "acName": "Purola",
    "partNumber": 58,
    "partName": "Bamsu",
    "lat": 31.0105251,
    "lon": 77.9756999
  },
  {
    "partId": 46,
    "stateCode": "S28",
    "stateName": "Uttarakhand",
    "districtCode": "S2809",
    "districtName": "Uttarkashi",
    "acNumber": 1,
    "acName": "Purola",
    "partNumber": 59,
    "partName": "Thadiyar",
    "lat": 30.9736556,
    "lon": 77.9311675
  },
  {
    "partId": 47,
    "stateCode": "S28",
    "stateName": "Uttarakhand",
    "districtCode": "S2809",
    "districtName": "Uttarkashi",
    "acNumber": 1,
    "acName": "Purola",
    "partNumber": 60,
    "partName": "Dewti",
    "lat": 30.8786966,
    "lon": 78.0831875
  },
  {
    "partId": 48,
    "stateCode": "S28",
    "stateName": "Uttarakhand",
    "districtCode": "S2809",
    "districtName": "Uttarkashi",
    "acNumber": 1,
    "acName": "Purola",
    "partNumber": 61,
    "partName": "Thali Butotra",
    "lat": 30.9635733,
    "lon": 78.63625207073864
  },
  {
    "partId": 448,
    "stateCode": "S28",
    "stateName": "Uttarakhand",
    "districtCode": "S2809",
    "districtName": "Uttarkashi",
    "acNumber": 1,
    "acName": "Purola",
    "partNumber": 62,
    "partName": "Bhutanu",
    "lat": 30.989029,
    "lon": 77.8523203
  },
  {
    "partId": 49,
    "stateCode": "S28",
    "stateName": "Uttarakhand",
    "districtCode": "S2809",
    "districtName": "Uttarkashi",
    "acNumber": 1,
    "acName": "Purola",
    "partNumber": 63,
    "partName": "Gamri",
    "lat": 30.9987267,
    "lon": 77.8398192
  },
  {
    "partId": 50,
    "stateCode": "S28",
    "stateName": "Uttarakhand",
    "districtCode": "S2809",
    "districtName": "Uttarkashi",
    "acNumber": 1,
    "acName": "Purola",
    "partNumber": 64,
    "partName": "Pawli may pitlasu",
    "lat": 30.8786966,
    "lon": 78.0831875
  },
  {
    "partId": 449,
    "stateCode": "S28",
    "stateName": "Uttarakhand",
    "districtCode": "S2809",
    "districtName": "Uttarkashi",
    "acNumber": 1,
    "acName": "Purola",
    "partNumber": 65,
    "partName": "Kukrera",
    "lat": 30.9632629,
    "lon": 77.8880453
  },
  {
    "partId": 510,
    "stateCode": "S28",
    "stateName": "Uttarakhand",
    "districtCode": "S2809",
    "districtName": "Uttarkashi",
    "acNumber": 1,
    "acName": "Purola",
    "partNumber": 66,
    "partName": "Bengal",
    "lat": 30.8786966,
    "lon": 78.0831875
  },
  {
    "partId": 51,
    "stateCode": "S28",
    "stateName": "Uttarakhand",
    "districtCode": "S2809",
    "districtName": "Uttarkashi",
    "acNumber": 1,
    "acName": "Purola",
    "partNumber": 67,
    "partName": "Dangan Gaon",
    "lat": 30.8786966,
    "lon": 78.0831875
  },
  {
    "partId": 5,
    "stateCode": "S28",
    "stateName": "Uttarakhand",
    "districtCode": "S2809",
    "districtName": "Uttarkashi",
    "acNumber": 1,
    "acName": "Purola",
    "partNumber": 68,
    "partName": "Haltari",
    "lat": 30.8786966,
    "lon": 78.0831875
  },
  {
    "partId": 450,
    "stateCode": "S28",
    "stateName": "Uttarakhand",
    "districtCode": "S2809",
    "districtName": "Uttarkashi",
    "acNumber": 1,
    "acName": "Purola",
    "partNumber": 69,
    "partName": "Gurari",
    "lat": 31.0483439,
    "lon": 78.0962542
  },
  {
    "partId": 52,
    "stateCode": "S28",
    "stateName": "Uttarakhand",
    "districtCode": "S2809",
    "districtName": "Uttarkashi",
    "acNumber": 1,
    "acName": "Purola",
    "partNumber": 70,
    "partName": "Pasa",
    "lat": 31.0398452,
    "lon": 78.0875044
  },
  {
    "partId": 473,
    "stateCode": "S28",
    "stateName": "Uttarakhand",
    "districtCode": "S2809",
    "districtName": "Uttarkashi",
    "acNumber": 1,
    "acName": "Purola",
    "partNumber": 71,
    "partName": "Pokhri",
    "lat": 30.9635733,
    "lon": 78.63625207073864
  },
  {
    "partId": 53,
    "stateCode": "S28",
    "stateName": "Uttarakhand",
    "districtCode": "S2809",
    "districtName": "Uttarkashi",
    "acNumber": 1,
    "acName": "Purola",
    "partNumber": 72,
    "partName": "Kunara",
    "lat": 30.9635733,
    "lon": 78.63625207073864
  },
  {
    "partId": 451,
    "stateCode": "S28",
    "stateName": "Uttarakhand",
    "districtCode": "S2809",
    "districtName": "Uttarkashi",
    "acNumber": 1,
    "acName": "Purola",
    "partNumber": 73,
    "partName": "Naitwar",
    "lat": 31.0661826,
    "lon": 78.1029342
  },
  {
    "partId": 478,
    "stateCode": "S28",
    "stateName": "Uttarakhand",
    "districtCode": "S2809",
    "districtName": "Uttarkashi",
    "acNumber": 1,
    "acName": "Purola",
    "partNumber": 74,
    "partName": "Devra  May Thatru Bazar",
    "lat": 30.8786966,
    "lon": 78.0831875
  },
  {
    "partId": 479,
    "stateCode": "S28",
    "stateName": "Uttarakhand",
    "districtCode": "S2809",
    "districtName": "Uttarkashi",
    "acNumber": 1,
    "acName": "Purola",
    "partNumber": 75,
    "partName": "Kalap",
    "lat": 30.8786966,
    "lon": 78.0831875
  },
  {
    "partId": 452,
    "stateCode": "S28",
    "stateName": "Uttarakhand",
    "districtCode": "S2809",
    "districtName": "Uttarkashi",
    "acNumber": 1,
    "acName": "Purola",
    "partNumber": 76,
    "partName": "Nuranu",
    "lat": 31.0830283,
    "lon": 78.0653784
  },
  {
    "partId": 480,
    "stateCode": "S28",
    "stateName": "Uttarakhand",
    "districtCode": "S2809",
    "districtName": "Uttarkashi",
    "acNumber": 1,
    "acName": "Purola",
    "partNumber": 77,
    "partName": "Devjani Kumdain",
    "lat": 30.8786966,
    "lon": 78.0831875
  },
  {
    "partId": 481,
    "stateCode": "S28",
    "stateName": "Uttarakhand",
    "districtCode": "S2809",
    "districtName": "Uttarkashi",
    "acNumber": 1,
    "acName": "Purola",
    "partNumber": 78,
    "partName": "Jeevanu",
    "lat": 30.8786966,
    "lon": 78.0831875
  },
  {
    "partId": 453,
    "stateCode": "S28",
    "stateName": "Uttarakhand",
    "districtCode": "S2809",
    "districtName": "Uttarkashi",
    "acNumber": 1,
    "acName": "Purola",
    "partNumber": 79,
    "partName": "Dobhal Gaon",
    "lat": 30.8786966,
    "lon": 78.0831875
  },
  {
    "partId": 482,
    "stateCode": "S28",
    "stateName": "Uttarakhand",
    "districtCode": "S2809",
    "districtName": "Uttarkashi",
    "acNumber": 1,
    "acName": "Purola",
    "partNumber": 80,
    "partName": "Ramalgoan",
    "lat": 30.8786966,
    "lon": 78.0831875
  },
  {
    "partId": 483,
    "stateCode": "S28",
    "stateName": "Uttarakhand",
    "districtCode": "S2809",
    "districtName": "Uttarkashi",
    "acNumber": 1,
    "acName": "Purola",
    "partNumber": 81,
    "partName": "Kharsari",
    "lat": 30.97458,
    "lon": 78.07434
  },
  {
    "partId": 454,
    "stateCode": "S28",
    "stateName": "Uttarakhand",
    "districtCode": "S2809",
    "districtName": "Uttarkashi",
    "acNumber": 1,
    "acName": "Purola",
    "partNumber": 82,
    "partName": "Bingsari",
    "lat": 30.9813621,
    "lon": 78.0910778
  },
  {
    "partId": 484,
    "stateCode": "S28",
    "stateName": "Uttarakhand",
    "districtCode": "S2809",
    "districtName": "Uttarkashi",
    "acNumber": 1,
    "acName": "Purola",
    "partNumber": 83,
    "partName": "Khedmi",
    "lat": 30.8786966,
    "lon": 78.0831875
  },
  {
    "partId": 485,
    "stateCode": "S28",
    "stateName": "Uttarakhand",
    "districtCode": "S2809",
    "districtName": "Uttarkashi",
    "acNumber": 1,
    "acName": "Purola",
    "partNumber": 84,
    "partName": "Mori",
    "lat": 31.10197535,
    "lon": 78.20385260646356
  },
  {
    "partId": 458,
    "stateCode": "S28",
    "stateName": "Uttarakhand",
    "districtCode": "S2809",
    "districtName": "Uttarkashi",
    "acNumber": 1,
    "acName": "Purola",
    "partNumber": 85,
    "partName": "Mori ( Rajaswagram)",
    "lat": 30.9635733,
    "lon": 78.63625207073864
  },
  {
    "partId": 486,
    "stateCode": "S28",
    "stateName": "Uttarakhand",
    "districtCode": "S2809",
    "districtName": "Uttarkashi",
    "acNumber": 1,
    "acName": "Purola",
    "partNumber": 86,
    "partName": "Mautar",
    "lat": 30.9635733,
    "lon": 78.63625207073864
  },
  {
    "partId": 511,
    "stateCode": "S28",
    "stateName": "Uttarakhand",
    "districtCode": "S2809",
    "districtName": "Uttarkashi",
    "acNumber": 1,
    "acName": "Purola",
    "partNumber": 87,
    "partName": "Pentri",
    "lat": 30.8786966,
    "lon": 78.0831875
  },
  {
    "partId": 459,
    "stateCode": "S28",
    "stateName": "Uttarakhand",
    "districtCode": "S2809",
    "districtName": "Uttarkashi",
    "acNumber": 1,
    "acName": "Purola",
    "partNumber": 88,
    "partName": "Badaun",
    "lat": 31.0410895,
    "lon": 78.0112895
  },
  {
    "partId": 474,
    "stateCode": "S28",
    "stateName": "Uttarakhand",
    "districtCode": "S2809",
    "districtName": "Uttarkashi",
    "acNumber": 1,
    "acName": "Purola",
    "partNumber": 89,
    "partName": "Bainol (kewla)",
    "lat": 30.8786966,
    "lon": 78.0831875
  },
  {
    "partId": 455,
    "stateCode": "S28",
    "stateName": "Uttarakhand",
    "districtCode": "S2809",
    "districtName": "Uttarkashi",
    "acNumber": 1,
    "acName": "Purola",
    "partNumber": 90,
    "partName": "Liwari",
    "lat": 30.8786966,
    "lon": 78.0831875
  },
  {
    "partId": 487,
    "stateCode": "S28",
    "stateName": "Uttarakhand",
    "districtCode": "S2809",
    "districtName": "Uttarkashi",
    "acNumber": 1,
    "acName": "Purola",
    "partNumber": 91,
    "partName": "Kasla",
    "lat": 30.8786966,
    "lon": 78.0831875
  },
  {
    "partId": 475,
    "stateCode": "S28",
    "stateName": "Uttarakhand",
    "districtCode": "S2809",
    "districtName": "Uttarkashi",
    "acNumber": 1,
    "acName": "Purola",
    "partNumber": 92,
    "partName": "Rala",
    "lat": 31.167051,
    "lon": 78.2167673
  },
  {
    "partId": 488,
    "stateCode": "S28",
    "stateName": "Uttarakhand",
    "districtCode": "S2809",
    "districtName": "Uttarkashi",
    "acNumber": 1,
    "acName": "Purola",
    "partNumber": 93,
    "partName": "Fitari",
    "lat": 30.8786966,
    "lon": 78.0831875
  },
  {
    "partId": 489,
    "stateCode": "S28",
    "stateName": "Uttarakhand",
    "districtCode": "S2809",
    "districtName": "Uttarkashi",
    "acNumber": 1,
    "acName": "Purola",
    "partNumber": 94,
    "partName": "Jakhol",
    "lat": 30.9635733,
    "lon": 78.63625207073864
  },
  {
    "partId": 456,
    "stateCode": "S28",
    "stateName": "Uttarakhand",
    "districtCode": "S2809",
    "districtName": "Uttarkashi",
    "acNumber": 1,
    "acName": "Purola",
    "partNumber": 95,
    "partName": "Dharagaon",
    "lat": 30.8786966,
    "lon": 78.0831875
  },
  {
    "partId": 490,
    "stateCode": "S28",
    "stateName": "Uttarakhand",
    "districtCode": "S2809",
    "districtName": "Uttarkashi",
    "acNumber": 1,
    "acName": "Purola",
    "partNumber": 96,
    "partName": "Sunkundi",
    "lat": 31.110228,
    "lon": 78.2157364
  },
  {
    "partId": 491,
    "stateCode": "S28",
    "stateName": "Uttarakhand",
    "districtCode": "S2809",
    "districtName": "Uttarkashi",
    "acNumber": 1,
    "acName": "Purola",
    "partNumber": 97,
    "partName": "Saturi",
    "lat": 31.116955,
    "lon": 78.2079675
  },
  {
    "partId": 460,
    "stateCode": "S28",
    "stateName": "Uttarakhand",
    "districtCode": "S2809",
    "districtName": "Uttarkashi",
    "acNumber": 1,
    "acName": "Purola",
    "partNumber": 98,
    "partName": "Sauni",
    "lat": 31.1216758,
    "lon": 78.2274014
  },
  {
    "partId": 443,
    "stateCode": "S28",
    "stateName": "Uttarakhand",
    "districtCode": "S2809",
    "districtName": "Uttarkashi",
    "acNumber": 1,
    "acName": "Purola",
    "partNumber": 99,
    "partName": "Paon Malla",
    "lat": 30.8786966,
    "lon": 78.0831875
  },
  {
    "partId": 492,
    "stateCode": "S28",
    "stateName": "Uttarakhand",
    "districtCode": "S2809",
    "districtName": "Uttarkashi",
    "acNumber": 1,
    "acName": "Purola",
    "partNumber": 100,
    "partName": "Sirga",
    "lat": 31.0854165,
    "lon": 78.2111368
  },
  {
    "partId": 493,
    "stateCode": "S28",
    "stateName": "Uttarakhand",
    "districtCode": "S2809",
    "districtName": "Uttarkashi",
    "acNumber": 1,
    "acName": "Purola",
    "partNumber": 101,
    "partName": "Osla",
    "lat": 31.1188962,
    "lon": 78.3427722
  },
  {
    "partId": 1,
    "stateCode": "S28",
    "stateName": "Uttarakhand",
    "districtCode": "S2809",
    "districtName": "Uttarkashi",
    "acNumber": 1,
    "acName": "Purola",
    "partNumber": 102,
    "partName": "Panwani",
    "lat": 31.1162624,
    "lon": 78.3290382
  },
  {
    "partId": 494,
    "stateCode": "S28",
    "stateName": "Uttarakhand",
    "districtCode": "S2809",
    "districtName": "Uttarkashi",
    "acNumber": 1,
    "acName": "Purola",
    "partNumber": 103,
    "partName": "Gangar",
    "lat": 30.8786966,
    "lon": 78.0831875
  },
  {
    "partId": 434,
    "stateCode": "S28",
    "stateName": "Uttarakhand",
    "districtCode": "S2809",
    "districtName": "Uttarkashi",
    "acNumber": 1,
    "acName": "Purola",
    "partNumber": 104,
    "partName": "Taluka Dhatmir",
    "lat": 30.8786966,
    "lon": 78.0831875
  },
  {
    "partId": 495,
    "stateCode": "S28",
    "stateName": "Uttarakhand",
    "districtCode": "S2809",
    "districtName": "Uttarkashi",
    "acNumber": 1,
    "acName": "Purola",
    "partNumber": 105,
    "partName": "Sankri",
    "lat": 31.078024,
    "lon": 78.1841131
  },
  {
    "partId": 3798,
    "stateCode": "S28",
    "stateName": "Uttarakhand",
    "districtCode": "S2809",
    "districtName": "Uttarkashi",
    "acNumber": 1,
    "acName": "Purola",
    "partNumber": 106,
    "partName": "Talla nagar sindri",
    "lat": 30.8786966,
    "lon": 78.0831875
  },
  {
    "partId": 496,
    "stateCode": "S28",
    "stateName": "Uttarakhand",
    "districtCode": "S2809",
    "districtName": "Uttarkashi",
    "acNumber": 1,
    "acName": "Purola",
    "partNumber": 107,
    "partName": "Kotgaon",
    "lat": 31.0726111,
    "lon": 78.1552061
  },
  {
    "partId": 497,
    "stateCode": "S28",
    "stateName": "Uttarakhand",
    "districtCode": "S2809",
    "districtName": "Uttarkashi",
    "acNumber": 1,
    "acName": "Purola",
    "partNumber": 108,
    "partName": "Bari",
    "lat": 31.1561313,
    "lon": 78.0869519
  },
  {
    "partId": 498,
    "stateCode": "S28",
    "stateName": "Uttarakhand",
    "districtCode": "S2809",
    "districtName": "Uttarkashi",
    "acNumber": 1,
    "acName": "Purola",
    "partNumber": 109,
    "partName": "Seva",
    "lat": 30.8786966,
    "lon": 78.0831875
  },
  {
    "partId": 435,
    "stateCode": "S28",
    "stateName": "Uttarakhand",
    "districtCode": "S2809",
    "districtName": "Uttarkashi",
    "acNumber": 1,
    "acName": "Purola",
    "partNumber": 110,
    "partName": "Hadwari",
    "lat": 30.8786966,
    "lon": 78.0831875
  },
  {
    "partId": 499,
    "stateCode": "S28",
    "stateName": "Uttarakhand",
    "districtCode": "S2809",
    "districtName": "Uttarkashi",
    "acNumber": 1,
    "acName": "Purola",
    "partNumber": 111,
    "partName": "Doni",
    "lat": 31.1501722,
    "lon": 78.099863
  },
  {
    "partId": 2,
    "stateCode": "S28",
    "stateName": "Uttarakhand",
    "districtCode": "S2809",
    "districtName": "Uttarkashi",
    "acNumber": 1,
    "acName": "Purola",
    "partNumber": 112,
    "partName": "Khanna",
    "lat": 31.1599949,
    "lon": 78.1005314
  },
  {
    "partId": 54,
    "stateCode": "S28",
    "stateName": "Uttarakhand",
    "districtCode": "S2809",
    "districtName": "Uttarkashi",
    "acNumber": 1,
    "acName": "Purola",
    "partNumber": 113,
    "partName": "Bhitri",
    "lat": 31.1251225,
    "lon": 78.0959977
  },
  {
    "partId": 55,
    "stateCode": "S28",
    "stateName": "Uttarakhand",
    "districtCode": "S2809",
    "districtName": "Uttarkashi",
    "acNumber": 1,
    "acName": "Purola",
    "partNumber": 114,
    "partName": "Masari",
    "lat": 30.8786966,
    "lon": 78.0831875
  },
  {
    "partId": 436,
    "stateCode": "S28",
    "stateName": "Uttarakhand",
    "districtCode": "S2809",
    "districtName": "Uttarkashi",
    "acNumber": 1,
    "acName": "Purola",
    "partNumber": 115,
    "partName": "Khanyasni",
    "lat": 31.1099528,
    "lon": 78.1015516
  },
  {
    "partId": 56,
    "stateCode": "S28",
    "stateName": "Uttarakhand",
    "districtCode": "S2809",
    "districtName": "Uttarkashi",
    "acNumber": 1,
    "acName": "Purola",
    "partNumber": 116,
    "partName": "Pujeli Parvat",
    "lat": 30.9635733,
    "lon": 78.63625207073864
  },
  {
    "partId": 57,
    "stateCode": "S28",
    "stateName": "Uttarakhand",
    "districtCode": "S2809",
    "districtName": "Uttarkashi",
    "acNumber": 1,
    "acName": "Purola",
    "partNumber": 117,
    "partName": "Sunara",
    "lat": 30.8786966,
    "lon": 78.0831875
  },
  {
    "partId": 437,
    "stateCode": "S28",
    "stateName": "Uttarakhand",
    "districtCode": "S2809",
    "districtName": "Uttarkashi",
    "acNumber": 1,
    "acName": "Purola",
    "partNumber": 118,
    "partName": "Manjiyali",
    "lat": 30.8786966,
    "lon": 78.0831875
  },
  {
    "partId": 461,
    "stateCode": "S28",
    "stateName": "Uttarakhand",
    "districtCode": "S2809",
    "districtName": "Uttarkashi",
    "acNumber": 1,
    "acName": "Purola",
    "partNumber": 119,
    "partName": "Kansola",
    "lat": 30.8786966,
    "lon": 78.0831875
  },
  {
    "partId": 58,
    "stateCode": "S28",
    "stateName": "Uttarakhand",
    "districtCode": "S2809",
    "districtName": "Uttarkashi",
    "acNumber": 1,
    "acName": "Purola",
    "partNumber": 120,
    "partName": "Bagasu",
    "lat": 30.80292,
    "lon": 78.16086
  },
  {
    "partId": 462,
    "stateCode": "S28",
    "stateName": "Uttarakhand",
    "districtCode": "S2809",
    "districtName": "Uttarkashi",
    "acNumber": 1,
    "acName": "Purola",
    "partNumber": 121,
    "partName": "Balari",
    "lat": 30.8786966,
    "lon": 78.0831875
  },
  {
    "partId": 59,
    "stateCode": "S28",
    "stateName": "Uttarakhand",
    "districtCode": "S2809",
    "districtName": "Uttarkashi",
    "acNumber": 1,
    "acName": "Purola",
    "partNumber": 122,
    "partName": "Paletha",
    "lat": 30.8786966,
    "lon": 78.0831875
  },
  {
    "partId": 438,
    "stateCode": "S28",
    "stateName": "Uttarakhand",
    "districtCode": "S2809",
    "districtName": "Uttarkashi",
    "acNumber": 1,
    "acName": "Purola",
    "partNumber": 123,
    "partName": "Khansi Doni",
    "lat": 30.8786966,
    "lon": 78.0831875
  },
  {
    "partId": 60,
    "stateCode": "S28",
    "stateName": "Uttarakhand",
    "districtCode": "S2809",
    "districtName": "Uttarkashi",
    "acNumber": 1,
    "acName": "Purola",
    "partNumber": 124,
    "partName": "Kurgaon",
    "lat": 30.8773289,
    "lon": 78.1827235
  },
  {
    "partId": 61,
    "stateCode": "S28",
    "stateName": "Uttarakhand",
    "districtCode": "S2809",
    "districtName": "Uttarkashi",
    "acNumber": 1,
    "acName": "Purola",
    "partNumber": 125,
    "partName": "Jakhali",
    "lat": 30.9114485,
    "lon": 78.1734323
  },
  {
    "partId": 500,
    "stateCode": "S28",
    "stateName": "Uttarakhand",
    "districtCode": "S2809",
    "districtName": "Uttarkashi",
    "acNumber": 1,
    "acName": "Purola",
    "partNumber": 126,
    "partName": "Kotla",
    "lat": 30.8931565,
    "lon": 78.1753957
  },
  {
    "partId": 62,
    "stateCode": "S28",
    "stateName": "Uttarakhand",
    "districtCode": "S2809",
    "districtName": "Uttarkashi",
    "acNumber": 1,
    "acName": "Purola",
    "partNumber": 127,
    "partName": "Gair Banal",
    "lat": 30.8786966,
    "lon": 78.0831875
  },
  {
    "partId": 501,
    "stateCode": "S28",
    "stateName": "Uttarakhand",
    "districtCode": "S2809",
    "districtName": "Uttarkashi",
    "acNumber": 1,
    "acName": "Purola",
    "partNumber": 128,
    "partName": "Byali",
    "lat": 30.8786966,
    "lon": 78.0831875
  },
  {
    "partId": 1773,
    "stateCode": "S28",
    "stateName": "Uttarakhand",
    "districtCode": "S2809",
    "districtName": "Uttarkashi",
    "acNumber": 1,
    "acName": "Purola",
    "partNumber": 129,
    "partName": "arun",
    "lat": 30.87701685,
    "lon": 78.20146561665166
  },
  {
    "partId": 63,
    "stateCode": "S28",
    "stateName": "Uttarakhand",
    "districtCode": "S2809",
    "districtName": "Uttarkashi",
    "acNumber": 1,
    "acName": "Purola",
    "partNumber": 130,
    "partName": "Gadoli",
    "lat": 30.85922,
    "lon": 78.19382
  },
  {
    "partId": 439,
    "stateCode": "S28",
    "stateName": "Uttarakhand",
    "districtCode": "S2809",
    "districtName": "Uttarkashi",
    "acNumber": 1,
    "acName": "Purola",
    "partNumber": 131,
    "partName": "Idak",
    "lat": 30.8786966,
    "lon": 78.0831875
  },
  {
    "partId": 8,
    "stateCode": "S28",
    "stateName": "Uttarakhand",
    "districtCode": "S2809",
    "districtName": "Uttarkashi",
    "acNumber": 1,
    "acName": "Purola",
    "partNumber": 132,
    "partName": "kuni",
    "lat": 30.8179728,
    "lon": 78.7416744
  },
  {
    "partId": 9,
    "stateCode": "S28",
    "stateName": "Uttarakhand",
    "districtCode": "S2809",
    "districtName": "Uttarkashi",
    "acNumber": 1,
    "acName": "Purola",
    "partNumber": 133,
    "partName": "Gona",
    "lat": 30.8786966,
    "lon": 78.0831875
  },
  {
    "partId": 69,
    "stateCode": "S28",
    "stateName": "Uttarakhand",
    "districtCode": "S2809",
    "districtName": "Uttarkashi",
    "acNumber": 1,
    "acName": "Purola",
    "partNumber": 134,
    "partName": "Karnali",
    "lat": 30.8786966,
    "lon": 78.0831875
  },
  {
    "partId": 1774,
    "stateCode": "S28",
    "stateName": "Uttarakhand",
    "districtCode": "S2809",
    "districtName": "Uttarkashi",
    "acNumber": 1,
    "acName": "Purola",
    "partNumber": 135,
    "partName": "Kanda",
    "lat": 30.8692991,
    "lon": 78.1599569
  },
  {
    "partId": 70,
    "stateCode": "S28",
    "stateName": "Uttarakhand",
    "districtCode": "S2809",
    "districtName": "Uttarkashi",
    "acNumber": 1,
    "acName": "Purola",
    "partNumber": 136,
    "partName": "Kafnaul",
    "lat": 30.8786966,
    "lon": 78.0831875
  },
  {
    "partId": 6,
    "stateCode": "S28",
    "stateName": "Uttarakhand",
    "districtCode": "S2809",
    "districtName": "Uttarkashi",
    "acNumber": 1,
    "acName": "Purola",
    "partNumber": 137,
    "partName": "Gair- Mugarsanti",
    "lat": 30.8786966,
    "lon": 78.0831875
  },
  {
    "partId": 71,
    "stateCode": "S28",
    "stateName": "Uttarakhand",
    "districtCode": "S2809",
    "districtName": "Uttarkashi",
    "acNumber": 1,
    "acName": "Purola",
    "partNumber": 138,
    "partName": "Darsaun",
    "lat": 30.9593785,
    "lon": 78.1958567
  },
  {
    "partId": 1775,
    "stateCode": "S28",
    "stateName": "Uttarakhand",
    "districtCode": "S2809",
    "districtName": "Uttarkashi",
    "acNumber": 1,
    "acName": "Purola",
    "partNumber": 139,
    "partName": "Himroll",
    "lat": 30.9635733,
    "lon": 78.63625207073864
  },
  {
    "partId": 72,
    "stateCode": "S28",
    "stateName": "Uttarakhand",
    "districtCode": "S2809",
    "districtName": "Uttarkashi",
    "acNumber": 1,
    "acName": "Purola",
    "partNumber": 140,
    "partName": "Semalsari",
    "lat": 30.8786966,
    "lon": 78.0831875
  },
  {
    "partId": 73,
    "stateCode": "S28",
    "stateName": "Uttarakhand",
    "districtCode": "S2809",
    "districtName": "Uttarkashi",
    "acNumber": 1,
    "acName": "Purola",
    "partNumber": 141,
    "partName": "Tera",
    "lat": 30.7402199,
    "lon": 78.0978011
  },
  {
    "partId": 440,
    "stateCode": "S28",
    "stateName": "Uttarakhand",
    "districtCode": "S2809",
    "districtName": "Uttarkashi",
    "acNumber": 1,
    "acName": "Purola",
    "partNumber": 142,
    "partName": "Jarra",
    "lat": 30.8786966,
    "lon": 78.0831875
  },
  {
    "partId": 74,
    "stateCode": "S28",
    "stateName": "Uttarakhand",
    "districtCode": "S2809",
    "districtName": "Uttarkashi",
    "acNumber": 1,
    "acName": "Purola",
    "partNumber": 143,
    "partName": "Dharikalogi",
    "lat": 30.8786966,
    "lon": 78.0831875
  },
  {
    "partId": 3799,
    "stateCode": "S28",
    "stateName": "Uttarakhand",
    "districtCode": "S2809",
    "districtName": "Uttarkashi",
    "acNumber": 1,
    "acName": "Purola",
    "partNumber": 144,
    "partName": "Tiyan",
    "lat": 30.746338,
    "lon": 78.1304835
  },
  {
    "partId": 10,
    "stateCode": "S28",
    "stateName": "Uttarakhand",
    "districtCode": "S2809",
    "districtName": "Uttarkashi",
    "acNumber": 1,
    "acName": "Purola",
    "partNumber": 145,
    "partName": "Paluka",
    "lat": 30.7421955,
    "lon": 78.1387773
  },
  {
    "partId": 405,
    "stateCode": "S28",
    "stateName": "Uttarakhand",
    "districtCode": "S2809",
    "districtName": "Uttarkashi",
    "acNumber": 1,
    "acName": "Purola",
    "partNumber": 146,
    "partName": "Bajlari",
    "lat": 30.7384776,
    "lon": 78.1193033
  },
  {
    "partId": 12,
    "stateCode": "S28",
    "stateName": "Uttarakhand",
    "districtCode": "S2809",
    "districtName": "Uttarkashi",
    "acNumber": 1,
    "acName": "Purola",
    "partNumber": 147,
    "partName": "Naryunka",
    "lat": 30.8786966,
    "lon": 78.0831875
  },
  {
    "partId": 441,
    "stateCode": "S28",
    "stateName": "Uttarakhand",
    "districtCode": "S2809",
    "districtName": "Uttarkashi",
    "acNumber": 1,
    "acName": "Purola",
    "partNumber": 148,
    "partName": "Naugaon Gaon",
    "lat": 30.7562994,
    "lon": 78.4702268
  },
  {
    "partId": 406,
    "stateCode": "S28",
    "stateName": "Uttarakhand",
    "districtCode": "S2809",
    "districtName": "Uttarkashi",
    "acNumber": 1,
    "acName": "Purola",
    "partNumber": 149,
    "partName": "Murari",
    "lat": 30.8786966,
    "lon": 78.0831875
  },
  {
    "partId": 407,
    "stateCode": "S28",
    "stateName": "Uttarakhand",
    "districtCode": "S2809",
    "districtName": "Uttarkashi",
    "acNumber": 1,
    "acName": "Purola",
    "partNumber": 150,
    "partName": "Dhariwalli",
    "lat": 30.8786966,
    "lon": 78.0831875
  },
  {
    "partId": 442,
    "stateCode": "S28",
    "stateName": "Uttarakhand",
    "districtCode": "S2809",
    "districtName": "Uttarkashi",
    "acNumber": 1,
    "acName": "Purola",
    "partNumber": 151,
    "partName": "Matiyali",
    "lat": 30.8786966,
    "lon": 78.0831875
  },
  {
    "partId": 408,
    "stateCode": "S28",
    "stateName": "Uttarakhand",
    "districtCode": "S2809",
    "districtName": "Uttarkashi",
    "acNumber": 1,
    "acName": "Purola",
    "partNumber": 152,
    "partName": "Kimmi",
    "lat": 30.9635733,
    "lon": 78.63625207073864
  },
  {
    "partId": 409,
    "stateCode": "S28",
    "stateName": "Uttarakhand",
    "districtCode": "S2809",
    "districtName": "Uttarkashi",
    "acNumber": 1,
    "acName": "Purola",
    "partNumber": 153,
    "partName": "Rastari",
    "lat": 30.8786966,
    "lon": 78.0831875
  },
  {
    "partId": 410,
    "stateCode": "S28",
    "stateName": "Uttarakhand",
    "districtCode": "S2809",
    "districtName": "Uttarkashi",
    "acNumber": 1,
    "acName": "Purola",
    "partNumber": 154,
    "partName": "Bingsi",
    "lat": 30.8218234,
    "lon": 78.1073845
  },
  {
    "partId": 411,
    "stateCode": "S28",
    "stateName": "Uttarakhand",
    "districtCode": "S2809",
    "districtName": "Uttarkashi",
    "acNumber": 1,
    "acName": "Purola",
    "partNumber": 155,
    "partName": "Kandari",
    "lat": 30.6502645,
    "lon": 78.0727802
  },
  {
    "partId": 412,
    "stateCode": "S28",
    "stateName": "Uttarakhand",
    "districtCode": "S2809",
    "districtName": "Uttarkashi",
    "acNumber": 1,
    "acName": "Purola",
    "partNumber": 156,
    "partName": "Khamundi malli",
    "lat": 30.8786966,
    "lon": 78.0831875
  },
  {
    "partId": 507,
    "stateCode": "S28",
    "stateName": "Uttarakhand",
    "districtCode": "S2809",
    "districtName": "Uttarkashi",
    "acNumber": 1,
    "acName": "Purola",
    "partNumber": 157,
    "partName": "Godin",
    "lat": 30.6543592,
    "lon": 78.0822655
  },
  {
    "partId": 413,
    "stateCode": "S28",
    "stateName": "Uttarakhand",
    "districtCode": "S2809",
    "districtName": "Uttarkashi",
    "acNumber": 1,
    "acName": "Purola",
    "partNumber": 158,
    "partName": "Rikhaun",
    "lat": 30.6559818,
    "lon": 78.0608132
  },
  {
    "partId": 414,
    "stateCode": "S28",
    "stateName": "Uttarakhand",
    "districtCode": "S2809",
    "districtName": "Uttarkashi",
    "acNumber": 1,
    "acName": "Purola",
    "partNumber": 159,
    "partName": "Dhuik",
    "lat": 30.8786966,
    "lon": 78.0831875
  },
  {
    "partId": 415,
    "stateCode": "S28",
    "stateName": "Uttarakhand",
    "districtCode": "S2809",
    "districtName": "Uttarkashi",
    "acNumber": 1,
    "acName": "Purola",
    "partNumber": 160,
    "partName": "Damta",
    "lat": 30.648343,
    "lon": 78.0170322
  },
  {
    "partId": 463,
    "stateCode": "S28",
    "stateName": "Uttarakhand",
    "districtCode": "S2809",
    "districtName": "Uttarkashi",
    "acNumber": 1,
    "acName": "Purola",
    "partNumber": 161,
    "partName": "Kandi Khanati",
    "lat": 30.8786966,
    "lon": 78.0831875
  },
  {
    "partId": 416,
    "stateCode": "S28",
    "stateName": "Uttarakhand",
    "districtCode": "S2809",
    "districtName": "Uttarkashi",
    "acNumber": 1,
    "acName": "Purola",
    "partNumber": 162,
    "partName": "Diyari",
    "lat": 30.6118993,
    "lon": 78.0553661
  },
  {
    "partId": 417,
    "stateCode": "S28",
    "stateName": "Uttarakhand",
    "districtCode": "S2809",
    "districtName": "Uttarkashi",
    "acNumber": 1,
    "acName": "Purola",
    "partNumber": 163,
    "partName": "Garh",
    "lat": 30.6253469,
    "lon": 78.2092361
  },
  {
    "partId": 418,
    "stateCode": "S28",
    "stateName": "Uttarakhand",
    "districtCode": "S2809",
    "districtName": "Uttarkashi",
    "acNumber": 1,
    "acName": "Purola",
    "partNumber": 164,
    "partName": "Chopra",
    "lat": 30.8786966,
    "lon": 78.0831875
  },
  {
    "partId": 419,
    "stateCode": "S28",
    "stateName": "Uttarakhand",
    "districtCode": "S2809",
    "districtName": "Uttarkashi",
    "acNumber": 1,
    "acName": "Purola",
    "partNumber": 165,
    "partName": "Bhaunti",
    "lat": 30.700306,
    "lon": 78.1058593
  },
  {
    "partId": 420,
    "stateCode": "S28",
    "stateName": "Uttarakhand",
    "districtCode": "S2809",
    "districtName": "Uttarkashi",
    "acNumber": 1,
    "acName": "Purola",
    "partNumber": 166,
    "partName": "Kunwa",
    "lat": 30.8786966,
    "lon": 78.0831875
  },
  {
    "partId": 421,
    "stateCode": "S28",
    "stateName": "Uttarakhand",
    "districtCode": "S2809",
    "districtName": "Uttarkashi",
    "acNumber": 1,
    "acName": "Purola",
    "partNumber": 167,
    "partName": "Sarnachak",
    "lat": 30.8786966,
    "lon": 78.0831875
  },
  {
    "partId": 422,
    "stateCode": "S28",
    "stateName": "Uttarakhand",
    "districtCode": "S2809",
    "districtName": "Uttarkashi",
    "acNumber": 1,
    "acName": "Purola",
    "partNumber": 168,
    "partName": "Barnigad Singuni",
    "lat": 30.8786966,
    "lon": 78.0831875
  },
  {
    "partId": 11,
    "stateCode": "S28",
    "stateName": "Uttarakhand",
    "districtCode": "S2809",
    "districtName": "Uttarkashi",
    "acNumber": 1,
    "acName": "Purola",
    "partNumber": 169,
    "partName": "Fifiyara",
    "lat": 30.8786966,
    "lon": 78.0831875
  },