[
  {
    "partId": 46343,
    "stateCode": "S12",
    "stateName": "Madhya Pradesh",
    "districtCode": "S1203",
    "districtName": "BHIND",
    "acNumber": 9,
    "acName": "ATER",
    "partNumber": 1,
    "partName": "KACHHAPURA",
    "lat": 26.74772295,
    "lon": 78.63842107115968
  },
  {
    "partId": 46344,
    "stateCode": "S12",
    "stateName": "Madhya Pradesh",
    "districtCode": "S1203",
    "districtName": "BHIND",
    "acNumber": 9,
    "acName": "ATER",
    "partNumber": 2,
    "partName": "KANERA NO.1",
    "lat": 26.74313395,
    "lon": 78.58045746511162
  },
  {
    "partId": 53059,
    "stateCode": "S12",
    "stateName": "Madhya Pradesh",
    "districtCode": "S1203",
    "districtName": "BHIND",
    "acNumber": 9,
    "acName": "ATER",
    "partNumber": 3,
    "partName": "KANERA NO.2",
    "lat": 26.74313395,
    "lon": 78.58045746511162
  },
  {
    "partId": 46345,
    "stateCode": "S12",
    "stateName": "Madhya Pradesh",
    "districtCode": "S1203",
    "districtName": "BHIND",
    "acNumber": 9,
    "acName": "ATER",
    "partNumber": 4,
    "partName": "KANERA NO.3",
    "lat": 26.74313395,
    "lon": 78.58045746511162
  },
  {
    "partId": 46346,
    "stateCode": "S12",
    "stateName": "Madhya Pradesh",
    "districtCode": "S1203",
    "districtName": "BHIND",
    "acNumber": 9,
    "acName": "ATER",
    "partNumber": 5,
    "partName": "KANERA NO. 4",
    "lat": 26.74313395,
    "lon": 78.58045746511162
  },
  {
    "partId": 46347,
    "stateCode": "S12",
    "stateName": "Madhya Pradesh",
    "districtCode": "S1203",
    "districtName": "BHIND",
    "acNumber": 9,
    "acName": "ATER",
    "partNumber": 6,
    "partName": "UDOTGADH NO.1",
    "lat": 26.74772295,
    "lon": 78.63842107115968
  },
  {
    "partId": 46342,
    "stateCode": "S12",
    "stateName": "Madhya Pradesh",
    "districtCode": "S1203",
    "districtName": "BHIND",
    "acNumber": 9,
    "acName": "ATER",
    "partNumber": 7,
    "partName": "UDOTAGADH NO.2",
    "lat": 26.74772295,
    "lon": 78.63842107115968
  },
  {
    "partId": 46348,
    "stateCode": "S12",
    "stateName": "Madhya Pradesh",
    "districtCode": "S1203",
    "districtName": "BHIND",
    "acNumber": 9,
    "acName": "ATER",
    "partNumber": 8,
    "partName": "UDOTAGADH NO.3",
    "lat": 26.74772295,
    "lon": 78.63842107115968
  },
  {
    "partId": 2329,
    "stateCode": "S12",
    "stateName": "Madhya Pradesh",
    "districtCode": "S1203",
    "districtName": "BHIND",
    "acNumber": 9,
    "acName": "ATER",
    "partNumber": 9,
    "partName": "ROHANDA",
    "lat": 26.7070123,
    "lon": 78.53382446676619
  },
  {
    "partId": 46349,
    "stateCode": "S12",
    "stateName": "Madhya Pradesh",
    "districtCode": "S1203",
    "districtName": "BHIND",
    "acNumber": 9,
    "acName": "ATER",
    "partNumber": 10,
    "partName": "MODHANA",
    "lat": 26.74772295,
    "lon": 78.63842107115968
  },
  {
    "partId": 46350,
    "stateCode": "S12",
    "stateName": "Madhya Pradesh",
    "districtCode": "S1203",
    "districtName": "BHIND",
    "acNumber": 9,
    "acName": "ATER",
    "partNumber": 11,
    "partName": "KHADEET NO.1",
    "lat": 26.74772295,
    "lon": 78.63842107115968
  },
  {
    "partId": 53053,
    "stateCode": "S12",
    "stateName": "Madhya Pradesh",
    "districtCode": "S1203",
    "districtName": "BHIND",
    "acNumber": 9,
    "acName": "ATER",
    "partNumber": 12,
    "partName": "KHADEET NO.2",
    "lat": 26.74772295,
    "lon": 78.63842107115968
  },
  {
    "partId": 46351,
    "stateCode": "S12",
    "stateName": "Madhya Pradesh",
    "districtCode": "S1203",
    "districtName": "BHIND",
    "acNumber": 9,
    "acName": "ATER",
    "partNumber": 13,
    "partName": "KHADERI NO.1",
    "lat": 26.67995835,
    "lon": 78.59478411468312
  },
  {
    "partId": 53025,
    "stateCode": "S12",
    "stateName": "Madhya Pradesh",
    "districtCode": "S1203",
    "districtName": "BHIND",
    "acNumber": 9,
    "acName": "ATER",
    "partNumber": 14,
    "partName": "KHADERI NO.2",
    "lat": 26.67995835,
    "lon": 78.59478411468312
  },
  {
    "partId": 46352,
    "stateCode": "S12",
    "stateName": "Madhya Pradesh",
    "districtCode": "S1203",
    "districtName": "BHIND",
    "acNumber": 9,
    "acName": "ATER",
    "partNumber": 15,
    "partName": "SHUKLAPURA NO.1",
    "lat": 26.74772295,
    "lon": 78.63842107115968
  },
  {
    "partId": 2331,
    "stateCode": "S12",
    "stateName": "Madhya Pradesh",
    "districtCode": "S1203",
    "districtName": "BHIND",
    "acNumber": 9,
    "acName": "ATER",
    "partNumber": 16,
    "partName": "SHUKLAPURA NO.2",
    "lat": 26.74772295,
    "lon": 78.63842107115968
  },
  {
    "partId": 46353,
    "stateCode": "S12",
    "stateName": "Madhya Pradesh",
    "districtCode": "S1203",
    "districtName": "BHIND",
    "acNumber": 9,
    "acName": "ATER",
    "partNumber": 17,
    "partName": "BUDHANPUR",
    "lat": 26.7041938,
    "lon": 78.572942
  },
  {
    "partId": 46354,
    "stateCode": "S12",
    "stateName": "Madhya Pradesh",
    "districtCode": "S1203",
    "districtName": "BHIND",
    "acNumber": 9,
    "acName": "ATER",
    "partNumber": 18,
    "partName": "AHAROULIKALI",
    "lat": 26.74772295,
    "lon": 78.63842107115968
  },
  {
    "partId": 46355,
    "stateCode": "S12",
    "stateName": "Madhya Pradesh",
    "districtCode": "S1203",
    "districtName": "BHIND",
    "acNumber": 9,
    "acName": "ATER",
    "partNumber": 19,
    "partName": "GADAIR",
    "lat": 26.74772295,
    "lon": 78.63842107115968
  },
  {
    "partId": 46356,
    "stateCode": "S12",
    "stateName": "Madhya Pradesh",
    "districtCode": "S1203",
    "districtName": "BHIND",
    "acNumber": 9,
    "acName": "ATER",
    "partNumber": 20,
    "partName": "CHOUMHON NO.1",
    "lat": 26.74772295,
    "lon": 78.63842107115968
  },
  {
    "partId": 46357,
    "stateCode": "S12",
    "stateName": "Madhya Pradesh",
    "districtCode": "S1203",
    "districtName": "BHIND",
    "acNumber": 9,
    "acName": "ATER",
    "partNumber": 21,
    "partName": "CHAUMHON NO.2",
    "lat": 26.74772295,
    "lon": 78.63842107115968
  },
  {
    "partId": 53024,
    "stateCode": "S12",
    "stateName": "Madhya Pradesh",
    "districtCode": "S1203",
    "districtName": "BHIND",
    "acNumber": 9,
    "acName": "ATER",
    "partNumber": 22,
    "partName": "CHAUMHON NO.3",
    "lat": 26.74772295,
    "lon": 78.63842107115968
  },
  {
    "partId": 46358,
    "stateCode": "S12",
    "stateName": "Madhya Pradesh",
    "districtCode": "S1203",
    "districtName": "BHIND",
    "acNumber": 9,
    "acName": "ATER",
    "partNumber": 23,
    "partName": "KHERAHAT",
    "lat": 26.7378012,
    "lon": 78.60640485912332
  },
  {
    "partId": 46359,
    "stateCode": "S12",
    "stateName": "Madhya Pradesh",
    "districtCode": "S1203",
    "districtName": "BHIND",
    "acNumber": 9,
    "acName": "ATER",
    "partNumber": 24,
    "partName": "NAVALIVRINDAVAN",
    "lat": 26.74772295,
    "lon": 78.63842107115968
  },
  {
    "partId": 2330,
    "stateCode": "S12",
    "stateName": "Madhya Pradesh",
    "districtCode": "S1203",
    "districtName": "BHIND",
    "acNumber": 9,
    "acName": "ATER",
    "partNumber": 25,
    "partName": "ATER NO.1",
    "lat": 26.7511043,
    "lon": 78.6416168
  },
  {
    "partId": 2328,
    "stateCode": "S12",
    "stateName": "Madhya Pradesh",
    "districtCode": "S1203",
    "districtName": "BHIND",
    "acNumber": 9,
    "acName": "ATER",
    "partNumber": 26,
    "partName": "ATER NO.2",
    "lat": 26.74772295,
    "lon": 78.63842107115968
  },
  {
    "partId": 46360,
    "stateCode": "S12",
    "stateName": "Madhya Pradesh",
    "districtCode": "S1203",
    "districtName": "BHIND",
    "acNumber": 9,
    "acName": "ATER",
    "partNumber": 27,
    "partName": "ATER NO.3",
    "lat": 26.74772295,
    "lon": 78.63842107115968
  },
  {
    "partId": 2327,
    "stateCode": "S12",
    "stateName": "Madhya Pradesh",
    "districtCode": "S1203",
    "districtName": "BHIND",
    "acNumber": 9,
    "acName": "ATER",
    "partNumber": 28,
    "partName": "ATER NO.4",
    "lat": 26.7511043,
    "lon": 78.6416168
  },
  {
    "partId": 46361,
    "stateCode": "S12",
    "stateName": "Madhya Pradesh",
    "districtCode": "S1203",
    "districtName": "BHIND",
    "acNumber": 9,
    "acName": "ATER",
    "partNumber": 29,
    "partName": "RAIPURA",
    "lat": 26.594983050000003,
    "lon": 78.57941041513858
  },
  {
    "partId": 46362,
    "stateCode": "S12",
    "stateName": "Madhya Pradesh",
    "districtCode": "S1203",
    "districtName": "BHIND",
    "acNumber": 9,
    "acName": "ATER",
    "partNumber": 30,
    "partName": "GHINOCHI",
    "lat": 26.73271865,
    "lon": 78.6552998201101
  },
  {
    "partId": 46363,
    "stateCode": "S12",
    "stateName": "Madhya Pradesh",
    "districtCode": "S1203",
    "districtName": "BHIND",
    "acNumber": 9,
    "acName": "ATER",
    "partNumber": 31,
    "partName": "KADOURA NO.1",
    "lat": 26.74772295,
    "lon": 78.63842107115968
  },
  {
    "partId": 53022,
    "stateCode": "S12",
    "stateName": "Madhya Pradesh",
    "districtCode": "S1203",
    "districtName": "BHIND",
    "acNumber": 9,
    "acName": "ATER",
    "partNumber": 32,
    "partName": "KADOURA NO.2",
    "lat": 26.74772295,
    "lon": 78.63842107115968
  },
  {
    "partId": 46364,
    "stateCode": "S12",
    "stateName": "Madhya Pradesh",
    "districtCode": "S1203",
    "districtName": "BHIND",
    "acNumber": 9,
    "acName": "ATER",
    "partNumber": 33,
    "partName": "NAVALIHAR",
    "lat": 26.74772295,
    "lon": 78.63842107115968
  },
  {
    "partId": 46365,
    "stateCode": "S12",
    "stateName": "Madhya Pradesh",
    "districtCode": "S1203",
    "districtName": "BHIND",
    "acNumber": 9,
    "acName": "ATER",
    "partNumber": 34,
    "partName": "TARASOKHAR",
    "lat": 26.74772295,
    "lon": 78.63842107115968
  },
  {
    "partId": 46366,
    "stateCode": "S12",
    "stateName": "Madhya Pradesh",
    "districtCode": "S1203",
    "districtName": "BHIND",
    "acNumber": 9,
    "acName": "ATER",
    "partNumber": 35,
    "partName": "ANGADAPURA NO.1",
    "lat": 26.74772295,
    "lon": 78.63842107115968
  },
  {
    "partId": 46367,
    "stateCode": "S12",
    "stateName": "Madhya Pradesh",
    "districtCode": "S1203",
    "districtName": "BHIND",
    "acNumber": 9,
    "acName": "ATER",
    "partNumber": 36,
    "partName": "ANGADAPURA NO.2",
    "lat": 26.74772295,
    "lon": 78.63842107115968
  },
  {
    "partId": 46368,
    "stateCode": "S12",
    "stateName": "Madhya Pradesh",
    "districtCode": "S1203",
    "districtName": "BHIND",
    "acNumber": 9,
    "acName": "ATER",
    "partNumber": 37,
    "partName": "AHAROULI GHAT",
    "lat": 26.74772295,
    "lon": 78.63842107115968
  },
  {
    "partId": 46369,
    "stateCode": "S12",
    "stateName": "Madhya Pradesh",
    "districtCode": "S1203",
    "districtName": "BHIND",
    "acNumber": 9,
    "acName": "ATER",
    "partNumber": 38,
    "partName": "MOURA",
    "lat": 26.74772295,
    "lon": 78.63842107115968
  },
  {
    "partId": 46370,
    "stateCode": "S12",
    "stateName": "Madhya Pradesh",
    "districtCode": "S1203",
    "districtName": "BHIND",
    "acNumber": 9,
    "acName": "ATER",
    "partNumber": 39,
    "partName": "SOURA",
    "lat": 26.74772295,
    "lon": 78.63842107115968
  },
  {
    "partId": 2326,
    "stateCode": "S12",
    "stateName": "Madhya Pradesh",
    "districtCode": "S1203",
    "districtName": "BHIND",
    "acNumber": 9,
    "acName": "ATER",
    "partNumber": 40,
    "partName": "MALLPURA",
    "lat": 26.74772295,
    "lon": 78.63842107115968
  },
  {
    "partId": 46371,
    "stateCode": "S12",
    "stateName": "Madhya Pradesh",
    "districtCode": "S1203",
    "districtName": "BHIND",
    "acNumber": 9,
    "acName": "ATER",
    "partNumber": 41,
    "partName": "NIVARI",
    "lat": 26.74772295,
    "lon": 78.63842107115968
  },
  {
    "partId": 46372,
    "stateCode": "S12",
    "stateName": "Madhya Pradesh",
    "districtCode": "S1203",
    "districtName": "BHIND",
    "acNumber": 9,
    "acName": "ATER",
    "partNumber": 42,
    "partName": "KHARIKA NO.1",
    "lat": 26.4964687,
    "lon": 78.94749285311238
  },
  {
    "partId": 53021,
    "stateCode": "S12",
    "stateName": "Madhya Pradesh",
    "districtCode": "S1203",
    "districtName": "BHIND",
    "acNumber": 9,
    "acName": "ATER",
    "partNumber": 43,
    "partName": "KHARIKA NO.2",
    "lat": 26.4964687,
    "lon": 78.94749285311238
  },
  {
    "partId": 2303,
    "stateCode": "S12",
    "stateName": "Madhya Pradesh",
    "districtCode": "S1203",
    "districtName": "BHIND",
    "acNumber": 9,
    "acName": "ATER",
    "partNumber": 44,
    "partName": "JAMHOURA NO.1",
    "lat": 26.74772295,
    "lon": 78.63842107115968
  },
  {
    "partId": 46373,
    "stateCode": "S12",
    "stateName": "Madhya Pradesh",
    "districtCode": "S1203",
    "districtName": "BHIND",
    "acNumber": 9,
    "acName": "ATER",
    "partNumber": 45,
    "partName": "JAMHOURA NO.2",
    "lat": 26.74772295,
    "lon": 78.63842107115968
  },
  {
    "partId": 2301,
    "stateCode": "S12",
    "stateName": "Madhya Pradesh",
    "districtCode": "S1203",
    "districtName": "BHIND",
    "acNumber": 9,
    "acName": "ATER",
    "partNumber": 46,
    "partName": "BALARPURA NO.1",
    "lat": 26.7042705,
    "lon": 78.6707997
  },
  {
    "partId": 2302,
    "stateCode": "S12",
    "stateName": "Madhya Pradesh",
    "districtCode": "S1203",
    "districtName": "BHIND",
    "acNumber": 9,
    "acName": "ATER",
    "partNumber": 47,
    "partName": "BALARPURA NO.2",
    "lat": 26.709652249999998,
    "lon": 78.68293121231784
  },
  {
    "partId": 46374,
    "stateCode": "S12",
    "stateName": "Madhya Pradesh",
    "districtCode": "S1203",
    "districtName": "BHIND",
    "acNumber": 9,
    "acName": "ATER",
    "partNumber": 48,
    "partName": "BADHPURI",
    "lat": 26.6913786,
    "lon": 78.7058723
  },
  {
    "partId": 46375,
    "stateCode": "S12",
    "stateName": "Madhya Pradesh",
    "districtCode": "S1203",
    "districtName": "BHIND",
    "acNumber": 9,
    "acName": "ATER",
    "partNumber": 49,
    "partName": "BADHPURA",
    "lat": 26.74772295,
    "lon": 78.63842107115968
  },
  {
    "partId": 46376,
    "stateCode": "S12",
    "stateName": "Madhya Pradesh",
    "districtCode": "S1203",
    "districtName": "BHIND",
    "acNumber": 9,
    "acName": "ATER",
    "partNumber": 50,
    "partName": "PRATAPPURA NO.1",
    "lat": 26.7105481,
    "lon": 78.7028253
  },
  {
    "partId": 53018,
    "stateCode": "S12",
    "stateName": "Madhya Pradesh",
    "districtCode": "S1203",
    "districtName": "BHIND",
    "acNumber": 9,
    "acName": "ATER",
    "partNumber": 51,
    "partName": "PRATAPPURA NO.2",
    "lat": 26.38130695,
    "lon": 78.53333007571479
  },
  {
    "partId": 46377,
    "stateCode": "S12",
    "stateName": "Madhya Pradesh",
    "districtCode": "S1203",
    "districtName": "BHIND",
    "acNumber": 9,
    "acName": "ATER",
    "partNumber": 52,
    "partName": "GOHADUPURA",
    "lat": 26.74772295,
    "lon": 78.63842107115968
  },
  {
    "partId": 46378,
    "stateCode": "S12",
    "stateName": "Madhya Pradesh",
    "districtCode": "S1203",
    "districtName": "BHIND",
    "acNumber": 9,
    "acName": "ATER",
    "partNumber": 53,
    "partName": "RATANUPURA",
    "lat": 26.729819050000003,
    "lon": 78.71671103126369
  },
  {
    "partId": 56277,
    "stateCode": "S12",
    "stateName": "Madhya Pradesh",
    "districtCode": "S1203",
    "districtName": "BHIND",
    "acNumber": 9,
    "acName": "ATER",
    "partNumber": 54,
    "partName": "KHERI",
    "lat": 26.7367535,
    "lon": 78.7265154682143
  },
  {
    "partId": 56278,
    "stateCode": "S12",
    "stateName": "Madhya Pradesh",
    "districtCode": "S1203",
    "districtName": "BHIND",
    "acNumber": 9,
    "acName": "ATER",
    "partNumber": 55,
    "partName": "HULAPURA",
    "lat": 26.724506400000003,
    "lon": 78.68578253907285
  },
  {
    "partId": 56279,
    "stateCode": "S12",
    "stateName": "Madhya Pradesh",
    "districtCode": "S1203",
    "districtName": "BHIND",
    "acNumber": 9,
    "acName": "ATER",
    "partNumber": 56,
    "partName": "VINDAVA NO.1",
    "lat": 26.74772295,
    "lon": 78.63842107115968
  },
  {
    "partId": 48306,
    "stateCode": "S12",
    "stateName": "Madhya Pradesh",
    "districtCode": "S1203",
    "districtName": "BHIND",
    "acNumber": 9,
    "acName": "ATER",
    "partNumber": 57,
    "partName": "VINDAVA NO.2",
    "lat": 26.74772295,
    "lon": 78.63842107115968
  },
  {
    "partId": 56280,
    "stateCode": "S12",
    "stateName": "Madhya Pradesh",
    "districtCode": "S1203",
    "districtName": "BHIND",
    "acNumber": 9,
    "acName": "ATER",
    "partNumber": 58,
    "partName": "SALINGPUR",
    "lat": 26.74772295,
    "lon": 78.63842107115968
  },
  {
    "partId": 2304,
    "stateCode": "S12",
    "stateName": "Madhya Pradesh",
    "districtCode": "S1203",
    "districtName": "BHIND",
    "acNumber": 9,
    "acName": "ATER",
    "partNumber": 59,
    "partName": "KHIPAUNA NO.1",
    "lat": 26.74772295,
    "lon": 78.63842107115968
  },
  {
    "partId": 46341,
    "stateCode": "S12",
    "stateName": "Madhya Pradesh",
    "districtCode": "S1203",
    "districtName": "BHIND",
    "acNumber": 9,
    "acName": "ATER",
    "partNumber": 60,
    "partName": "KHIPAUNA NO.2",
    "lat": 26.74772295,
    "lon": 78.63842107115968
  },
  {
    "partId": 56281,
    "stateCode": "S12",
    "stateName": "Madhya Pradesh",
    "districtCode": "S1203",
    "districtName": "BHIND",
    "acNumber": 9,
    "acName": "ATER",
    "partNumber": 61,
    "partName": "MAGHERA",
    "lat": 26.7782002,
    "lon": 78.67885152999057
  },
  {
    "partId": 48266,
    "stateCode": "S12",
    "stateName": "Madhya Pradesh",
    "districtCode": "S1203",
    "districtName": "BHIND",
    "acNumber": 9,
    "acName": "ATER",
    "partNumber": 62,
    "partName": "HIMMATPURA",
    "lat": 26.7718069,
    "lon": 78.69958070957244
  },
  {
    "partId": 56282,
    "stateCode": "S12",
    "stateName": "Madhya Pradesh",
    "districtCode": "S1203",
    "districtName": "BHIND",
    "acNumber": 9,
    "acName": "ATER",
    "partNumber": 63,
    "partName": "JAMSARA NO.1",
    "lat": 26.7575269,
    "lon": 78.7180726
  },
  {
    "partId": 46340,
    "stateCode": "S12",
    "stateName": "Madhya Pradesh",
    "districtCode": "S1203",
    "districtName": "BHIND",
    "acNumber": 9,
    "acName": "ATER",
    "partNumber": 64,
    "partName": "JAMSARA NO.2",
    "lat": 26.76057935,
    "lon": 78.74257077259568
  },
  {
    "partId": 56283,
    "stateCode": "S12",
    "stateName": "Madhya Pradesh",
    "districtCode": "S1203",
    "districtName": "BHIND",
    "acNumber": 9,
    "acName": "ATER",
    "partNumber": 65,
    "partName": "AKOUN NO.1",
    "lat": 26.74772295,
    "lon": 78.63842107115968
  },
  {
    "partId": 46339,
    "stateCode": "S12",
    "stateName": "Madhya Pradesh",
    "districtCode": "S1203",
    "districtName": "BHIND",
    "acNumber": 9,
    "acName": "ATER",
    "partNumber": 66,
    "partName": "AKOUN NO.2",
    "lat": 26.74772295,
    "lon": 78.63842107115968
  },
  {
    "partId": 56284,
    "stateCode": "S12",
    "stateName": "Madhya Pradesh",
    "districtCode": "S1203",
    "districtName": "BHIND",
    "acNumber": 9,
    "acName": "ATER",
    "partNumber": 67,
    "partName": "NAKHALOLI",
    "lat": 26.74772295,
    "lon": 78.63842107115968
  },
  {
    "partId": 56285,
    "stateCode": "S12",
    "stateName": "Madhya Pradesh",
    "districtCode": "S1203",
    "districtName": "BHIND",
    "acNumber": 9,
    "acName": "ATER",
    "partNumber": 68,
    "partName": "CHITAVALI",
    "lat": 26.74772295,
    "lon": 78.63842107115968
  },
  {
    "partId": 56286,
    "stateCode": "S12",
    "stateName": "Madhya Pradesh",
    "districtCode": "S1203",
    "districtName": "BHIND",
    "acNumber": 9,
    "acName": "ATER",
    "partNumber": 69,
    "partName": "KISHUPURA NO.1",
    "lat": 26.733000099999998,
    "lon": 78.74312972396243
  },
  {
    "partId": 46338,
    "stateCode": "S12",
    "stateName": "Madhya Pradesh",
    "districtCode": "S1203",
    "districtName": "BHIND",
    "acNumber": 9,
    "acName": "ATER",
    "partNumber": 70,
    "partName": "KISHUPURA NO.2",
    "lat": 26.733000099999998,
    "lon": 78.74312972396243
  },
  {
    "partId": 56287,
    "stateCode": "S12",
    "stateName": "Madhya Pradesh",
    "districtCode": "S1203",
    "districtName": "BHIND",
    "acNumber": 9,
    "acName": "ATER",
    "partNumber": 71,
    "partName": "KISHUPURA NO.3",
    "lat": 26.733000099999998,
    "lon": 78.74312972396243
  },
  {
    "partId": 56288,
    "stateCode": "S12",
    "stateName": "Madhya Pradesh",
    "districtCode": "S1203",
    "districtName": "BHIND",
    "acNumber": 9,
    "acName": "ATER",
    "partNumber": 72,
    "partName": "JOURI KOTWAL",
    "lat": 26.74772295,
    "lon": 78.63842107115968
  },
  {
    "partId": 56289,
    "stateCode": "S12",
    "stateName": "Madhya Pradesh",
    "districtCode": "S1203",
    "districtName": "BHIND",
    "acNumber": 9,
    "acName": "ATER",
    "partNumber": 73,
    "partName": "CHHIDIYAPURA",
    "lat": 26.7102798,
    "lon": 78.7244654
  },
  {
    "partId": 56290,
    "stateCode": "S12",
    "stateName": "Madhya Pradesh",
    "districtCode": "S1203",
    "districtName": "BHIND",
    "acNumber": 9,
    "acName": "ATER",
    "partNumber": 74,
    "partName": "VAMANPURA",
    "lat": 26.74772295,
    "lon": 78.63842107115968
  },
  {
    "partId": 56291,
    "stateCode": "S12",
    "stateName": "Madhya Pradesh",
    "districtCode": "S1203",
    "districtName": "BHIND",
    "acNumber": 9,
    "acName": "ATER",
    "partNumber": 75,
    "partName": "TOR KA PURA",
    "lat": 26.6654409,
    "lon": 78.8489757
  },
  {
    "partId": 56292,
    "stateCode": "S12",
    "stateName": "Madhya Pradesh",
    "districtCode": "S1203",
    "districtName": "BHIND",
    "acNumber": 9,
    "acName": "ATER",
    "partNumber": 76,
    "partName": "ANURUDDHPURA",
    "lat": 26.665266600000002,
    "lon": 78.72589961139917
  },
  {
    "partId": 2305,
    "stateCode": "S12",
    "stateName": "Madhya Pradesh",
    "districtCode": "S1203",
    "districtName": "BHIND",
    "acNumber": 9,
    "acName": "ATER",
    "partNumber": 77,
    "partName": "RIDOULI NO.1",
    "lat": 26.6574647,
    "lon": 78.6989737
  },
  {
    "partId": 56293,
    "stateCode": "S12",
    "stateName": "Madhya Pradesh",
    "districtCode": "S1203",
    "districtName": "BHIND",
    "acNumber": 9,
    "acName": "ATER",
    "partNumber": 78,
    "partName": "RIDOULI NO.2",
    "lat": 26.6574647,
    "lon": 78.6989737
  },
  {
    "partId": 56294,
    "stateCode": "S12",
    "stateName": "Madhya Pradesh",
    "districtCode": "S1203",
    "districtName": "BHIND",
    "acNumber": 9,
    "acName": "ATER",
    "partNumber": 79,
    "partName": "RAMATA",
    "lat": 26.74772295,
    "lon": 78.63842107115968
  },
  {
    "partId": 56295,
    "stateCode": "S12",
    "stateName": "Madhya Pradesh",
    "districtCode": "S1203",
    "districtName": "BHIND",
    "acNumber": 9,
    "acName": "ATER",
    "partNumber": 80,
    "partName": "DAIPURA NO.1",
    "lat": 26.6513711,
    "lon": 78.7079215
  },
  {
    "partId": 46337,
    "stateCode": "S12",
    "stateName": "Madhya Pradesh",
    "districtCode": "S1203",
    "districtName": "BHIND",
    "acNumber": 9,
    "acName": "ATER",
    "partNumber": 81,
    "partName": "DAIPURA NO.2",
    "lat": 26.6513711,
    "lon": 78.7079215
  },
  {
    "partId": 56296,
    "stateCode": "S12",
    "stateName": "Madhya Pradesh",
    "districtCode": "S1203",
    "districtName": "BHIND",
    "acNumber": 9,
    "acName": "ATER",
    "partNumber": 82,
    "partName": "PARA NO.1",
    "lat": 26.65396605,
    "lon": 78.7450545868743
  },
  {
    "partId": 48265,
    "stateCode": "S12",
    "stateName": "Madhya Pradesh",
    "districtCode": "S1203",
    "districtName": "BHIND",
    "acNumber": 9,
    "acName": "ATER",
    "partNumber": 83,
    "partName": "PARA NO.2",
    "lat": 26.65396605,
    "lon": 78.7450545868743
  },
  {
    "partId": 56297,
    "stateCode": "S12",
    "stateName": "Madhya Pradesh",
    "districtCode": "S1203",
    "districtName": "BHIND",
    "acNumber": 9,
    "acName": "ATER",
    "partNumber": 84,
    "partName": "PARA NO.3",
    "lat": 26.65396605,
    "lon": 78.7450545868743
  },
  {
    "partId": 46336,
    "stateCode": "S12",
    "stateName": "Madhya Pradesh",
    "districtCode": "S1203",
    "districtName": "BHIND",
    "acNumber": 9,
    "acName": "ATER",
    "partNumber": 85,
    "partName": "PARA NO.4",
    "lat": 26.65396605,
    "lon": 78.7450545868743
  },
  {
    "partId": 56298,
    "stateCode": "S12",
    "stateName": "Madhya Pradesh",
    "districtCode": "S1203",
    "districtName": "BHIND",
    "acNumber": 9,
    "acName": "ATER",
    "partNumber": 86,
    "partName": "PARA NO.5",
    "lat": 26.65396605,
    "lon": 78.7450545868743
  },
  {
    "partId": 2325,
    "stateCode": "S12",
    "stateName": "Madhya Pradesh",
    "districtCode": "S1203",
    "districtName": "BHIND",
    "acNumber": 9,
    "acName": "ATER",
    "partNumber": 87,
    "partName": "PARA NO.6",
    "lat": 26.65396605,
    "lon": 78.7450545868743
  },
  {
    "partId": 56299,
    "stateCode": "S12",
    "stateName": "Madhya Pradesh",
    "districtCode": "S1203",
    "districtName": "BHIND",
    "acNumber": 9,
    "acName": "ATER",
    "partNumber": 88,
    "partName": "SOI NO.1",
    "lat": 26.654394250000003,
    "lon": 78.76619970026826
  },
  {
    "partId": 48264,
    "stateCode": "S12",
    "stateName": "Madhya Pradesh",
    "districtCode": "S1203",
    "districtName": "BHIND",
    "acNumber": 9,
    "acName": "ATER",
    "partNumber": 89,
    "partName": "SOI NO.2",
    "lat": 26.654394250000003,
    "lon": 78.76619970026826
  },
  {
    "partId": 56300,
    "stateCode": "S12",
    "stateName": "Madhya Pradesh",
    "districtCode": "S1203",
    "districtName": "BHIND",
    "acNumber": 9,
    "acName": "ATER",
    "partNumber": 90,
    "partName": "JANOURA",
    "lat": 26.74772295,
    "lon": 78.63842107115968
  },
  {
    "partId": 56301,
    "stateCode": "S12",
    "stateName": "Madhya Pradesh",
    "districtCode": "S1203",
    "districtName": "BHIND",
    "acNumber": 9,
    "acName": "ATER",
    "partNumber": 91,
    "partName": "KAMAI",
    "lat": 26.64647205,
    "lon": 78.78919404768268
  },
  {
    "partId": 56302,
    "stateCode": "S12",
    "stateName": "Madhya Pradesh",
    "districtCode": "S1203",
    "districtName": "BHIND",
    "acNumber": 9,
    "acName": "ATER",
    "partNumber": 92,
    "partName": "GAJANA NO.1",
    "lat": 26.74772295,
    "lon": 78.63842107115968
  },
  {
    "partId": 48263,
    "stateCode": "S12",
    "stateName": "Madhya Pradesh",
    "districtCode": "S1203",
    "districtName": "BHIND",
    "acNumber": 9,
    "acName": "ATER",
    "partNumber": 93,
    "partName": "GAJANA NO.2",
    "lat": 26.74772295,
    "lon": 78.63842107115968
  },
  {
    "partId": 56303,
    "stateCode": "S12",
    "stateName": "Madhya Pradesh",
    "districtCode": "S1203",
    "districtName": "BHIND",
    "acNumber": 9,
    "acName": "ATER",
    "partNumber": 94,
    "partName": "DULHAGAN NO. 1",
    "lat": 26.680638799999997,
    "lon": 78.78317447450648
  },
  {
    "partId": 56304,
    "stateCode": "S12",
    "stateName": "Madhya Pradesh",
    "districtCode": "S1203",
    "districtName": "BHIND",
    "acNumber": 9,
    "acName": "ATER",
    "partNumber": 95,
    "partName": "DULHAGAN NO. 2",
    "lat": 26.680638799999997,
    "lon": 78.78317447450648
  },
  {
    "partId": 46335,
    "stateCode": "S12",
    "stateName": "Madhya Pradesh",
    "districtCode": "S1203",
    "districtName": "BHIND",
    "acNumber": 9,
    "acName": "ATER",
    "partNumber": 96,
    "partName": "DULHAGAN NO.3",
    "lat": 26.680638799999997,
    "lon": 78.78317447450648
  },
  {
    "partId": 56305,
    "stateCode": "S12",
    "stateName": "Madhya Pradesh",
    "districtCode": "S1203",
    "districtName": "BHIND",
    "acNumber": 9,
    "acName": "ATER",
    "partNumber": 97,
    "partName": "KALYANPURA",
    "lat": 26.3518828,
    "lon": 78.68631887730044
  },
  {
    "partId": 56306,
    "stateCode": "S12",
    "stateName": "Madhya Pradesh",
    "districtCode": "S1203",
    "districtName": "BHIND",
    "acNumber": 9,
    "acName": "ATER",
    "partNumber": 98,
    "partName": "UDANNAKHEDA",
    "lat": 26.3518828,
    "lon": 78.68631887730044
  },
  {
    "partId": 56307,
    "stateCode": "S12",
    "stateName": "Madhya Pradesh",
    "districtCode": "S1203",
    "districtName": "BHIND",
    "acNumber": 9,
    "acName": "ATER",
    "partNumber": 99,
    "partName": "SURPURA NO.1",
    "lat": 26.675721399288253,
    "lon": 78.67443243137808
  },
  {
    "partId": 48262,
    "stateCode": "S12",
    "stateName": "Madhya Pradesh",
    "districtCode": "S1203",
    "districtName": "BHIND",
    "acNumber": 9,
    "acName": "ATER",
    "partNumber": 100,
    "partName": "SURPURA NO.2",
    "lat": 26.675721399288253,
    "lon": 78.67443243137808
  },
  {
    "partId": 2324,
    "stateCode": "S12",
    "stateName": "Madhya Pradesh",
    "districtCode": "S1203",
    "districtName": "BHIND",
    "acNumber": 9,
    "acName": "ATER",
    "partNumber": 101,
    "partName": "JALUAPURA",
    "lat": 26.70990485,
    "lon": 78.75577423669847
  },
  {
    "partId": 2306,
    "stateCode": "S12",
    "stateName": "Madhya Pradesh",
    "districtCode": "S1203",
    "districtName": "BHIND",
    "acNumber": 9,
    "acName": "ATER",
    "partNumber": 102,
    "partName": "KYARIPURA",
    "lat": 26.675721399288253,
    "lon": 78.67443243137808
  },
  {
    "partId": 56308,
    "stateCode": "S12",
    "stateName": "Madhya Pradesh",
    "districtCode": "S1203",
    "districtName": "BHIND",
    "acNumber": 9,
    "acName": "ATER",
    "partNumber": 103,
    "partName": "MANAIPURA",
    "lat": 26.74772295,
    "lon": 78.63842107115968
  },
  {
    "partId": 57372,
    "stateCode": "S12",
    "stateName": "Madhya Pradesh",
    "districtCode": "S1203",
    "districtName": "BHIND",
    "acNumber": 9,
    "acName": "ATER",
    "partNumber": 104,
    "partName": "KOSAD NO.1",
    "lat": 26.74772295,
    "lon": 78.63842107115968
  },
  {
    "partId": 57373,
    "stateCode": "S12",
    "stateName": "Madhya Pradesh",
    "districtCode": "S1203",
    "districtName": "BHIND",
    "acNumber": 9,
    "acName": "ATER",
    "partNumber": 105,
    "partName": "KOSAD NO.2",
    "lat": 26.74772295,
    "lon": 78.63842107115968
  },
  {
    "partId": 57375,
    "stateCode": "S12",
    "stateName": "Madhya Pradesh",
    "districtCode": "S1203",
    "districtName": "BHIND",
    "acNumber": 9,
    "acName": "ATER",
    "partNumber": 106,
    "partName": "KOSAD NO.3",
    "lat": 26.675721399288253,
    "lon": 78.67443243137808
  },
  {
    "partId": 57376,
    "stateCode": "S12",
    "stateName": "Madhya Pradesh",
    "districtCode": "S1203",
    "districtName": "BHIND",
    "acNumber": 9,
    "acName": "ATER",
    "partNumber": 107,
    "partName": "VIJOURA",
    "lat": 26.74772295,
    "lon": 78.63842107115968
  },
  {
    "partId": 57414,
    "stateCode": "S12",
    "stateName": "Madhya Pradesh",
    "districtCode": "S1203",
    "districtName": "BHIND",
    "acNumber": 9,
    "acName": "ATER",
    "partNumber": 108,
    "partName": "CHILONGA",
    "lat": 26.7437222,
    "lon": 78.8157807
  },
  {
    "partId": 53068,
    "stateCode": "S12",
    "stateName": "Madhya Pradesh",
    "districtCode": "S1203",
    "districtName": "BHIND",
    "acNumber": 9,
    "acName": "ATER",
    "partNumber": 109,
    "partName": "PARIYAYA",
    "lat": 26.72766915,
    "lon": 78.81573381897546
  },
  {
    "partId": 53069,
    "stateCode": "S12",
    "stateName": "Madhya Pradesh",
    "districtCode": "S1203",
    "districtName": "BHIND",
    "acNumber": 9,
    "acName": "ATER",
    "partNumber": 110,
    "partName": "RAMA NO.1",
    "lat": 26.700932950000002,
    "lon": 78.82574949611951
  },
  {
    "partId": 53070,
    "stateCode": "S12",
    "stateName": "Madhya Pradesh",
    "districtCode": "S1203",
    "districtName": "BHIND",
    "acNumber": 9,
    "acName": "ATER",
    "partNumber": 111,
    "partName": "RAMA NO 2",
    "lat": 26.675721399288253,
    "lon": 78.67443243137808
  },
  {
    "partId": 48261,
    "stateCode": "S12",
    "stateName": "Madhya Pradesh",
    "districtCode": "S1203",
    "districtName": "BHIND",
    "acNumber": 9,
    "acName": "ATER",
    "partNumber": 112,
    "partName": "RAMA NO 3",
    "lat": 26.700932950000002,
    "lon": 78.82574949611951
  },
  {
    "partId": 53071,
    "stateCode": "S12",
    "stateName": "Madhya Pradesh",
    "districtCode": "S1203",
    "districtName": "BHIND",
    "acNumber": 9,
    "acName": "ATER",
    "partNumber": 113,
    "partName": "HAMIRA PURA",
    "lat": 26.74772295,
    "lon": 78.63842107115968
  },
  {
    "partId": 53072,
    "stateCode": "S12",
    "stateName": "Madhya Pradesh",
    "districtCode": "S1203",
    "districtName": "BHIND",
    "acNumber": 9,
    "acName": "ATER",
    "partNumber": 114,
    "partName": "BHAGATUAPURA",
    "lat": 26.74772295,
    "lon": 78.63842107115968
  },
  {
    "partId": 2307,
    "stateCode": "S12",
    "stateName": "Madhya Pradesh",
    "districtCode": "S1203",
    "districtName": "BHIND",
    "acNumber": 9,
    "acName": "ATER",
    "partNumber": 115,
    "partName": "DATAVALI",
    "lat": 26.74772295,
    "lon": 78.63842107115968
  },
  {
    "partId": 53073,
    "stateCode": "S12",
    "stateName": "Madhya Pradesh",
    "districtCode": "S1203",
    "districtName": "BHIND",
    "acNumber": 9,
    "acName": "ATER",
    "partNumber": 116,
    "partName": "BHAGAVANT PURA",
    "lat": 26.675721399288253,
    "lon": 78.67443243137808
  },
  {
    "partId": 53074,
    "stateCode": "S12",
    "stateName": "Madhya Pradesh",
    "districtCode": "S1203",
    "districtName": "BHIND",
    "acNumber": 9,
    "acName": "ATER",
    "partNumber": 117,
    "partName": "MADHAIYAPURA",
    "lat": 26.74772295,
    "lon": 78.63842107115968
  },
  {
    "partId": 53075,
    "stateCode": "S12",
    "stateName": "Madhya Pradesh",
    "districtCode": "S1203",
    "districtName": "BHIND",
    "acNumber": 9,
    "acName": "ATER",
    "partNumber": 118,
    "partName": "SAKARAYA NO.1",
    "lat": 26.675721399288253,
    "lon": 78.67443243137808
  },
  {
    "partId": 53076,
    "stateCode": "S12",
    "stateName": "Madhya Pradesh",
    "districtCode": "S1203",
    "districtName": "BHIND",
    "acNumber": 9,
    "acName": "ATER",
    "partNumber": 119,
    "partName": "SAKARAYA NO.2",
    "lat": 26.6732221,
    "lon": 78.8296938
  },
  {
    "partId": 53077,
    "stateCode": "S12",
    "stateName": "Madhya Pradesh",
    "districtCode": "S1203",
    "districtName": "BHIND",
    "acNumber": 9,
    "acName": "ATER",
    "partNumber": 120,
    "partName": "JOURI AHIR",
    "lat": 26.3518828,
    "lon": 78.68631887730044
  },
  {
    "partId": 53078,
    "stateCode": "S12",
    "stateName": "Madhya Pradesh",
    "districtCode": "S1203",
    "districtName": "BHIND",
    "acNumber": 9,
    "acName": "ATER",
    "partNumber": 121,
    "partName": "GADHA",
    "lat": 26.74772295,
    "lon": 78.63842107115968
  },
  {
    "partId": 53079,
    "stateCode": "S12",
    "stateName": "Madhya Pradesh",
    "districtCode": "S1203",
    "districtName": "BHIND",
    "acNumber": 9,
    "acName": "ATER",
    "partNumber": 122,
    "partName": "CHACHAR NO.1",
    "lat": 26.681101599999998,
    "lon": 78.87078066054842
  },
  {
    "partId": 48260,
    "stateCode": "S12",
    "stateName": "Madhya Pradesh",
    "districtCode": "S1203",
    "districtName": "BHIND",
    "acNumber": 9,
    "acName": "ATER",
    "partNumber": 123,
    "partName": "CHACHAR NO.2",
    "lat": 26.681101599999998,
    "lon": 78.87078066054842
  },
  {
    "partId": 53080,
    "stateCode": "S12",
    "stateName": "Madhya Pradesh",
    "districtCode": "S1203",
    "districtName": "BHIND",
    "acNumber": 9,
    "acName": "ATER",
    "partNumber": 124,
    "partName": "RANIPURA NO.1",
    "lat": 26.6918483,
    "lon": 78.9149773
  },
  {
    "partId": 53081,
    "stateCode": "S12",
    "stateName": "Madhya Pradesh",
    "districtCode": "S1203",
    "districtName": "BHIND",
    "acNumber": 9,
    "acName": "ATER",
    "partNumber": 125,
    "partName": "RANIPURA NO.2",
    "lat": 26.6918483,
    "lon": 78.9149773
  },
  {
    "partId": 53082,
    "stateCode": "S12",
    "stateName": "Madhya Pradesh",
    "districtCode": "S1203",
    "districtName": "BHIND",
    "acNumber": 9,
    "acName": "ATER",
    "partNumber": 126,
    "partName": "BADAPURA",
    "lat": 26.6778047,
    "lon": 78.8947856
  },
  {
    "partId": 53083,
    "stateCode": "S12",
    "stateName": "Madhya Pradesh",
    "districtCode": "S1203",
    "districtName": "BHIND",
    "acNumber": 9,
    "acName": "ATER",
    "partNumber": 127,
    "partName": "NARIPURA",
    "lat": 26.72029615,
    "lon": 78.66532850405795
  },
  {
    "partId": 53084,
    "stateCode": "S12",
    "stateName": "Madhya Pradesh",
    "districtCode": "S1203",
    "districtName": "BHIND",
    "acNumber": 9,
    "acName": "ATER",
    "partNumber": 128,
    "partName": "PALEE NO.1",
    "lat": 26.74772295,
    "lon": 78.63842107115968
  },
  {
    "partId": 48259,
    "stateCode": "S12",
    "stateName": "Madhya Pradesh",
    "districtCode": "S1203",
    "districtName": "BHIND",
    "acNumber": 9,
    "acName": "ATER",
    "partNumber": 129,
    "partName": "PALEE NO.2",
    "lat": 26.74772295,
    "lon": 78.63842107115968
  },
  {
    "partId": 46334,
    "stateCode": "S12",
    "stateName": "Madhya Pradesh",
    "districtCode": "S1203",
    "districtName": "BHIND",
    "acNumber": 9,
    "acName": "ATER",
    "partNumber": 130,
    "partName": "PALEE NO.3",
    "lat": 26.74772295,
    "lon": 78.63842107115968
  },
  {
    "partId": 53085,
    "stateCode": "S12",
    "stateName": "Madhya Pradesh",
    "districtCode": "S1203",
    "districtName": "BHIND",
    "acNumber": 9,
    "acName": "ATER",
    "partNumber": 131,
    "partName": "BHIMPURA",
    "lat": 26.3518828,
    "lon": 78.68631887730044
  },
  {
    "partId": 2308,
    "stateCode": "S12",
    "stateName": "Madhya Pradesh",
    "districtCode": "S1203",
    "districtName": "BHIND",
    "acNumber": 9,
    "acName": "ATER",
    "partNumber": 132,
    "partName": "MATGHANA NO.1",
    "lat": 26.6556182,
    "lon": 78.8530761
  },
  {
    "partId": 53086,
    "stateCode": "S12",
    "stateName": "Madhya Pradesh",
    "districtCode": "S1203",
    "districtName": "BHIND",
    "acNumber": 9,
    "acName": "ATER",
    "partNumber": 133,
    "partName": "MATGHANA NO.2",
    "lat": 26.3518828,
    "lon": 78.68631887730044
  },
  {
    "partId": 53087,
    "stateCode": "S12",
    "stateName": "Madhya Pradesh",
    "districtCode": "S1203",
    "districtName": "BHIND",
    "acNumber": 9,
    "acName": "ATER",
    "partNumber": 134,
    "partName": "RANI VIRAGAVAN NO.1",
    "lat": 26.74772295,
    "lon": 78.63842107115968
  },
  {
    "partId": 28041,
    "stateCode": "S12",
    "stateName": "Madhya Pradesh",
    "districtCode": "S1203",
    "districtName": "BHIND",
    "acNumber": 9,
    "acName": "ATER",
    "partNumber": 135,
    "partName": "RANI VIRAGAVAN NO.2",
    "lat": 26.74772295,
    "lon": 78.63842107115968
  },
  {
    "partId": 53088,
    "stateCode": "S12",
    "stateName": "Madhya Pradesh",
    "districtCode": "S1203",
    "districtName": "BHIND",
    "acNumber": 9,
    "acName": "ATER",
    "partNumber": 136,
    "partName": "RANI VIRAGAVAN NO.3",
    "lat": 26.74772295,
    "lon": 78.63842107115968
  },
  {
    "partId": 28040,
    "stateCode": "S12",
    "stateName": "Madhya Pradesh",
    "districtCode": "S1203",
    "districtName": "BHIND",
    "acNumber": 9,
    "acName": "ATER",
    "partNumber": 137,
    "partName": "RANI VIRAGAVAN NO.4",
    "lat": 26.74772295,
    "lon": 78.63842107115968
  },
  {
    "partId": 53089,
    "stateCode": "S12",
    "stateName": "Madhya Pradesh",
    "districtCode": "S1203",
    "districtName": "BHIND",
    "acNumber": 9,
    "acName": "ATER",
    "partNumber": 138,
    "partName": "SIMRAV NO.1",
    "lat": 26.74772295,
    "lon": 78.63842107115968
  },
  {
    "partId": 2323,
    "stateCode": "S12",
    "stateName": "Madhya Pradesh",
    "districtCode": "S1203",
    "districtName": "BHIND",
    "acNumber": 9,
    "acName": "ATER",
    "partNumber": 139,
    "partName": "SIMRAV NO.2",
    "lat": 26.74772295,
    "lon": 78.63842107115968
  },
  {
    "partId": 53090,
    "stateCode": "S12",
    "stateName": "Madhya Pradesh",
    "districtCode": "S1203",
    "districtName": "BHIND",
    "acNumber": 9,
    "acName": "ATER",
    "partNumber": 140,
    "partName": "MIHONI",
    "lat": 26.62363195,
    "lon": 78.76990999888744
  },
  {
    "partId": 2231,
    "stateCode": "S12",
    "stateName": "Madhya Pradesh",
    "districtCode": "S1203",
    "districtName": "BHIND",
    "acNumber": 9,
    "acName": "ATER",
    "partNumber": 141,
    "partName": "JAVASA NO.1",
    "lat": 26.74772295,
    "lon": 78.63842107115968
  },
  {
    "partId": 28039,
    "stateCode": "S12",
    "stateName": "Madhya Pradesh",
    "districtCode": "S1203",
    "districtName": "BHIND",
    "acNumber": 9,
    "acName": "ATER",
    "partNumber": 142,
    "partName": "JAVASA NO.2",
    "lat": 26.74772295,
    "lon": 78.63842107115968
  },
  {
    "partId": 2232,
    "stateCode": "S12",
    "stateName": "Madhya Pradesh",
    "districtCode": "S1203",
    "districtName": "BHIND",
    "acNumber": 9,
    "acName": "ATER",
    "partNumber": 143,
    "partName": "JAVASA NO.3",
    "lat": 26.74772295,
    "lon": 78.63842107115968
  },
  {
    "partId": 2233,
    "stateCode": "S12",
    "stateName": "Madhya Pradesh",
    "districtCode": "S1203",
    "districtName": "BHIND",
    "acNumber": 9,
    "acName": "ATER",
    "partNumber": 144,
    "partName": "JAVASA NO.4",
    "lat": 26.74772295,
    "lon": 78.63842107115968
  },
  {
    "partId": 46333,
    "stateCode": "S12",
    "stateName": "Madhya Pradesh",
    "districtCode": "S1203",
    "districtName": "BHIND",
    "acNumber": 9,
    "acName": "ATER",
    "partNumber": 145,
    "partName": "JAVASA NO.5",
    "lat": 26.74772295,
    "lon": 78.63842107115968
  },
  {
    "partId": 2234,
    "stateCode": "S12",
    "stateName": "Madhya Pradesh",
    "districtCode": "S1203",
    "districtName": "BHIND",
    "acNumber": 9,
    "acName": "ATER",
    "partNumber": 146,
    "partName": "JAVASA NO.6",
    "lat": 26.74772295,
    "lon": 78.63842107115968
  },
  {
    "partId": 2235,
    "stateCode": "S12",
    "stateName": "Madhya Pradesh",
    "districtCode": "S1203",
    "districtName": "BHIND",
    "acNumber": 9,
    "acName": "ATER",
    "partNumber": 147,
    "partName": "JAVASA NO 7",
    "lat": 26.74772295,
    "lon": 78.63842107115968
  },
  {
    "partId": 2236,
    "stateCode": "S12",
    "stateName": "Madhya Pradesh",
    "districtCode": "S1203",
    "districtName": "BHIND",
    "acNumber": 9,
    "acName": "ATER",
    "partNumber": 148,
    "partName": "JAVASA NO.8",
    "lat": 26.74772295,
    "lon": 78.63842107115968
  },
  {
    "partId": 2237,
    "stateCode": "S12",
    "stateName": "Madhya Pradesh",
    "districtCode": "S1203",
    "districtName": "BHIND",
    "acNumber": 9,
    "acName": "ATER",
    "partNumber": 149,
    "partName": "DEHARA",
    "lat": 26.6270414,
    "lon": 78.723135
  },
  {
    "partId": 2238,
    "stateCode": "S12",
    "stateName": "Madhya Pradesh",
    "districtCode": "S1203",
    "districtName": "BHIND",
    "acNumber": 9,
    "acName": "ATER",
    "partNumber": 150,
    "partName": "RANIPURA",
    "lat": 26.61015195,
    "lon": 78.71443454901126
  },
  {
    "partId": 2309,
    "stateCode": "S12",
    "stateName": "Madhya Pradesh",
    "districtCode": "S1203",
    "districtName": "BHIND",
    "acNumber": 9,
    "acName": "ATER",
    "partNumber": 151,
    "partName": "MASURI NO.1",
    "lat": 26.610704300000002,
    "lon": 78.68629210383462
  },
  {
    "partId": 2239,
    "stateCode": "S12",
    "stateName": "Madhya Pradesh",
    "districtCode": "S1203",
    "districtName": "BHIND",
    "acNumber": 9,
    "acName": "ATER",
    "partNumber": 152,
    "partName": "MASURI NO.2",
    "lat": 26.610704300000002,
    "lon": 78.68629210383462
  },
  {
    "partId": 2240,
    "stateCode": "S12",
    "stateName": "Madhya Pradesh",
    "districtCode": "S1203",
    "districtName": "BHIND",
    "acNumber": 9,
    "acName": "ATER",
    "partNumber": 153,
    "partName": "NARSINGHGADH",
    "lat": 26.74772295,
    "lon": 78.63842107115968
  },
  {
    "partId": 2241,
    "stateCode": "S12",
    "stateName": "Madhya Pradesh",
    "districtCode": "S1203",
    "districtName": "BHIND",
    "acNumber": 9,
    "acName": "ATER",
    "partNumber": 154,
    "partName": "INGURI",
    "lat": 26.6372937,
    "lon": 78.7074172
  },
  {
    "partId": 2242,
    "stateCode": "S12",
    "stateName": "Madhya Pradesh",
    "districtCode": "S1203",
    "districtName": "BHIND",
    "acNumber": 9,
    "acName": "ATER",
    "partNumber": 155,
    "partName": "VIJAYGADH",
    "lat": 26.74772295,
    "lon": 78.63842107115968
  },
  {
    "partId": 2243,
    "stateCode": "S12",
    "stateName": "Madhya Pradesh",
    "districtCode": "S1203",
    "districtName": "BHIND",
    "acNumber": 9,
    "acName": "ATER",
    "partNumber": 156,
    "partName": "BAGULARI",
    "lat": 26.64847665,
    "lon": 78.69496939518882
  },
  {
    "partId": 2244,
    "stateCode": "S12",
    "stateName": "Madhya Pradesh",
    "districtCode": "S1203",
    "districtName": "BHIND",
    "acNumber": 9,
    "acName": "ATER",
    "partNumber": 157,
    "partName": "MAHEVA",
    "lat": 26.74772295,
    "lon": 78.63842107115968
  },
  {
    "partId": 2245,
    "stateCode": "S12",
    "stateName": "Madhya Pradesh",
    "districtCode": "S1203",
    "districtName": "BHIND",
    "acNumber": 9,
    "acName": "ATER",
    "partNumber": 158,
    "partName": "BAGHEDI",
    "lat": 26.6493813,
    "lon": 78.6619109
  },
  {
    "partId": 2246,
    "stateCode": "S12",
    "stateName": "Madhya Pradesh",
    "districtCode": "S1203",
    "districtName": "BHIND",
    "acNumber": 9,
    "acName": "ATER",
    "partNumber": 159,
    "partName": "SYAVALI NO.1",
    "lat": 26.74772295,
    "lon": 78.63842107115968
  },
  {
    "partId": 46332,
    "stateCode": "S12",
    "stateName": "Madhya Pradesh",
    "districtCode": "S1203",
    "districtName": "BHIND",
    "acNumber": 9,
    "acName": "ATER",
    "partNumber": 160,
    "partName": "SYAVALI NO.2",
    "lat": 26.74772295,
    "lon": 78.63842107115968
  },
  {
    "partId": 2247,
    "stateCode": "S12",
    "stateName": "Madhya Pradesh",
    "districtCode": "S1203",
    "districtName": "BHIND",
    "acNumber": 9,
    "acName": "ATER",
    "partNumber": 161,
    "partName": "VIRAGAVAN NO.1",
    "lat": 26.74772295,
    "lon": 78.63842107115968
  },
  {
    "partId": 28038,
    "stateCode": "S12",
    "stateName": "Madhya Pradesh",
    "districtCode": "S1203",
    "districtName": "BHIND",
    "acNumber": 9,
    "acName": "ATER",
    "partNumber": 162,
    "partName": "VIRAGAVAN NO.2",
    "lat": 26.74772295,
    "lon": 78.63842107115968
  },
  {
    "partId": 2248,
    "stateCode": "S12",
    "stateName": "Madhya Pradesh",
    "districtCode": "S1203",
    "districtName": "BHIND",
    "acNumber": 9,
    "acName": "ATER",
    "partNumber": 163,
    "partName": "PAVAI NO.1",
    "lat": 26.74772295,
    "lon": 78.63842107115968
  },
  {
    "partId": 2249,
    "stateCode": "S12",
    "stateName": "Madhya Pradesh",
    "districtCode": "S1203",
    "districtName": "BHIND",
    "acNumber": 9,
    "acName": "ATER",
    "partNumber": 164,
    "partName": "PAVAI NO.2",
    "lat": 26.74772295,
    "lon": 78.63842107115968
  },
  {
    "partId": 46331,
    "stateCode": "S12",
    "stateName": "Madhya Pradesh",
    "districtCode": "S1203",
    "districtName": "BHIND",
    "acNumber": 9,
    "acName": "ATER",
    "partNumber": 165,
    "partName": "PAVAI NO.3",
    "lat": 26.74772295,
    "lon": 78.63842107115968
  },
  {
    "partId": 2310,
    "stateCode": "S12",
    "stateName": "Madhya Pradesh",
    "districtCode": "S1203",
    "districtName": "BHIND",
    "acNumber": 9,
    "acName": "ATER",
    "partNumber": 166,
    "partName": "PALI NO.1",
    "lat": 26.618004300000003,
    "lon": 78.62917273774109
  },
  {
    "partId": 2250,
    "stateCode": "S12",
    "stateName": "Madhya Pradesh",
    "districtCode": "S1203",
    "districtName": "BHIND",
    "acNumber": 9,
    "acName": "ATER",
    "partNumber": 167,
    "partName": "PALI NO.2",
    "lat": 26.618004300000003,
    "lon": 78.62917273774109
  },
  {
    "partId": 2251,
    "stateCode": "S12",
    "stateName": "Madhya Pradesh",
    "districtCode": "S1203",
    "districtName": "BHIND",
    "acNumber": 9,
    "acName": "ATER",
    "partNumber": 168,
    "partName": "PACHOKHARA",
    "lat": 26.60779335,
    "lon": 78.65432845710211
  },
  {
    "partId": 2252,
    "stateCode": "S12",
    "stateName": "Madhya Pradesh",
    "districtCode": "S1203",
    "districtName": "BHIND",
    "acNumber": 9,
    "acName": "ATER",
    "partNumber": 169,
    "partName": "PITHANPURA",
    "lat": 26.597656100000002,
    "lon": 78.65194464533288
  },
  {
    "partId": 2253,
    "stateCode": "S12",
    "stateName": "Madhya Pradesh",
    "districtCode": "S1203",
    "districtName": "BHIND",
    "acNumber": 9,
    "acName": "ATER",
    "partNumber": 170,
    "partName": "GOARKHURD NO.1",
    "lat": 26.74772295,
    "lon": 78.63842107115968
  },
  {
    "partId": 28037,
    "stateCode": "S12",
    "stateName": "Madhya Pradesh",
    "districtCode": "S1203",
    "districtName": "BHIND",
    "acNumber": 9,
    "acName": "ATER",
    "partNumber": 171,
    "partName": "GOARKHURD NO.2",
    "lat": 26.74772295,
    "lon": 78.63842107115968
  },
  {
    "partId": 2254,
    "stateCode": "S12",
    "stateName": "Madhya Pradesh",
    "districtCode": "S1203",
    "districtName": "BHIND",
    "acNumber": 9,
    "acName": "ATER",
    "partNumber": 172,
    "partName": "GOARKALAN",
    "lat": 26.74772295,
    "lon": 78.63842107115968
  },
  {
    "partId": 2255,
    "stateCode": "S12",
    "stateName": "Madhya Pradesh",
    "districtCode": "S1203",
    "districtName": "BHIND",
    "acNumber": 9,
    "acName": "ATER",
    "partNumber": 173,
    "partName": "JANJARIPURA",
    "lat": 26.5900238,
    "lon": 78.6061799
  },
  {
    "partId": 2256,
    "stateCode": "S12",
    "stateName": "Madhya Pradesh",
    "districtCode": "S1203",
    "districtName": "BHIND",
    "acNumber": 9,
    "acName": "ATER",
    "partNumber": 174,
    "partName": "RAMPURA",
    "lat": 26.5924005,
    "lon": 78.61917737618563
  },
  {
    "partId": 2257,
    "stateCode": "S12",
    "stateName": "Madhya Pradesh",
    "districtCode": "S1203",
    "districtName": "BHIND",
    "acNumber": 9,
    "acName": "ATER",
    "partNumber": 175,
    "partName": "MRIGPURA NO.1",
    "lat": 26.74772295,
    "lon": 78.63842107115968
  },
  {
    "partId": 2322,
    "stateCode": "S12",
    "stateName": "Madhya Pradesh",
    "districtCode": "S1203",
    "districtName": "BHIND",
    "acNumber": 9,
    "acName": "ATER",
    "partNumber": 176,
    "partName": "MRIGPURA NO.2",
    "lat": 26.74772295,
    "lon": 78.63842107115968
  },
  {
    "partId": 2258,
    "stateCode": "S12",
    "stateName": "Madhya Pradesh",
    "districtCode": "S1203",
    "districtName": "BHIND",
    "acNumber": 9,
    "acName": "ATER",
    "partNumber": 177,
    "partName": "BICHHOULI NO.1",
    "lat": 26.74772295,
    "lon": 78.63842107115968
  },
  {
    "partId": 46330,
    "stateCode": "S12",
    "stateName": "Madhya Pradesh",
    "districtCode": "S1203",
    "districtName": "BHIND",
    "acNumber": 9,
    "acName": "ATER",
    "partNumber": 178,
    "partName": "BICHHOULI  NO.2",
    "lat": 26.74772295,
    "lon": 78.63842107115968
  },
  {
    "partId": 2259,
    "stateCode": "S12",
    "stateName": "Madhya Pradesh",
    "districtCode": "S1203",
    "districtName": "BHIND",
    "acNumber": 9,
    "acName": "ATER",
    "partNumber": 179,
    "partName": "BENDIPURA",
    "lat": 26.74772295,
    "lon": 78.63842107115968
  },
  {
    "partId": 2260,
    "stateCode": "S12",
    "stateName": "Madhya Pradesh",
    "districtCode": "S1203",
    "districtName": "BHIND",
    "acNumber": 9,
    "acName": "ATER",
    "partNumber": 180,
    "partName": "PIPARI NO.1",
    "lat": 26.74772295,
    "lon": 78.63842107115968
  },
  {
    "partId": 2261,
    "stateCode": "S12",
    "stateName": "Madhya Pradesh",
    "districtCode": "S1203",
    "districtName": "BHIND",
    "acNumber": 9,
    "acName": "ATER",
    "partNumber": 181,
    "partName": "PIPARI NO.2",
    "lat": 26.74772295,
    "lon": 78.63842107115968
  },
  {
    "partId": 2262,
    "stateCode": "S12",
    "stateName": "Madhya Pradesh",
    "districtCode": "S1203",
    "districtName": "BHIND",
    "acNumber": 9,
    "acName": "ATER",
    "partNumber": 182,
    "partName": "KHIDARPURA",
    "lat": 26.55155435,
    "lon": 78.61280952110499
  },
  {
    "partId": 2311,
    "stateCode": "S12",
    "stateName": "Madhya Pradesh",
    "districtCode": "S1203",
    "districtName": "BHIND",
    "acNumber": 9,
    "acName": "ATER",
    "partNumber": 183,
    "partName": "JOURI BRAHAMAN",
    "lat": 26.74772295,
    "lon": 78.63842107115968
  },
  {
    "partId": 2263,
    "stateCode": "S12",
    "stateName": "Madhya Pradesh",
    "districtCode": "S1203",
    "districtName": "BHIND",
    "acNumber": 9,
    "acName": "ATER",
    "partNumber": 184,
    "partName": "MADANPURA",
    "lat": 26.547179200000002,
    "lon": 78.65492982497335
  },
  {
    "partId": 2264,
    "stateCode": "S12",
    "stateName": "Madhya Pradesh",
    "districtCode": "S1203",
    "districtName": "BHIND",
    "acNumber": 9,
    "acName": "ATER",
    "partNumber": 185,
    "partName": "RAIPURA",
    "lat": 26.594983050000003,
    "lon": 78.57941041513858
  },
  {
    "partId": 2265,
    "stateCode": "S12",
    "stateName": "Madhya Pradesh",
    "districtCode": "S1203",
    "districtName": "BHIND",
    "acNumber": 9,
    "acName": "ATER",
    "partNumber": 186,
    "partName": "ETEHAR NO.1",
    "lat": 26.74772295,
    "lon": 78.63842107115968
  },
  {
    "partId": 2266,
    "stateCode": "S12",
    "stateName": "Madhya Pradesh",
    "districtCode": "S1203",
    "districtName": "BHIND",
    "acNumber": 9,
    "acName": "ATER",
    "partNumber": 187,
    "partName": "ETEHAR NO.2",
    "lat": 26.74772295,
    "lon": 78.63842107115968
  },
  {
    "partId": 2267,
    "stateCode": "S12",
    "stateName": "Madhya Pradesh",
    "districtCode": "S1203",
    "districtName": "BHIND",
    "acNumber": 9,
    "acName": "ATER",
    "partNumber": 188,
    "partName": "CHAKARPURA",
    "lat": 26.55264105,
    "lon": 78.66668646235242
  },
  {
    "partId": 2268,
    "stateCode": "S12",
    "stateName": "Madhya Pradesh",
    "districtCode": "S1203",
    "districtName": "BHIND",
    "acNumber": 9,
    "acName": "ATER",
    "partNumber": 189,
    "partName": "MAHAPUR NO.1",
    "lat": 26.54047225,
    "lon": 78.67047108548087
  },
  {
    "partId": 46329,
    "stateCode": "S12",
    "stateName": "Madhya Pradesh",
    "districtCode": "S1203",
    "districtName": "BHIND",
    "acNumber": 9,
    "acName": "ATER",
    "partNumber": 190,
    "partName": "MAHAPUR NO.2",
    "lat": 26.74772295,
    "lon": 78.63842107115968
  },
  {
    "partId": 2312,
    "stateCode": "S12",
    "stateName": "Madhya Pradesh",
    "districtCode": "S1203",
    "districtName": "BHIND",
    "acNumber": 9,
    "acName": "ATER",
    "partNumber": 191,
    "partName": "BAROHI NO.1",
    "lat": 26.5157225,
    "lon": 78.6797583
  },
  {
    "partId": 46328,
    "stateCode": "S12",
    "stateName": "Madhya Pradesh",
    "districtCode": "S1203",
    "districtName": "BHIND",
    "acNumber": 9,
    "acName": "ATER",
    "partNumber": 192,
    "partName": "BAROHI NO.2",
    "lat": 26.5157225,
    "lon": 78.6797583
  },
  {
    "partId": 2269,
    "stateCode": "S12",
    "stateName": "Madhya Pradesh",
    "districtCode": "S1203",
    "districtName": "BHIND",
    "acNumber": 9,
    "acName": "ATER",
    "partNumber": 193,
    "partName": "DONGARPURA",
    "lat": 26.42788735,
    "lon": 79.04452435076104
  },
  {
    "partId": 2270,
    "stateCode": "S12",
    "stateName": "Madhya Pradesh",
    "districtCode": "S1203",
    "districtName": "BHIND",
    "acNumber": 9,
    "acName": "ATER",
    "partNumber": 194,
    "partName": "SUJANPURA",
    "lat": 26.3518828,
    "lon": 78.68631887730044
  },
  {
    "partId": 2271,
    "stateCode": "S12",
    "stateName": "Madhya Pradesh",
    "districtCode": "S1203",
    "districtName": "BHIND",
    "acNumber": 9,
    "acName": "ATER",
    "partNumber": 195,
    "partName": "NAYAB",
    "lat": 26.5132648,
    "lon": 78.6998427
  },
  {
    "partId": 2272,
    "stateCode": "S12",
    "stateName": "Madhya Pradesh",
    "districtCode": "S1203",
    "districtName": "BHIND",
    "acNumber": 9,
    "acName": "ATER",
    "partNumber": 196,
    "partName": "KHURD",
    "lat": 26.24568335,
    "lon": 79.03327639986964
  },
  {
    "partId": 2273,
    "stateCode": "S12",
    "stateName": "Madhya Pradesh",
    "districtCode": "S1203",
    "districtName": "BHIND",
    "acNumber": 9,
    "acName": "ATER",
    "partNumber": 197,
    "partName": "GOPALPURA",
    "lat": 26.5983035,
    "lon": 78.54072621457708
  },
  {
    "partId": 2274,
    "stateCode": "S12",
    "stateName": "Madhya Pradesh",
    "districtCode": "S1203",
    "districtName": "BHIND",
    "acNumber": 9,
    "acName": "ATER",
    "partNumber": 198,
    "partName": "LAVAN NO.1",
    "lat": 26.74772295,
    "lon": 78.63842107115968
  },
  {
    "partId": 28036,
    "stateCode": "S12",
    "stateName": "Madhya Pradesh",
    "districtCode": "S1203",
    "districtName": "BHIND",
    "acNumber": 9,
    "acName": "ATER",
    "partNumber": 199,
    "partName": "LAVAN NO.2",
    "lat": 26.74772295,
    "lon": 78.63842107115968
  },
  {
    "partId": 2275,
    "stateCode": "S12",
    "stateName": "Madhya Pradesh",
    "districtCode": "S1203",
    "districtName": "BHIND",
    "acNumber": 9,
    "acName": "ATER",
    "partNumber": 200,
    "partName": "LAVAN NO.3",
    "lat": 26.74772295,
    "lon": 78.63842107115968
  },
  {
    "partId": 46327,
    "stateCode": "S12",
    "stateName": "Madhya Pradesh",
    "districtCode": "S1203",
    "districtName": "BHIND",
    "acNumber": 9,
    "acName": "ATER",
    "partNumber": 201,
    "partName": "LAVAN NO.4",
    "lat": 26.74772295,
    "lon": 78.63842107115968
  },
  {
    "partId": 2276,
    "stateCode": "S12",
    "stateName": "Madhya Pradesh",
    "districtCode": "S1203",
    "districtName": "BHIND",
    "acNumber": 9,
    "acName": "ATER",
    "partNumber": 202,
    "partName": "AMLEHADI",
    "lat": 26.5229993,
    "lon": 78.7120628
  },
  {
    "partId": 2277,
    "stateCode": "S12",
    "stateName": "Madhya Pradesh",
    "districtCode": "S1203",
    "districtName": "BHIND",
    "acNumber": 9,
    "acName": "ATER",
    "partNumber": 203,
    "partName": "AMLEHADA",
    "lat": 26.74772295,
    "lon": 78.63842107115968
  },
  {
    "partId": 2278,
    "stateCode": "S12",
    "stateName": "Madhya Pradesh",
    "districtCode": "S1203",
    "districtName": "BHIND",
    "acNumber": 9,
    "acName": "ATER",
    "partNumber": 204,
    "partName": "PIDAURA NO.1",
    "lat": 26.74772295,
    "lon": 78.63842107115968
  },
  {
    "partId": 28035,
    "stateCode": "S12",
    "stateName": "Madhya Pradesh",
    "districtCode": "S1203",
    "districtName": "BHIND",
    "acNumber": 9,
    "acName": "ATER",
    "partNumber": 205,
    "partName": "PIDAURA NO.2",
    "lat": 26.74772295,
    "lon": 78.63842107115968
  },
  {
    "partId": 2313,
    "stateCode": "S12",
    "stateName": "Madhya Pradesh",
    "districtCode": "S1203",
    "districtName": "BHIND",
    "acNumber": 9,
    "acName": "ATER",
    "partNumber": 206,
    "partName": "PUR NO.1",
    "lat": 26.556856250000003,
    "lon": 78.71898967113489
  },
  {
    "partId": 28034,
    "stateCode": "S12",
    "stateName": "Madhya Pradesh",
    "districtCode": "S1203",
    "districtName": "BHIND",
    "acNumber": 9,
    "acName": "ATER",
    "partNumber": 207,
    "partName": "PUR NO.2",
    "lat": 26.556856250000003,
    "lon": 78.71898967113489
  },
  {
    "partId": 2279,
    "stateCode": "S12",
    "stateName": "Madhya Pradesh",
    "districtCode": "S1203",
    "districtName": "BHIND",
    "acNumber": 9,
    "acName": "ATER",
    "partNumber": 208,
    "partName": "PUR NO.3",
    "lat": 26.3518828,
    "lon": 78.68631887730044
  },
  {
    "partId": 2280,
    "stateCode": "S12",
    "stateName": "Madhya Pradesh",
    "districtCode": "S1203",
    "districtName": "BHIND",
    "acNumber": 9,
    "acName": "ATER",
    "partNumber": 209,
    "partName": "KUSMAR",
    "lat": 26.57260625,
    "lon": 78.73847668004868
  },
  {
    "partId": 2281,
    "stateCode": "S12",
    "stateName": "Madhya Pradesh",
    "districtCode": "S1203",
    "districtName": "BHIND",
    "acNumber": 9,
    "acName": "ATER",
    "partNumber": 210,
    "partName": "LAKHANPURA",
    "lat": 26.5806188,
    "lon": 78.70881938281197
  },
  {
    "partId": 2282,
    "stateCode": "S12",
    "stateName": "Madhya Pradesh",
    "districtCode": "S1203",
    "districtName": "BHIND",
    "acNumber": 9,
    "acName": "ATER",
    "partNumber": 211,
    "partName": "BEESALPURA",
    "lat": 26.74772295,
    "lon": 78.63842107115968
  },
  {
    "partId": 2283,
    "stateCode": "S12",
    "stateName": "Madhya Pradesh",
    "districtCode": "S1203",
    "districtName": "BHIND",
    "acNumber": 9,
    "acName": "ATER",
    "partNumber": 212,
    "partName": "MOORATPURA",
    "lat": 26.3518828,
    "lon": 78.68631887730044
  },
  {
    "partId": 2284,
    "stateCode": "S12",
    "stateName": "Madhya Pradesh",
    "districtCode": "S1203",
    "districtName": "BHIND",
    "acNumber": 9,
    "acName": "ATER",
    "partNumber": 213,
    "partName": "LAHARPURA",
    "lat": 26.5817764,
    "lon": 78.68754581840648
  },
  {
    "partId": 2285,
    "stateCode": "S12",
    "stateName": "Madhya Pradesh",
    "districtCode": "S1203",
    "districtName": "BHIND",
    "acNumber": 9,
    "acName": "ATER",
    "partNumber": 214,
    "partName": "JAREE",
    "lat": 26.74772295,
    "lon": 78.63842107115968
  },
  {
    "partId": 2286,
    "stateCode": "S12",
    "stateName": "Madhya Pradesh",
    "districtCode": "S1203",
    "districtName": "BHIND",
    "acNumber": 9,
    "acName": "ATER",
    "partNumber": 215,
    "partName": "SAROO PURA",
    "lat": 26.74772295,
    "lon": 78.63842107115968
  },
  {
    "partId": 21504,
    "stateCode": "S12",
    "stateName": "Madhya Pradesh",
    "districtCode": "S1203",
    "districtName": "BHIND",
    "acNumber": 9,
    "acName": "ATER",
    "partNumber": 216,
    "partName": "TEEKARI",
    "lat": 26.74772295,
    "lon": 78.63842107115968
  },
  {
    "partId": 21505,
    "stateCode": "S12",
    "stateName": "Madhya Pradesh",
    "districtCode": "S1203",
    "districtName": "BHIND",
    "acNumber": 9,
    "acName": "ATER",
    "partNumber": 217,
    "partName": "CHAUKI",
    "lat": 26.58425305,
    "lon": 78.71972855210659
  },
  {
    "partId": 21506,
    "stateCode": "S12",
    "stateName": "Madhya Pradesh",
    "districtCode": "S1203",
    "districtName": "BHIND",
    "acNumber": 9,
    "acName": "ATER",
    "partNumber": 218,
    "partName": "DHARAI NO.1",
    "lat": 26.58882245,
    "lon": 78.73595173796295
  },
  {
    "partId": 28025,
    "stateCode": "S12",
    "stateName": "Madhya Pradesh",
    "districtCode": "S1203",
    "districtName": "BHIND",
    "acNumber": 9,
    "acName": "ATER",
    "partNumber": 219,
    "partName": "DHARAI NO.2",
    "lat": 26.3518828,
    "lon": 78.68631887730044
  },
  {
    "partId": 2314,
    "stateCode": "S12",
    "stateName": "Madhya Pradesh",
    "districtCode": "S1203",
    "districtName": "BHIND",
    "acNumber": 9,
    "acName": "ATER",
    "partNumber": 220,
    "partName": "BHUJPURA NO.1",
    "lat": 26.74772295,
    "lon": 78.63842107115968
  },
  {
    "partId": 2340,
    "stateCode": "S12",
    "stateName": "Madhya Pradesh",
    "districtCode": "S1203",
    "districtName": "BHIND",
    "acNumber": 9,
    "acName": "ATER",
    "partNumber": 221,
    "partName": "BHUJPURA NO.2",
    "lat": 26.5816454,
    "lon": 78.755510939039
  },
  {
    "partId": 21507,
    "stateCode": "S12",
    "stateName": "Madhya Pradesh",
    "districtCode": "S1203",
    "districtName": "BHIND",
    "acNumber": 9,
    "acName": "ATER",
    "partNumber": 222,
    "partName": "BAKSEEPURA",
    "lat": 26.74772295,
    "lon": 78.63842107115968
  },
  {
    "partId": 21508,
    "stateCode": "S12",
    "stateName": "Madhya Pradesh",
    "districtCode": "S1203",
    "districtName": "BHIND",
    "acNumber": 9,
    "acName": "ATER",
    "partNumber": 223,
    "partName": "NALEEPURA",
    "lat": 26.74772295,
    "lon": 78.63842107115968
  },
  {
    "partId": 21509,
    "stateCode": "S12",
    "stateName": "Madhya Pradesh",
    "districtCode": "S1203",
    "districtName": "BHIND",
    "acNumber": 9,
    "acName": "ATER",
    "partNumber": 224,
    "partName": "MUDIYAKHEDA NO.1",
    "lat": 26.74772295,
    "lon": 78.63842107115968
  },
  {
    "partId": 21510,
    "stateCode": "S12",
    "stateName": "Madhya Pradesh",
    "districtCode": "S1203",
    "districtName": "BHIND",
    "acNumber": 9,
    "acName": "ATER",
    "partNumber": 225,
    "partName": "MUDIYAKHEDA NO.2",
    "lat": 26.74772295,
    "lon": 78.63842107115968
  },
  {
    "partId": 21511,
    "stateCode": "S12",
    "stateName": "Madhya Pradesh",
    "districtCode": "S1203",
    "districtName": "BHIND",
    "acNumber": 9,
    "acName": "ATER",
    "partNumber": 226,
    "partName": "UDOTPURA",
    "lat": 26.60267095,
    "lon": 78.75972306483175
  },
  {
    "partId": 21512,
    "stateCode": "S12",
    "stateName": "Madhya Pradesh",
    "districtCode": "S1203",
    "districtName": "BHIND",
    "acNumber": 9,
    "acName": "ATER",
    "partNumber": 227,
    "partName": "KURTHARA NO.1",
    "lat": 26.3518828,
    "lon": 78.68631887730044
  },
  {
    "partId": 2339,
    "stateCode": "S12",
    "stateName": "Madhya Pradesh",
    "districtCode": "S1203",
    "districtName": "BHIND",
    "acNumber": 9,
    "acName": "ATER",
    "partNumber": 228,
    "partName": "KURTHARA NO.2",
    "lat": 26.3518828,
    "lon": 78.68631887730044
  },
  {
    "partId": 21513,
    "stateCode": "S12",
    "stateName": "Madhya Pradesh",
    "districtCode": "S1203",
    "districtName": "BHIND",
    "acNumber": 9,
    "acName": "ATER",
    "partNumber": 229,
    "partName": "DEENPURA NO.1",
    "lat": 26.74772295,
    "lon": 78.63842107115968
  },
  {
    "partId": 21514,
    "stateCode": "S12",
    "stateName": "Madhya Pradesh",
    "districtCode": "S1203",
    "districtName": "BHIND",
    "acNumber": 9,
    "acName": "ATER",
    "partNumber": 230,
    "partName": "DEENPURA NO.2",
    "lat": 26.74772295,
    "lon": 78.63842107115968
  },
  {
    "partId": 47629,
    "stateCode": "S12",
    "stateName": "Madhya Pradesh",
    "districtCode": "S1203",
    "districtName": "BHIND",
    "acNumber": 9,
    "acName": "ATER",
    "partNumber": 231,
    "partName": "DIDIKHURD",
    "lat": 26.74772295,
    "lon": 78.63842107115968
  },
  {
    "partId": 47672,
    "stateCode": "S12",
    "stateName": "Madhya Pradesh",
    "districtCode": "S1203",
    "districtName": "BHIND",
    "acNumber": 9,
    "acName": "ATER",
    "partNumber": 232,
    "partName": "DIDIKALAN NO.1",
    "lat": 26.3518828,
    "lon": 78.68631887730044
  },
  {
    "partId": 2338,
    "stateCode": "S12",
    "stateName": "Madhya Pradesh",
    "districtCode": "S1203",
    "districtName": "BHIND",
    "acNumber": 9,
    "acName": "ATER",
    "partNumber": 233,
    "partName": "DIDIKALAN NO.2",
    "lat": 26.74772295,
    "lon": 78.63842107115968
  },
  {
    "partId": 53229,
    "stateCode": "S12",
    "stateName": "Madhya Pradesh",
    "districtCode": "S1203",
    "districtName": "BHIND",
    "acNumber": 9,
    "acName": "ATER",
    "partNumber": 234,
    "partName": "CHASAD",
    "lat": 26.3518828,
    "lon": 78.68631887730044
  },
  {
    "partId": 2315,
    "stateCode": "S12",
    "stateName": "Madhya Pradesh",
    "districtCode": "S1203",
    "districtName": "BHIND",
    "acNumber": 9,
    "acName": "ATER",
    "partNumber": 235,
    "partName": "MIRCHOLI",
    "lat": 26.3518828,
    "lon": 78.68631887730044
  },
  {
    "partId": 53230,
    "stateCode": "S12",
    "stateName": "Madhya Pradesh",
    "districtCode": "S1203",
    "districtName": "BHIND",
    "acNumber": 9,
    "acName": "ATER",
    "partNumber": 236,
    "partName": "BHAGVASI NO.1",
    "lat": 26.74772295,
    "lon": 78.63842107115968
  },
  {
    "partId": 46326,
    "stateCode": "S12",
    "stateName": "Madhya Pradesh",
    "districtCode": "S1203",
    "districtName": "BHIND",
    "acNumber": 9,
    "acName": "ATER",
    "partNumber": 237,
    "partName": "BHAGVASI NO.2",
    "lat": 26.74772295,
    "lon": 78.63842107115968
  },
  {
    "partId": 53231,
    "stateCode": "S12",
    "stateName": "Madhya Pradesh",
    "districtCode": "S1203",
    "districtName": "BHIND",
    "acNumber": 9,
    "acName": "ATER",
    "partNumber": 238,
    "partName": "AHENTI",
    "lat": 26.74772295,
    "lon": 78.63842107115968
  },
  {
    "partId": 53267,
    "stateCode": "S12",
    "stateName": "Madhya Pradesh",
    "districtCode": "S1203",
    "districtName": "BHIND",
    "acNumber": 9,
    "acName": "ATER",
    "partNumber": 239,
    "partName": "BHADAKUR NO.1",
    "lat": 26.74772295,
    "lon": 78.63842107115968
  },
  {
    "partId": 46325,
    "stateCode": "S12",
    "stateName": "Madhya Pradesh",
    "districtCode": "S1203",
    "districtName": "BHIND",
    "acNumber": 9,
    "acName": "ATER",
    "partNumber": 240,
    "partName": "BHADAKUR NO.2",
    "lat": 26.74772295,
    "lon": 78.63842107115968
  },
  {
    "partId": 35359,
    "stateCode": "S12",
    "stateName": "Madhya Pradesh",
    "districtCode": "S1203",
    "districtName": "BHIND",
    "acNumber": 9,
    "acName": "ATER",
    "partNumber": 241,
    "partName": "BHADAKUR NO.3",
    "lat": 26.74772295,
    "lon": 78.63842107115968
  },
  {
    "partId": 35367,
    "stateCode": "S12",
    "stateName": "Madhya Pradesh",
    "districtCode": "S1203",
    "districtName": "BHIND",
    "acNumber": 9,
    "acName": "ATER",
    "partNumber": 242,
    "partName": "BHADAKUR N0.4",
    "lat": 26.74772295,
    "lon": 78.63842107115968
  },
  {
    "partId": 35372,
    "stateCode": "S12",
    "stateName": "Madhya Pradesh",
    "districtCode": "S1203",
    "districtName": "BHIND",
    "acNumber": 9,
    "acName": "ATER",
    "partNumber": 243,
    "partName": "PHOOPKALAN NO.1",
    "lat": 26.74772295,
    "lon": 78.63842107115968
  },
  {
    "partId": 2321,
    "stateCode": "S12",
    "stateName": "Madhya Pradesh",
    "districtCode": "S1203",
    "districtName": "BHIND",
    "acNumber": 9,
    "acName": "ATER",
    "partNumber": 244,
    "partName": "PHOOPKALAN NO.2",
    "lat": 26.74772295,
    "lon": 78.63842107115968
  },
  {
    "partId": 35386,
    "stateCode": "S12",
    "stateName": "Madhya Pradesh",
    "districtCode": "S1203",
    "districtName": "BHIND",
    "acNumber": 9,
    "acName": "ATER",
    "partNumber": 245,
    "partName": "PHOOPKALAN NO.3",
    "lat": 26.3518828,
    "lon": 78.68631887730044
  },
  {
    "partId": 2337,
    "stateCode": "S12",
    "stateName": "Madhya Pradesh",
    "districtCode": "S1203",
    "districtName": "BHIND",
    "acNumber": 9,
    "acName": "ATER",
    "partNumber": 246,
    "partName": "PHOOPKALAN NO.4",
    "lat": 26.3518828,
    "lon": 78.68631887730044
  },
  {
    "partId": 35389,
    "stateCode": "S12",
    "stateName": "Madhya Pradesh",
    "districtCode": "S1203",
    "districtName": "BHIND",
    "acNumber": 9,
    "acName": "ATER",
    "partNumber": 247,
    "partName": "PHOOPKALAN NO.5",
    "lat": 26.74772295,
    "lon": 78.63842107115968
  },
  {
    "partId": 2320,
    "stateCode": "S12",
    "stateName": "Madhya Pradesh",
    "districtCode": "S1203",
    "districtName": "BHIND",
    "acNumber": 9,
    "acName": "ATER",
    "partNumber": 248,
    "partName": "PHOOPKALAN NO.6",
    "lat": 26.74772295,
    "lon": 78.63842107115968
  },
  {
    "partId": 35390,
    "stateCode": "S12",
    "stateName": "Madhya Pradesh",
    "districtCode": "S1203",
    "districtName": "BHIND",
    "acNumber": 9,
    "acName": "ATER",
    "partNumber": 249,
    "partName": "PHOOPKALAN NO.7",
    "lat": 26.74772295,
    "lon": 78.63842107115968
  },
  {
    "partId": 2319,
    "stateCode": "S12",
    "stateName": "Madhya Pradesh",
    "districtCode": "S1203",
    "districtName": "BHIND",
    "acNumber": 9,
    "acName": "ATER",
    "partNumber": 250,
    "partName": "PHOOPKALAN NO.8",
    "lat": 26.74772295,
    "lon": 78.63842107115968
  },
  {
    "partId": 35391,
    "stateCode": "S12",
    "stateName": "Madhya Pradesh",
    "districtCode": "S1203",
    "districtName": "BHIND",
    "acNumber": 9,
    "acName": "ATER",
    "partNumber": 251,
    "partName": "PHOOPKALAN NO.9",
    "lat": 26.74772295,
    "lon": 78.63842107115968
  },
  {
    "partId": 2318,
    "stateCode": "S12",
    "stateName": "Madhya Pradesh",
    "districtCode": "S1203",
    "districtName": "BHIND",
    "acNumber": 9,
    "acName": "ATER",
    "partNumber": 252,
    "partName": "PHOOPKALAN NO.10",
    "lat": 26.74772295,
    "lon": 78.63842107115968
  },
  {
    "partId": 35392,
    "stateCode": "S12",
    "stateName": "Madhya Pradesh",
    "districtCode": "S1203",
    "districtName": "BHIND",
    "acNumber": 9,
    "acName": "ATER",
    "partNumber": 253,
    "partName": "RAMGADH",
    "lat": 26.74772295,
    "lon": 78.63842107115968
  },
  {
    "partId": 35393,
    "stateCode": "S12",
    "stateName": "Madhya Pradesh",
    "districtCode": "S1203",
    "districtName": "BHIND",
    "acNumber": 9,
    "acName": "ATER",
    "partNumber": 254,
    "partName": "BARAHI NO.1",
    "lat": 26.524196099999998,
    "lon": 78.68056019225119
  },
  {
    "partId": 2336,
    "stateCode": "S12",
    "stateName": "Madhya Pradesh",
    "districtCode": "S1203",
    "districtName": "BHIND",
    "acNumber": 9,
    "acName": "ATER",
    "partNumber": 255,
    "partName": "BARAHI NO.2",
    "lat": 26.3518828,
    "lon": 78.68631887730044
  },
  {
    "partId": 35394,
    "stateCode": "S12",
    "stateName": "Madhya Pradesh",
    "districtCode": "S1203",
    "districtName": "BHIND",
    "acNumber": 9,
    "acName": "ATER",
    "partNumber": 256,
    "partName": "SAMANNA",
    "lat": 26.3518828,
    "lon": 78.68631887730044
  },
  {
    "partId": 35395,
    "stateCode": "S12",
    "stateName": "Madhya Pradesh",
    "districtCode": "S1203",
    "districtName": "BHIND",
    "acNumber": 9,
    "acName": "ATER",
    "partNumber": 257,
    "partName": "SAPAD",
    "lat": 26.74772295,
    "lon": 78.63842107115968
  },
  {
    "partId": 2316,
    "stateCode": "S12",
    "stateName": "Madhya Pradesh",
    "districtCode": "S1203",
    "districtName": "BHIND",
    "acNumber": 9,
    "acName": "ATER",
    "partNumber": 258,
    "partName": "GYANPURA NO.1",
    "lat": 25.97139745,
    "lon": 78.92384894974883
  },
  {
    "partId": 35396,
    "stateCode": "S12",
    "stateName": "Madhya Pradesh",
    "districtCode": "S1203",
    "districtName": "BHIND",
    "acNumber": 9,
    "acName": "ATER",
    "partNumber": 259,
    "partName": "GYANPURA NO.2",
    "lat": 25.97139745,
    "lon": 78.92384894974883
  },
  {
    "partId": 35397,
    "stateCode": "S12",
    "stateName": "Madhya Pradesh",
    "districtCode": "S1203",
    "districtName": "BHIND",
    "acNumber": 9,
    "acName": "ATER",
    "partNumber": 260,
    "partName": "SARAYA",
    "lat": 26.654111999999998,
    "lon": 78.99451641710066
  },
  {
    "partId": 35398,
    "stateCode": "S12",
    "stateName": "Madhya Pradesh",
    "districtCode": "S1203",
    "districtName": "BHIND",
    "acNumber": 9,
    "acName": "ATER",
    "partNumber": 261,
    "partName": "SANKAREE NO.1",
    "lat": 26.74772295,
    "lon": 78.63842107115968
  },
  {
    "partId": 2335,
    "stateCode": "S12",
    "stateName": "Madhya Pradesh",
    "districtCode": "S1203",
    "districtName": "BHIND",
    "acNumber": 9,
    "acName": "ATER",
    "partNumber": 262,
    "partName": "SANKAREE NO.2",
    "lat": 26.74772295,
    "lon": 78.63842107115968
  },
  {
    "partId": 35399,
    "stateCode": "S12",
    "stateName": "Madhya Pradesh",
    "districtCode": "S1203",
    "districtName": "BHIND",
    "acNumber": 9,
    "acName": "ATER",
    "partNumber": 263,
    "partName": "KACHHUEE",
    "lat": 26.74772295,
    "lon": 78.63842107115968
  },
  {
    "partId": 35400,
    "stateCode": "S12",
    "stateName": "Madhya Pradesh",
    "districtCode": "S1203",
    "districtName": "BHIND",
    "acNumber": 9,
    "acName": "ATER",
    "partNumber": 264,
    "partName": "VINDAVA",
    "lat": 26.74772295,
    "lon": 78.63842107115968
  },
  {
    "partId": 35401,
    "stateCode": "S12",
    "stateName": "Madhya Pradesh",
    "districtCode": "S1203",
    "districtName": "BHIND",
    "acNumber": 9,
    "acName": "ATER",
    "partNumber": 265,
    "partName": "CHHOONCHHARI",
    "lat": 26.74772295,
    "lon": 78.63842107115968
  },
  {
    "partId": 35402,
    "stateCode": "S12",
    "stateName": "Madhya Pradesh",
    "districtCode": "S1203",
    "districtName": "BHIND",
    "acNumber": 9,
    "acName": "ATER",
    "partNumber": 266,
    "partName": "BHOUNPURA NO.1",
    "lat": 26.74772295,
    "lon": 78.63842107115968
  },
  {
    "partId": 35403,
    "stateCode": "S12",
    "stateName": "Madhya Pradesh",
    "districtCode": "S1203",
    "districtName": "BHIND",
    "acNumber": 9,
    "acName": "ATER",
    "partNumber": 267,
    "partName": "BHOUNPURA NO.2",
    "lat": 26.74772295,
    "lon": 78.63842107115968
  },
  {
    "partId": 46324,
    "stateCode": "S12",
    "stateName": "Madhya Pradesh",
    "districtCode": "S1203",
    "districtName": "BHIND",
    "acNumber": 9,
    "acName": "ATER",
    "partNumber": 268,
    "partName": "BHOUNPURA NO.3",
    "lat": 26.74772295,
    "lon": 78.63842107115968
  },
  {
    "partId": 2287,
    "stateCode": "S12",
    "stateName": "Madhya Pradesh",
    "districtCode": "S1203",
    "districtName": "BHIND",
    "acNumber": 9,
    "acName": "ATER",
    "partNumber": 269,
    "partName": "SAPHEDPURA",
    "lat": 26.6577667,
    "lon": 78.9186895
  },
  {
    "partId": 2288,
    "stateCode": "S12",
    "stateName": "Madhya Pradesh",
    "districtCode": "S1203",
    "districtName": "BHIND",
    "acNumber": 9,
    "acName": "ATER",
    "partNumber": 270,
    "partName": "NAHARA",
    "lat": 26.3518828,
    "lon": 78.68631887730044
  },
  {
    "partId": 2289,
    "stateCode": "S12",
    "stateName": "Madhya Pradesh",
    "districtCode": "S1203",
    "districtName": "BHIND",
    "acNumber": 9,
    "acName": "ATER",
    "partNumber": 271,
    "partName": "SYODA NO.1",
    "lat": 26.3518828,
    "lon": 78.68631887730044
  },
  {
    "partId": 2290,
    "stateCode": "S12",
    "stateName": "Madhya Pradesh",
    "districtCode": "S1203",
    "districtName": "BHIND",
    "acNumber": 9,
    "acName": "ATER",
    "partNumber": 272,
    "partName": "SYODA NO.2",
    "lat": 26.74772295,
    "lon": 78.63842107115968
  },
  {
    "partId": 2291,
    "stateCode": "S12",
    "stateName": "Madhya Pradesh",
    "districtCode": "S1203",
    "districtName": "BHIND",
    "acNumber": 9,
    "acName": "ATER",
    "partNumber": 273,
    "partName": "SYODA NO.3",
    "lat": 26.74772295,
    "lon": 78.63842107115968
  },
  {
    "partId": 2334,
    "stateCode": "S12",
    "stateName": "Madhya Pradesh",
    "districtCode": "S1203",
    "districtName": "BHIND",
    "acNumber": 9,
    "acName": "ATER",
    "partNumber": 274,
    "partName": "SYODA N0.4",
    "lat": 26.74772295,
    "lon": 78.63842107115968
  },
  {
    "partId": 2317,
    "stateCode": "S12",
    "stateName": "Madhya Pradesh",
    "districtCode": "S1203",
    "districtName": "BHIND",
    "acNumber": 9,
    "acName": "ATER",
    "partNumber": 275,
    "partName": "SYODA N0.5",
    "lat": 26.74772295,
    "lon": 78.63842107115968
  },
  {
    "partId": 2333,
    "stateCode": "S12",
    "stateName": "Madhya Pradesh",
    "districtCode": "S1203",
    "districtName": "BHIND",
    "acNumber": 9,
    "acName": "ATER",
    "partNumber": 276,
    "partName": "SYODA N0.6",
    "lat": 26.74772295,
    "lon": 78.63842107115968
  },
  {
    "partId": 2292,
    "stateCode": "S12",
    "stateName": "Madhya Pradesh",
    "districtCode": "S1203",
    "districtName": "BHIND",
    "acNumber": 9,
    "acName": "ATER",
    "partNumber": 277,
    "partName": "SEENGPURA NO.1",
    "lat": 26.74772295,
    "lon": 78.63842107115968
  },
  {
    "partId": 46323,
    "stateCode": "S12",
    "stateName": "Madhya Pradesh",
    "districtCode": "S1203",
    "districtName": "BHIND",
    "acNumber": 9,
    "acName": "ATER",
    "partNumber": 278,
    "partName": "SEENGPURA NO.2",
    "lat": 26.74772295,
    "lon": 78.63842107115968
  },
  {
    "partId": 2293,
    "stateCode": "S12",
    "stateName": "Madhya Pradesh",
    "districtCode": "S1203",
    "districtName": "BHIND",
    "acNumber": 9,
    "acName": "ATER",
    "partNumber": 279,
    "partName": "MEESA",
    "lat": 26.74772295,
    "lon": 78.63842107115968
  },
  {
    "partId": 2294,
    "stateCode": "S12",
    "stateName": "Madhya Pradesh",
    "districtCode": "S1203",
    "districtName": "BHIND",
    "acNumber": 9,
    "acName": "ATER",
    "partNumber": 280,
    "partName": "PEELA DANDA",
    "lat": 26.74772295,
    "lon": 78.63842107115968
  },
  {
    "partId": 2295,
    "stateCode": "S12",
    "stateName": "Madhya Pradesh",
    "districtCode": "S1203",
    "districtName": "BHIND",
    "acNumber": 9,
    "acName": "ATER",
    "partNumber": 281,
    "partName": "KANAVAR NO.1",
    "lat": 26.3518828,
    "lon": 78.68631887730044
  },
  {
    "partId": 2296,
    "stateCode": "S12",
    "stateName": "Madhya Pradesh",
    "districtCode": "S1203",
    "districtName": "BHIND",
    "acNumber": 9,
    "acName": "ATER",
    "partNumber": 282,
    "partName": "KANAVAR NO.2",
    "lat": 26.74772295,
    "lon": 78.63842107115968
  },
  {
    "partId": 2297,
    "stateCode": "S12",
    "stateName": "Madhya Pradesh",
    "districtCode": "S1203",
    "districtName": "BHIND",
    "acNumber": 9,
    "acName": "ATER",
    "partNumber": 283,
    "partName": "KANAVAR NO.3",
    "lat": 26.74772295,
    "lon": 78.63842107115968
  },
  {
    "partId": 2298,
    "stateCode": "S12",
    "stateName": "Madhya Pradesh",
    "districtCode": "S1203",
    "districtName": "BHIND",
    "acNumber": 9,
    "acName": "ATER",
    "partNumber": 284,
    "partName": "KANAVAR NO.4",
    "lat": 26.74772295,
    "lon": 78.63842107115968
  },
  {
    "partId": 2332,
    "stateCode": "S12",
    "stateName": "Madhya Pradesh",
    "districtCode": "S1203",
    "districtName": "BHIND",
    "acNumber": 9,
    "acName": "ATER",
    "partNumber": 285,
    "partName": "KANAVAR NO.5",
    "lat": 26.74772295,
    "lon": 78.63842107115968
  },
  {
    "partId": 2299,
    "stateCode": "S12",
    "stateName": "Madhya Pradesh",
    "districtCode": "S1203",
    "districtName": "BHIND",
    "acNumber": 9,
    "acName": "ATER",
    "partNumber": 286,
    "partName": "KANAVAR NO.6",
    "lat": 26.74772295,
    "lon": 78.63842107115968
  },
  {
    "partId": 46322,
    "stateCode": "S12",
    "stateName": "Madhya Pradesh",
    "districtCode": "S1203",
    "districtName": "BHIND",
    "acNumber": 9,
    "acName": "ATER",
    "partNumber": 287,
    "partName": "KANAVAR NO.7",
    "lat": 26.74772295,
    "lon": 78.63842107115968
  },
  {
    "partId": 2300,
    "stateCode": "S12",
    "stateName": "Madhya Pradesh",
    "districtCode": "S1203",
    "districtName": "BHIND",
    "acNumber": 9,
    "acName": "ATER",
    "partNumber": 288,
    "partName": "KANAVAR NO.8",
    "lat": 26.74772295,
    "lon": 78.63842107115968
  },
  {
    "partId": 48754,
    "stateCode": "S12",
    "stateName": "Madhya Pradesh",
    "districtCode": "S1203",
    "districtName": "BHIND",
    "acNumber": 10,
    "acName": "BHIND",
    "partNumber": 1,
    "partName": "ATARASUMA",
    "lat": 26.5,
    "lon": 78.75
  },
  {
    "partId": 48755,
    "stateCode": "S12",
    "stateName": "Madhya Pradesh",
    "districtCode": "S1203",
    "districtName": "BHIND",
    "acNumber": 10,
    "acName": "BHIND",
    "partNumber": 2,
    "partName": "JAMPURA NO.1",
    "lat": 26.3518828,
    "lon": 78.68631887730044
  },
  {
    "partId": 28133,
    "stateCode": "S12",
    "stateName": "Madhya Pradesh",
    "districtCode": "S1203",
    "districtName": "BHIND",
    "acNumber": 10,
    "acName": "BHIND",
    "partNumber": 3,
    "partName": "JAMPURA NO.2",
    "lat": 26.6181406,
    "lon": 78.8063371
  },
  {
    "partId": 48756,
    "stateCode": "S12",
    "stateName": "Madhya Pradesh",
    "districtCode": "S1203",
    "districtName": "BHIND",
    "acNumber": 10,
    "acName": "BHIND",
    "partNumber": 4,
    "partName": "KALYANPURA",
    "lat": 26.5878654,
    "lon": 78.7109349905222
  },
  {
    "partId": 48762,
    "stateCode": "S12",
    "stateName": "Madhya Pradesh",
    "districtCode": "S1203",
    "districtName": "BHIND",
    "acNumber": 10,
    "acName": "BHIND",
    "partNumber": 5,
    "partName": "RACHHEDI",
    "lat": 26.600078,
    "lon": 78.8657749
  },
  {
    "partId": 48763,
    "stateCode": "S12",
    "stateName": "Madhya Pradesh",
    "districtCode": "S1203",
    "districtName": "BHIND",
    "acNumber": 10,
    "acName": "BHIND",
    "partNumber": 6,
    "partName": "VILHORA 1",
    "lat": 26.3518828,
    "lon": 78.68631887730044
  },
  {
    "partId": 2463,
    "stateCode": "S12",
    "stateName": "Madhya Pradesh",
    "districtCode": "S1203",
    "districtName": "BHIND",
    "acNumber": 10,
    "acName": "BHIND",
    "partNumber": 7,
    "partName": "VILHORA 2",
    "lat": 26.5,
    "lon": 78.75
  },
  {
    "partId": 55926,
    "stateCode": "S12",
    "stateName": "Madhya Pradesh",
    "districtCode": "S1203",
    "districtName": "BHIND",
    "acNumber": 10,
    "acName": "BHIND",
    "partNumber": 8,
    "partName": "KACHONGARA NO. 1",
    "lat": 26.3518828,
    "lon": 78.68631887730044
  },
  {
    "partId": 55927,
    "stateCode": "S12",
    "stateName": "Madhya Pradesh",
    "districtCode": "S1203",
    "districtName": "BHIND",
    "acNumber": 10,
    "acName": "BHIND",
    "partNumber": 9,
    "partName": "KACHONGARA NO. 2",
    "lat": 26.5,
    "lon": 78.75
  },
  {
    "partId": 48753,
    "stateCode": "S12",
    "stateName": "Madhya Pradesh",
    "districtCode": "S1203",
    "districtName": "BHIND",
    "acNumber": 10,
    "acName": "BHIND",
    "partNumber": 10,
    "partName": "KACHONGARA NO.",
    "lat": 26.5,
    "lon": 78.75
  },
  {
    "partId": 28134,
    "stateCode": "S12",
    "stateName": "Madhya Pradesh",
    "districtCode": "S1203",
    "districtName": "BHIND",
    "acNumber": 10,
    "acName": "BHIND",
    "partNumber": 11,
    "partName": "KACHONGARA NO. 4",
    "lat": 26.5,
    "lon": 78.75
  },
  {
    "partId": 55928,
    "stateCode": "S12",
    "stateName": "Madhya Pradesh",
    "districtCode": "S1203",
    "districtName": "BHIND",
    "acNumber": 10,
    "acName": "BHIND",
    "partNumber": 12,
    "partName": "KACHONGARA NO. 5",
    "lat": 26.5,
    "lon": 78.75
  },
  {
    "partId": 55929,
    "stateCode": "S12",
    "stateName": "Madhya Pradesh",
    "districtCode": "S1203",
    "districtName": "BHIND",
    "acNumber": 10,
    "acName": "BHIND",
    "partNumber": 13,
    "partName": "PARASONA NO.1",
    "lat": 26.5,
    "lon": 78.75
  },
  {
    "partId": 2385,
    "stateCode": "S12",
    "stateName": "Madhya Pradesh",
    "districtCode": "S1203",
    "districtName": "BHIND",
    "acNumber": 10,
    "acName": "BHIND",
    "partNumber": 14,
    "partName": "PARASONA NO.2",
    "lat": 26.3518828,
    "lon": 78.68631887730044
  },
  {
    "partId": 55930,
    "stateCode": "S12",
    "stateName": "Madhya Pradesh",
    "districtCode": "S1203",
    "districtName": "BHIND",
    "acNumber": 10,
    "acName": "BHIND",
    "partNumber": 15,
    "partName": "AKODA NO.1",
    "lat": 26.5,
    "lon": 78.75
  },
  {
    "partId": 2384,
    "stateCode": "S12",
    "stateName": "Madhya Pradesh",
    "districtCode": "S1203",
    "districtName": "BHIND",
    "acNumber": 10,
    "acName": "BHIND",
    "partNumber": 16,
    "partName": "AKODA NO.2",
    "lat": 26.5,
    "lon": 78.75
  },
  {
    "partId": 55931,
    "stateCode": "S12",
    "stateName": "Madhya Pradesh",
    "districtCode": "S1203",
    "districtName": "BHIND",
    "acNumber": 10,
    "acName": "BHIND",
    "partNumber": 17,
    "partName": "AKODA NO. 3",
    "lat": 26.5,
    "lon": 78.75
  },
  {
    "partId": 2462,
    "stateCode": "S12",
    "stateName": "Madhya Pradesh",
    "districtCode": "S1203",
    "districtName": "BHIND",
    "acNumber": 10,
    "acName": "BHIND",
    "partNumber": 18,
    "partName": "AKODA NO. 4",
    "lat": 26.3518828,
    "lon": 78.68631887730044
  },
  {
    "partId": 55932,
    "stateCode": "S12",
    "stateName": "Madhya Pradesh",
    "districtCode": "S1203",
    "districtName": "BHIND",
    "acNumber": 10,
    "acName": "BHIND",
    "partNumber": 19,
    "partName": "AKODA NO.5",
    "lat": 26.5,
    "lon": 78.75
  },
  {
    "partId": 2461,
    "stateCode": "S12",
    "stateName": "Madhya Pradesh",
    "districtCode": "S1203",
    "districtName": "BHIND",
    "acNumber": 10,
    "acName": "BHIND",
    "partNumber": 20,
    "partName": "AKODA NO.6",
    "lat": 26.5,
    "lon": 78.75
  },
  {
    "partId": 55933,
    "stateCode": "S12",
    "stateName": "Madhya Pradesh",
    "districtCode": "S1203",
    "districtName": "BHIND",
    "acNumber": 10,
    "acName": "BHIND",
    "partNumber": 21,
    "partName": "AKODA NO.7",
    "lat": 26.5,
    "lon": 78.75
  },
  {
    "partId": 55934,
    "stateCode": "S12",
    "stateName": "Madhya Pradesh",
    "districtCode": "S1203",
    "districtName": "BHIND",
    "acNumber": 10,
    "acName": "BHIND",
    "partNumber": 22,
    "partName": "AKODA NO.8",
    "lat": 26.3518828,
    "lon": 78.68631887730044
  },
  {
    "partId": 55935,
    "stateCode": "S12",
    "stateName": "Madhya Pradesh",
    "districtCode": "S1203",
    "districtName": "BHIND",
    "acNumber": 10,
    "acName": "BHIND",
    "partNumber": 23,
    "partName": "AKODA NO. 9",
    "lat": 26.5,
    "lon": 78.75
  },
  {
    "partId": 2383,
    "stateCode": "S12",
    "stateName": "Madhya Pradesh",
    "districtCode": "S1203",
    "districtName": "BHIND",
    "acNumber": 10,
    "acName": "BHIND",
    "partNumber": 24,
    "partName": "AKODA NO.10",
    "lat": 26.5,
    "lon": 78.75
  },
  {
    "partId": 55936,
    "stateCode": "S12",
    "stateName": "Madhya Pradesh",
    "districtCode": "S1203",
    "districtName": "BHIND",
    "acNumber": 10,
    "acName": "BHIND",
    "partNumber": 25,
    "partName": "BARAKALAN NO. 1",
    "lat": 26.5331745,
    "lon": 78.8556146
  },
  {
    "partId": 2460,
    "stateCode": "S12",
    "stateName": "Madhya Pradesh",
    "districtCode": "S1203",
    "districtName": "BHIND",
    "acNumber": 10,
    "acName": "BHIND",
    "partNumber": 26,
    "partName": "BARAKALAN NO. 2",
    "lat": 26.5331745,
    "lon": 78.8556146
  },
  {
    "partId": 55937,
    "stateCode": "S12",
    "stateName": "Madhya Pradesh",
    "districtCode": "S1203",
    "districtName": "BHIND",
    "acNumber": 10,
    "acName": "BHIND",
    "partNumber": 27,
    "partName": "BARAKALAN NO.3",
    "lat": 26.5,
    "lon": 78.75
  },
  {
    "partId": 55938,
    "stateCode": "S12",
    "stateName": "Madhya Pradesh",
    "districtCode": "S1203",
    "districtName": "BHIND",
    "acNumber": 10,
    "acName": "BHIND",
    "partNumber": 28,
    "partName": "JAMNA NO.1",
    "lat": 26.541418,
    "lon": 78.81994573880061
  },
  {
    "partId": 55939,
    "stateCode": "S12",
    "stateName": "Madhya Pradesh",
    "districtCode": "S1203",
    "districtName": "BHIND",
    "acNumber": 10,
    "acName": "BHIND",
    "partNumber": 29,
    "partName": "JAMNA NO.2",
    "lat": 26.3518828,
    "lon": 78.68631887730044
  },
  {
    "partId": 55940,
    "stateCode": "S12",
    "stateName": "Madhya Pradesh",
    "districtCode": "S1203",
    "districtName": "BHIND",
    "acNumber": 10,
    "acName": "BHIND",
    "partNumber": 30,
    "partName": "MANPURA NO.1",
    "lat": 26.3518828,
    "lon": 78.68631887730044
  },
  {
    "partId": 2459,
    "stateCode": "S12",
    "stateName": "Madhya Pradesh",
    "districtCode": "S1203",
    "districtName": "BHIND",
    "acNumber": 10,
    "acName": "BHIND",
    "partNumber": 31,
    "partName": "MANPURA NO.2",
    "lat": 26.5574478,
    "lon": 78.81866967377721
  },
  {
    "partId": 28135,
    "stateCode": "S12",
    "stateName": "Madhya Pradesh",
    "districtCode": "S1203",
    "districtName": "BHIND",
    "acNumber": 10,
    "acName": "BHIND",
    "partNumber": 32,
    "partName": "CHARATHAR NO. 1",
    "lat": 26.5,
    "lon": 78.75
  },
  {
    "partId": 53170,
    "stateCode": "S12",
    "stateName": "Madhya Pradesh",
    "districtCode": "S1203",
    "districtName": "BHIND",
    "acNumber": 10,
    "acName": "BHIND",
    "partNumber": 33,
    "partName": "CHARATHAR NO. 2",
    "lat": 26.3518828,
    "lon": 78.68631887730044
  },
  {
    "partId": 55941,
    "stateCode": "S12",
    "stateName": "Madhya Pradesh",
    "districtCode": "S1203",
    "districtName": "BHIND",
    "acNumber": 10,
    "acName": "BHIND",
    "partNumber": 34,
    "partName": "CHARATHAR NO.3",
    "lat": 26.5,
    "lon": 78.75
  },
  {
    "partId": 55942,
    "stateCode": "S12",
    "stateName": "Madhya Pradesh",
    "districtCode": "S1203",
    "districtName": "BHIND",
    "acNumber": 10,
    "acName": "BHIND",
    "partNumber": 35,
    "partName": "RATANUPURA",
    "lat": 26.729819050000003,
    "lon": 78.71671103126369
  },
  {
    "partId": 55943,
    "stateCode": "S12",
    "stateName": "Madhya Pradesh",
    "districtCode": "S1203",
    "districtName": "BHIND",
    "acNumber": 10,
    "acName": "BHIND",
    "partNumber": 36,
    "partName": "BHIND",
    "lat": 26.5,
    "lon": 78.75
  },
  {
    "partId": 55944,
    "stateCode": "S12",
    "stateName": "Madhya Pradesh",
    "districtCode": "S1203",
    "districtName": "BHIND",
    "acNumber": 10,
    "acName": "BHIND",
    "partNumber": 37,
    "partName": "BHIND",
    "lat": 26.5,
    "lon": 78.75
  },
  {
    "partId": 55945,
    "stateCode": "S12",
    "stateName": "Madhya Pradesh",
    "districtCode": "S1203",
    "districtName": "BHIND",
    "acNumber": 10,
    "acName": "BHIND",
    "partNumber": 38,
    "partName": "BHIND",
    "lat": 26.5,
    "lon": 78.75
  },
  {
    "partId": 55946,
    "stateCode": "S12",
    "stateName": "Madhya Pradesh",
    "districtCode": "S1203",
    "districtName": "BHIND",
    "acNumber": 10,
    "acName": "BHIND",
    "partNumber": 39,
    "partName": "BHIND",
    "lat": 26.5,
    "lon": 78.75
  },
  {
    "partId": 53133,
    "stateCode": "S12",
    "stateName": "Madhya Pradesh",
    "districtCode": "S1203",
    "districtName": "BHIND",
    "acNumber": 10,
    "acName": "BHIND",
    "partNumber": 40,
    "partName": "BHIND",
    "lat": 26.5,
    "lon": 78.75
  },
  {
    "partId": 55947,
    "stateCode": "S12",
    "stateName": "Madhya Pradesh",
    "districtCode": "S1203",
    "districtName": "BHIND",
    "acNumber": 10,
    "acName": "BHIND",
    "partNumber": 41,
    "partName": "BHIND",
    "lat": 26.5,
    "lon": 78.75
  },
  {
    "partId": 55948,
    "stateCode": "S12",
    "stateName": "Madhya Pradesh",
    "districtCode": "S1203",
    "districtName": "BHIND",
    "acNumber": 10,
    "acName": "BHIND",
    "partNumber": 42,
    "partName": "BHIND",
    "lat": 26.5,
    "lon": 78.75
  },
  {
    "partId": 2382,
    "stateCode": "S12",
    "stateName": "Madhya Pradesh",
    "districtCode": "S1203",
    "districtName": "BHIND",
    "acNumber": 10,
    "acName": "BHIND",
    "partNumber": 43,
    "partName": "BHIND",
    "lat": 26.5,
    "lon": 78.75
  },
  {
    "partId": 55949,
    "stateCode": "S12",
    "stateName": "Madhya Pradesh",
    "districtCode": "S1203",
    "districtName": "BHIND",
    "acNumber": 10,
    "acName": "BHIND",
    "partNumber": 44,
    "partName": "BHIND",
    "lat": 26.5,
    "lon": 78.75
  },
  {
    "partId": 55950,
    "stateCode": "S12",
    "stateName": "Madhya Pradesh",
    "districtCode": "S1203",
    "districtName": "BHIND",
    "acNumber": 10,
    "acName": "BHIND",
    "partNumber": 45,
    "partName": "BHIND",
    "lat": 26.5,
    "lon": 78.75
  },
  {
    "partId": 53132,
    "stateCode": "S12",
    "stateName": "Madhya Pradesh",
    "districtCode": "S1203",
    "districtName": "BHIND",
    "acNumber": 10,
    "acName": "BHIND",
    "partNumber": 46,
    "partName": "BHIND",
    "lat": 26.5,
    "lon": 78.75
  },
  {
    "partId": 28136,
    "stateCode": "S12",
    "stateName": "Madhya Pradesh",
    "districtCode": "S1203",
    "districtName": "BHIND",
    "acNumber": 10,
    "acName": "BHIND",
    "partNumber": 47,
    "partName": "BHIND",
    "lat": 26.5,
    "lon": 78.75
  },
  {
    "partId": 2381,
    "stateCode": "S12",
    "stateName": "Madhya Pradesh",
    "districtCode": "S1203",
    "districtName": "BHIND",
    "acNumber": 10,
    "acName": "BHIND",
    "partNumber": 48,
    "partName": "BHIND",
    "lat": 26.5,
    "lon": 78.75
  },
  {
    "partId": 55951,
    "stateCode": "S12",
    "stateName": "Madhya Pradesh",
    "districtCode": "S1203",
    "districtName": "BHIND",
    "acNumber": 10,
    "acName": "BHIND",
    "partNumber": 49,
    "partName": "BHIND",
    "lat": 26.5,
    "lon": 78.75
  },
  {
    "partId": 55952,
    "stateCode": "S12",
    "stateName": "Madhya Pradesh",
    "districtCode": "S1203",
    "districtName": "BHIND",
    "acNumber": 10,
    "acName": "BHIND",
    "partNumber": 50,
    "partName": "BHIND",
    "lat": 26.5,
    "lon": 78.75
  },
  {
    "partId": 55953,
    "stateCode": "S12",
    "stateName": "Madhya Pradesh",
    "districtCode": "S1203",
    "districtName": "BHIND",
    "acNumber": 10,
    "acName": "BHIND",
    "partNumber": 51,
    "partName": "BHIND",
    "lat": 26.5,
    "lon": 78.75
  },
  {
    "partId": 55954,
    "stateCode": "S12",
    "stateName": "Madhya Pradesh",
    "districtCode": "S1203",
    "districtName": "BHIND",
    "acNumber": 10,
    "acName": "BHIND",
    "partNumber": 52,
    "partName": "BHIND",
    "lat": 26.5,
    "lon": 78.75
  },
  {
    "partId": 55955,
    "stateCode": "S12",
    "stateName": "Madhya Pradesh",
    "districtCode": "S1203",
    "districtName": "BHIND",
    "acNumber": 10,
    "acName": "BHIND",
    "partNumber": 53,
    "partName": "BHIND",
    "lat": 26.5,
    "lon": 78.75
  },
  {
    "partId": 55956,
    "stateCode": "S12",
    "stateName": "Madhya Pradesh",
    "districtCode": "S1203",
    "districtName": "BHIND",
    "acNumber": 10,
    "acName": "BHIND",
    "partNumber": 54,
    "partName": "BHIND",
    "lat": 26.5,
    "lon": 78.75
  },