[
  {
    "partId": 101469,
    "stateCode": "S12",
    "stateName": "Madhya Pradesh",
    "districtCode": "S1228",
    "districtName": "CHHINDWARA",
    "acNumber": 123,
    "acName": "AMARWARA",
    "partNumber": 1,
    "partName": "PALANIGAILADUBVA",
    "lat": 22.5300516,
    "lon": 79.05764514865771
  },
  {
    "partId": 100540,
    "stateCode": "S12",
    "stateName": "Madhya Pradesh",
    "districtCode": "S1228",
    "districtName": "CHHINDWARA",
    "acNumber": 123,
    "acName": "AMARWARA",
    "partNumber": 2,
    "partName": "GHATALINGA",
    "lat": 22.5300516,
    "lon": 79.05764514865771
  },
  {
    "partId": 101470,
    "stateCode": "S12",
    "stateName": "Madhya Pradesh",
    "districtCode": "S1228",
    "districtName": "CHHINDWARA",
    "acNumber": 123,
    "acName": "AMARWARA",
    "partNumber": 3,
    "partName": "BHODIYAPANI",
    "lat": 22.5300516,
    "lon": 79.05764514865771
  },
  {
    "partId": 101471,
    "stateCode": "S12",
    "stateName": "Madhya Pradesh",
    "districtCode": "S1228",
    "districtName": "CHHINDWARA",
    "acNumber": 123,
    "acName": "AMARWARA",
    "partNumber": 4,
    "partName": "BAKHARI",
    "lat": 22.3627725,
    "lon": 78.68527536337734
  },
  {
    "partId": 100532,
    "stateCode": "S12",
    "stateName": "Madhya Pradesh",
    "districtCode": "S1228",
    "districtName": "CHHINDWARA",
    "acNumber": 123,
    "acName": "AMARWARA",
    "partNumber": 5,
    "partName": "BIJORI",
    "lat": 22.1392254,
    "lon": 78.74812831616667
  },
  {
    "partId": 100533,
    "stateCode": "S12",
    "stateName": "Madhya Pradesh",
    "districtCode": "S1228",
    "districtName": "CHHINDWARA",
    "acNumber": 123,
    "acName": "AMARWARA",
    "partNumber": 6,
    "partName": "PANDU PIPARIYA",
    "lat": 22.5300516,
    "lon": 79.05764514865771
  },
  {
    "partId": 101398,
    "stateCode": "S12",
    "stateName": "Madhya Pradesh",
    "districtCode": "S1228",
    "districtName": "CHHINDWARA",
    "acNumber": 123,
    "acName": "AMARWARA",
    "partNumber": 7,
    "partName": "KHADUA",
    "lat": 22.5300516,
    "lon": 79.05764514865771
  },
  {
    "partId": 100534,
    "stateCode": "S12",
    "stateName": "Madhya Pradesh",
    "districtCode": "S1228",
    "districtName": "CHHINDWARA",
    "acNumber": 123,
    "acName": "AMARWARA",
    "partNumber": 8,
    "partName": "DHULANIYA",
    "lat": 22.5300516,
    "lon": 79.05764514865771
  },
  {
    "partId": 100535,
    "stateCode": "S12",
    "stateName": "Madhya Pradesh",
    "districtCode": "S1228",
    "districtName": "CHHINDWARA",
    "acNumber": 123,
    "acName": "AMARWARA",
    "partNumber": 9,
    "partName": "LINGA",
    "lat": 22.32709035,
    "lon": 78.75524692946131
  },
  {
    "partId": 100536,
    "stateCode": "S12",
    "stateName": "Madhya Pradesh",
    "districtCode": "S1228",
    "districtName": "CHHINDWARA",
    "acNumber": 123,
    "acName": "AMARWARA",
    "partNumber": 10,
    "partName": "JAITPUR",
    "lat": 22.3620344,
    "lon": 78.75017030441747
  },
  {
    "partId": 100537,
    "stateCode": "S12",
    "stateName": "Madhya Pradesh",
    "districtCode": "S1228",
    "districtName": "CHHINDWARA",
    "acNumber": 123,
    "acName": "AMARWARA",
    "partNumber": 11,
    "partName": "BANKI",
    "lat": 22.31052705,
    "lon": 79.02052575360781
  },
  {
    "partId": 101358,
    "stateCode": "S12",
    "stateName": "Madhya Pradesh",
    "districtCode": "S1228",
    "districtName": "CHHINDWARA",
    "acNumber": 123,
    "acName": "AMARWARA",
    "partNumber": 12,
    "partName": "MUARAKALA",
    "lat": 22.5300516,
    "lon": 79.05764514865771
  },
  {
    "partId": 101492,
    "stateCode": "S12",
    "stateName": "Madhya Pradesh",
    "districtCode": "S1228",
    "districtName": "CHHINDWARA",
    "acNumber": 123,
    "acName": "AMARWARA",
    "partNumber": 13,
    "partName": "JOGEEMUAR",
    "lat": 22.5300516,
    "lon": 79.05764514865771
  },
  {
    "partId": 101359,
    "stateCode": "S12",
    "stateName": "Madhya Pradesh",
    "districtCode": "S1228",
    "districtName": "CHHINDWARA",
    "acNumber": 123,
    "acName": "AMARWARA",
    "partNumber": 14,
    "partName": "GHATAMALI",
    "lat": 22.350241150000002,
    "lon": 78.82478741043988
  },
  {
    "partId": 101360,
    "stateCode": "S12",
    "stateName": "Madhya Pradesh",
    "districtCode": "S1228",
    "districtName": "CHHINDWARA",
    "acNumber": 123,
    "acName": "AMARWARA",
    "partNumber": 15,
    "partName": "MORDHANA",
    "lat": 22.34803495,
    "lon": 78.8441230022334
  },
  {
    "partId": 101361,
    "stateCode": "S12",
    "stateName": "Madhya Pradesh",
    "districtCode": "S1228",
    "districtName": "CHHINDWARA",
    "acNumber": 123,
    "acName": "AMARWARA",
    "partNumber": 16,
    "partName": "CHOPANA",
    "lat": 22.36905945,
    "lon": 78.8994100635478
  },
  {
    "partId": 101451,
    "stateCode": "S12",
    "stateName": "Madhya Pradesh",
    "districtCode": "S1228",
    "districtName": "CHHINDWARA",
    "acNumber": 123,
    "acName": "AMARWARA",
    "partNumber": 17,
    "partName": "MANKADEVRI",
    "lat": 22.5300516,
    "lon": 79.05764514865771
  },
  {
    "partId": 101362,
    "stateCode": "S12",
    "stateName": "Madhya Pradesh",
    "districtCode": "S1228",
    "districtName": "CHHINDWARA",
    "acNumber": 123,
    "acName": "AMARWARA",
    "partNumber": 18,
    "partName": "KHULASAN",
    "lat": 22.5300516,
    "lon": 79.05764514865771
  },
  {
    "partId": 101450,
    "stateCode": "S12",
    "stateName": "Madhya Pradesh",
    "districtCode": "S1228",
    "districtName": "CHHINDWARA",
    "acNumber": 123,
    "acName": "AMARWARA",
    "partNumber": 19,
    "partName": "KHULASAN",
    "lat": 22.5300516,
    "lon": 79.05764514865771
  },
  {
    "partId": 101363,
    "stateCode": "S12",
    "stateName": "Madhya Pradesh",
    "districtCode": "S1228",
    "districtName": "CHHINDWARA",
    "acNumber": 123,
    "acName": "AMARWARA",
    "partNumber": 20,
    "partName": "HIRRIPATHAR",
    "lat": 22.5300516,
    "lon": 79.05764514865771
  },
  {
    "partId": 101364,
    "stateCode": "S12",
    "stateName": "Madhya Pradesh",
    "districtCode": "S1228",
    "districtName": "CHHINDWARA",
    "acNumber": 123,
    "acName": "AMARWARA",
    "partNumber": 21,
    "partName": "KHIRETI MAL",
    "lat": 22.5300516,
    "lon": 79.05764514865771
  },
  {
    "partId": 101449,
    "stateCode": "S12",
    "stateName": "Madhya Pradesh",
    "districtCode": "S1228",
    "districtName": "CHHINDWARA",
    "acNumber": 123,
    "acName": "AMARWARA",
    "partNumber": 22,
    "partName": "BHAISMUNDA",
    "lat": 22.5300516,
    "lon": 79.05764514865771
  },
  {
    "partId": 101534,
    "stateCode": "S12",
    "stateName": "Madhya Pradesh",
    "districtCode": "S1228",
    "districtName": "CHHINDWARA",
    "acNumber": 123,
    "acName": "AMARWARA",
    "partNumber": 23,
    "partName": "LAKDA",
    "lat": 22.5300516,
    "lon": 79.05764514865771
  },
  {
    "partId": 101365,
    "stateCode": "S12",
    "stateName": "Madhya Pradesh",
    "districtCode": "S1228",
    "districtName": "CHHINDWARA",
    "acNumber": 123,
    "acName": "AMARWARA",
    "partNumber": 24,
    "partName": "CHORADONGARI",
    "lat": 22.5300516,
    "lon": 79.05764514865771
  },
  {
    "partId": 100551,
    "stateCode": "S12",
    "stateName": "Madhya Pradesh",
    "districtCode": "S1228",
    "districtName": "CHHINDWARA",
    "acNumber": 123,
    "acName": "AMARWARA",
    "partNumber": 25,
    "partName": "BIJORIPATHAR",
    "lat": 22.355622750000002,
    "lon": 78.95021593247758
  },
  {
    "partId": 101366,
    "stateCode": "S12",
    "stateName": "Madhya Pradesh",
    "districtCode": "S1228",
    "districtName": "CHHINDWARA",
    "acNumber": 123,
    "acName": "AMARWARA",
    "partNumber": 26,
    "partName": "MOHALIMATA MAL",
    "lat": 22.5300516,
    "lon": 79.05764514865771
  },
  {
    "partId": 101367,
    "stateCode": "S12",
    "stateName": "Madhya Pradesh",
    "districtCode": "S1228",
    "districtName": "CHHINDWARA",
    "acNumber": 123,
    "acName": "AMARWARA",
    "partNumber": 27,
    "partName": "BABAIPATHAR",
    "lat": 22.37204945,
    "lon": 78.94485773761917
  },
  {
    "partId": 101428,
    "stateCode": "S12",
    "stateName": "Madhya Pradesh",
    "districtCode": "S1228",
    "districtName": "CHHINDWARA",
    "acNumber": 123,
    "acName": "AMARWARA",
    "partNumber": 28,
    "partName": "NAGARI",
    "lat": 22.5300516,
    "lon": 79.05764514865771
  },
  {
    "partId": 101429,
    "stateCode": "S12",
    "stateName": "Madhya Pradesh",
    "districtCode": "S1228",
    "districtName": "CHHINDWARA",
    "acNumber": 123,
    "acName": "AMARWARA",
    "partNumber": 29,
    "partName": "JHIRAPANI",
    "lat": 22.5300516,
    "lon": 79.05764514865771
  },
  {
    "partId": 101493,
    "stateCode": "S12",
    "stateName": "Madhya Pradesh",
    "districtCode": "S1228",
    "districtName": "CHHINDWARA",
    "acNumber": 123,
    "acName": "AMARWARA",
    "partNumber": 30,
    "partName": "BAMADI",
    "lat": 22.5300516,
    "lon": 79.05764514865771
  },
  {
    "partId": 101430,
    "stateCode": "S12",
    "stateName": "Madhya Pradesh",
    "districtCode": "S1228",
    "districtName": "CHHINDWARA",
    "acNumber": 123,
    "acName": "AMARWARA",
    "partNumber": 31,
    "partName": "LOTIYA",
    "lat": 22.4398742,
    "lon": 78.88244983165151
  },
  {
    "partId": 101431,
    "stateCode": "S12",
    "stateName": "Madhya Pradesh",
    "districtCode": "S1228",
    "districtName": "CHHINDWARA",
    "acNumber": 123,
    "acName": "AMARWARA",
    "partNumber": 32,
    "partName": "KUMHADI",
    "lat": 22.5300516,
    "lon": 79.05764514865771
  },
  {
    "partId": 101535,
    "stateCode": "S12",
    "stateName": "Madhya Pradesh",
    "districtCode": "S1228",
    "districtName": "CHHINDWARA",
    "acNumber": 123,
    "acName": "AMARWARA",
    "partNumber": 33,
    "partName": "DHODAMUAR",
    "lat": 22.5300516,
    "lon": 79.05764514865771
  },
  {
    "partId": 101399,
    "stateCode": "S12",
    "stateName": "Madhya Pradesh",
    "districtCode": "S1228",
    "districtName": "CHHINDWARA",
    "acNumber": 123,
    "acName": "AMARWARA",
    "partNumber": 34,
    "partName": "CHHINDI",
    "lat": 22.3814556,
    "lon": 78.82492394647983
  },
  {
    "partId": 100553,
    "stateCode": "S12",
    "stateName": "Madhya Pradesh",
    "districtCode": "S1228",
    "districtName": "CHHINDWARA",
    "acNumber": 123,
    "acName": "AMARWARA",
    "partNumber": 35,
    "partName": "CHHINDI",
    "lat": 22.3814556,
    "lon": 78.82492394647983
  },
  {
    "partId": 101400,
    "stateCode": "S12",
    "stateName": "Madhya Pradesh",
    "districtCode": "S1228",
    "districtName": "CHHINDWARA",
    "acNumber": 123,
    "acName": "AMARWARA",
    "partNumber": 36,
    "partName": "UMARAVAH",
    "lat": 22.5300516,
    "lon": 79.05764514865771
  },
  {
    "partId": 101494,
    "stateCode": "S12",
    "stateName": "Madhya Pradesh",
    "districtCode": "S1228",
    "districtName": "CHHINDWARA",
    "acNumber": 123,
    "acName": "AMARWARA",
    "partNumber": 37,
    "partName": "SIDHOLI",
    "lat": 22.5300516,
    "lon": 79.05764514865771
  },
  {
    "partId": 101482,
    "stateCode": "S12",
    "stateName": "Madhya Pradesh",
    "districtCode": "S1228",
    "districtName": "CHHINDWARA",
    "acNumber": 123,
    "acName": "AMARWARA",
    "partNumber": 38,
    "partName": "KAREAM RATED",
    "lat": 22.5300516,
    "lon": 79.05764514865771
  },
  {
    "partId": 101495,
    "stateCode": "S12",
    "stateName": "Madhya Pradesh",
    "districtCode": "S1228",
    "districtName": "CHHINDWARA",
    "acNumber": 123,
    "acName": "AMARWARA",
    "partNumber": 39,
    "partName": "THANAKHEDA",
    "lat": 22.5300516,
    "lon": 79.05764514865771
  },
  {
    "partId": 101496,
    "stateCode": "S12",
    "stateName": "Madhya Pradesh",
    "districtCode": "S1228",
    "districtName": "CHHINDWARA",
    "acNumber": 123,
    "acName": "AMARWARA",
    "partNumber": 40,
    "partName": "DONGRA",
    "lat": 22.5300516,
    "lon": 79.05764514865771
  },
  {
    "partId": 101463,
    "stateCode": "S12",
    "stateName": "Madhya Pradesh",
    "districtCode": "S1228",
    "districtName": "CHHINDWARA",
    "acNumber": 123,
    "acName": "AMARWARA",
    "partNumber": 41,
    "partName": "JADMADAL HARRAKACHHAR",
    "lat": 22.5300516,
    "lon": 79.05764514865771
  },
  {
    "partId": 101497,
    "stateCode": "S12",
    "stateName": "Madhya Pradesh",
    "districtCode": "S1228",
    "districtName": "CHHINDWARA",
    "acNumber": 123,
    "acName": "AMARWARA",
    "partNumber": 42,
    "partName": "KAMATHI",
    "lat": 22.5300516,
    "lon": 79.05764514865771
  },
  {
    "partId": 101498,
    "stateCode": "S12",
    "stateName": "Madhya Pradesh",
    "districtCode": "S1228",
    "districtName": "CHHINDWARA",
    "acNumber": 123,
    "acName": "AMARWARA",
    "partNumber": 43,
    "partName": "BHOIPAAR",
    "lat": 22.5300516,
    "lon": 79.05764514865771
  },
  {
    "partId": 100496,
    "stateCode": "S12",
    "stateName": "Madhya Pradesh",
    "districtCode": "S1228",
    "districtName": "CHHINDWARA",
    "acNumber": 123,
    "acName": "AMARWARA",
    "partNumber": 44,
    "partName": "MOYAKUHI",
    "lat": 22.5300516,
    "lon": 79.05764514865771
  },
  {
    "partId": 101499,
    "stateCode": "S12",
    "stateName": "Madhya Pradesh",
    "districtCode": "S1228",
    "districtName": "CHHINDWARA",
    "acNumber": 123,
    "acName": "AMARWARA",
    "partNumber": 45,
    "partName": "ATARIYA",
    "lat": 22.501179550000003,
    "lon": 78.87965999529331
  },
  {
    "partId": 101500,
    "stateCode": "S12",
    "stateName": "Madhya Pradesh",
    "districtCode": "S1228",
    "districtName": "CHHINDWARA",
    "acNumber": 123,
    "acName": "AMARWARA",
    "partNumber": 46,
    "partName": "ANAKHAVADI",
    "lat": 22.5300516,
    "lon": 79.05764514865771
  },
  {
    "partId": 101501,
    "stateCode": "S12",
    "stateName": "Madhya Pradesh",
    "districtCode": "S1228",
    "districtName": "CHHINDWARA",
    "acNumber": 123,
    "acName": "AMARWARA",
    "partNumber": 47,
    "partName": "BHAINSAKHOH",
    "lat": 22.5300516,
    "lon": 79.05764514865771
  },
  {
    "partId": 100442,
    "stateCode": "S12",
    "stateName": "Madhya Pradesh",
    "districtCode": "S1228",
    "districtName": "CHHINDWARA",
    "acNumber": 123,
    "acName": "AMARWARA",
    "partNumber": 48,
    "partName": "CHATANI",
    "lat": 22.5300516,
    "lon": 79.05764514865771
  },
  {
    "partId": 100443,
    "stateCode": "S12",
    "stateName": "Madhya Pradesh",
    "districtCode": "S1228",
    "districtName": "CHHINDWARA",
    "acNumber": 123,
    "acName": "AMARWARA",
    "partNumber": 49,
    "partName": "KAMATHA",
    "lat": 21.9866916,
    "lon": 78.88581736447333
  },
  {
    "partId": 100444,
    "stateCode": "S12",
    "stateName": "Madhya Pradesh",
    "districtCode": "S1228",
    "districtName": "CHHINDWARA",
    "acNumber": 123,
    "acName": "AMARWARA",
    "partNumber": 50,
    "partName": "DIGADAHAR",
    "lat": 22.5300516,
    "lon": 79.05764514865771
  },
  {
    "partId": 100445,
    "stateCode": "S12",
    "stateName": "Madhya Pradesh",
    "districtCode": "S1228",
    "districtName": "CHHINDWARA",
    "acNumber": 123,
    "acName": "AMARWARA",
    "partNumber": 51,
    "partName": "MADHI",
    "lat": 22.5300516,
    "lon": 79.05764514865771
  },
  {
    "partId": 100541,
    "stateCode": "S12",
    "stateName": "Madhya Pradesh",
    "districtCode": "S1228",
    "districtName": "CHHINDWARA",
    "acNumber": 123,
    "acName": "AMARWARA",
    "partNumber": 52,
    "partName": "CHILAK",
    "lat": 22.5968447,
    "lon": 78.9007177041481
  },
  {
    "partId": 101462,
    "stateCode": "S12",
    "stateName": "Madhya Pradesh",
    "districtCode": "S1228",
    "districtName": "CHHINDWARA",
    "acNumber": 123,
    "acName": "AMARWARA",
    "partNumber": 53,
    "partName": "KHIRKIGHAT",
    "lat": 22.5300516,
    "lon": 79.05764514865771
  },
  {
    "partId": 100446,
    "stateCode": "S12",
    "stateName": "Madhya Pradesh",
    "districtCode": "S1228",
    "districtName": "CHHINDWARA",
    "acNumber": 123,
    "acName": "AMARWARA",
    "partNumber": 54,
    "partName": "KHONKAURPHAOJHALADHANA",
    "lat": 22.5300516,
    "lon": 79.05764514865771
  },
  {
    "partId": 101461,
    "stateCode": "S12",
    "stateName": "Madhya Pradesh",
    "districtCode": "S1228",
    "districtName": "CHHINDWARA",
    "acNumber": 123,
    "acName": "AMARWARA",
    "partNumber": 55,
    "partName": "RATED",
    "lat": 22.5300516,
    "lon": 79.05764514865771
  },
  {
    "partId": 100477,
    "stateCode": "S12",
    "stateName": "Madhya Pradesh",
    "districtCode": "S1228",
    "districtName": "CHHINDWARA",
    "acNumber": 123,
    "acName": "AMARWARA",
    "partNumber": 56,
    "partName": "GANGAI",
    "lat": 22.523962349999998,
    "lon": 78.94515082016687
  },
  {
    "partId": 100556,
    "stateCode": "S12",
    "stateName": "Madhya Pradesh",
    "districtCode": "S1228",
    "districtName": "CHHINDWARA",
    "acNumber": 123,
    "acName": "AMARWARA",
    "partNumber": 57,
    "partName": "MUKAKHEDA",
    "lat": 22.5300516,
    "lon": 79.05764514865771
  },
  {
    "partId": 100555,
    "stateCode": "S12",
    "stateName": "Madhya Pradesh",
    "districtCode": "S1228",
    "districtName": "CHHINDWARA",
    "acNumber": 123,
    "acName": "AMARWARA",
    "partNumber": 58,
    "partName": "SANWLAKHEDA",
    "lat": 22.5300516,
    "lon": 79.05764514865771
  },
  {
    "partId": 100478,
    "stateCode": "S12",
    "stateName": "Madhya Pradesh",
    "districtCode": "S1228",
    "districtName": "CHHINDWARA",
    "acNumber": 123,
    "acName": "AMARWARA",
    "partNumber": 59,
    "partName": "CHURISAJAVA",
    "lat": 22.5300516,
    "lon": 79.05764514865771
  },
  {
    "partId": 100497,
    "stateCode": "S12",
    "stateName": "Madhya Pradesh",
    "districtCode": "S1228",
    "districtName": "CHHINDWARA",
    "acNumber": 123,
    "acName": "AMARWARA",
    "partNumber": 60,
    "partName": "SALADHANA",
    "lat": 22.5300516,
    "lon": 79.05764514865771
  },
  {
    "partId": 100479,
    "stateCode": "S12",
    "stateName": "Madhya Pradesh",
    "districtCode": "S1228",
    "districtName": "CHHINDWARA",
    "acNumber": 123,
    "acName": "AMARWARA",
    "partNumber": 61,
    "partName": "ANCHALKUND",
    "lat": 22.5300516,
    "lon": 79.05764514865771
  },
  {
    "partId": 100554,
    "stateCode": "S12",
    "stateName": "Madhya Pradesh",
    "districtCode": "S1228",
    "districtName": "CHHINDWARA",
    "acNumber": 123,
    "acName": "AMARWARA",
    "partNumber": 62,
    "partName": "BORPANI",
    "lat": 22.4811537,
    "lon": 78.95661296342186
  },
  {
    "partId": 100480,
    "stateCode": "S12",
    "stateName": "Madhya Pradesh",
    "districtCode": "S1228",
    "districtName": "CHHINDWARA",
    "acNumber": 123,
    "acName": "AMARWARA",
    "partNumber": 63,
    "partName": "BANKA",
    "lat": 22.47352315,
    "lon": 79.01448552329502
  },
  {
    "partId": 100481,
    "stateCode": "S12",
    "stateName": "Madhya Pradesh",
    "districtCode": "S1228",
    "districtName": "CHHINDWARA",
    "acNumber": 123,
    "acName": "AMARWARA",
    "partNumber": 64,
    "partName": "CHOURASI",
    "lat": 22.5300516,
    "lon": 79.05764514865771
  },
  {
    "partId": 100482,
    "stateCode": "S12",
    "stateName": "Madhya Pradesh",
    "districtCode": "S1228",
    "districtName": "CHHINDWARA",
    "acNumber": 123,
    "acName": "AMARWARA",
    "partNumber": 65,
    "partName": "DENDU",
    "lat": 22.440870850000003,
    "lon": 78.9630023301327
  },
  {
    "partId": 100483,
    "stateCode": "S12",
    "stateName": "Madhya Pradesh",
    "districtCode": "S1228",
    "districtName": "CHHINDWARA",
    "acNumber": 123,
    "acName": "AMARWARA",
    "partNumber": 66,
    "partName": "BELPATHAR",
    "lat": 22.4347529,
    "lon": 78.92602611670819
  },
  {
    "partId": 101433,
    "stateCode": "S12",
    "stateName": "Madhya Pradesh",
    "districtCode": "S1228",
    "districtName": "CHHINDWARA",
    "acNumber": 123,
    "acName": "AMARWARA",
    "partNumber": 67,
    "partName": "DAMAKHOH",
    "lat": 22.5300516,
    "lon": 79.05764514865771
  },
  {
    "partId": 101448,
    "stateCode": "S12",
    "stateName": "Madhya Pradesh",
    "districtCode": "S1228",
    "districtName": "CHHINDWARA",
    "acNumber": 123,
    "acName": "AMARWARA",
    "partNumber": 68,
    "partName": "GHODAVADI",
    "lat": 22.5300516,
    "lon": 79.05764514865771
  },
  {
    "partId": 101434,
    "stateCode": "S12",
    "stateName": "Madhya Pradesh",
    "districtCode": "S1228",
    "districtName": "CHHINDWARA",
    "acNumber": 123,
    "acName": "AMARWARA",
    "partNumber": 69,
    "partName": "TEHATORI",
    "lat": 22.5300516,
    "lon": 79.05764514865771
  },
  {
    "partId": 101435,
    "stateCode": "S12",
    "stateName": "Madhya Pradesh",
    "districtCode": "S1228",
    "districtName": "CHHINDWARA",
    "acNumber": 123,
    "acName": "AMARWARA",
    "partNumber": 70,
    "partName": "JHIRANA",
    "lat": 22.5300516,
    "lon": 79.05764514865771
  },
  {
    "partId": 101502,
    "stateCode": "S12",
    "stateName": "Madhya Pradesh",
    "districtCode": "S1228",
    "districtName": "CHHINDWARA",
    "acNumber": 123,
    "acName": "AMARWARA",
    "partNumber": 71,
    "partName": "DORALI",
    "lat": 22.43329185,
    "lon": 78.99336332220533
  },
  {
    "partId": 101503,
    "stateCode": "S12",
    "stateName": "Madhya Pradesh",
    "districtCode": "S1228",
    "districtName": "CHHINDWARA",
    "acNumber": 123,
    "acName": "AMARWARA",
    "partNumber": 72,
    "partName": "KOTHIYA",
    "lat": 22.4500277,
    "lon": 79.02037956284418
  },
  {
    "partId": 101504,
    "stateCode": "S12",
    "stateName": "Madhya Pradesh",
    "districtCode": "S1228",
    "districtName": "CHHINDWARA",
    "acNumber": 123,
    "acName": "AMARWARA",
    "partNumber": 73,
    "partName": "MANAKAVADI",
    "lat": 22.5300516,
    "lon": 79.05764514865771
  },
  {
    "partId": 100498,
    "stateCode": "S12",
    "stateName": "Madhya Pradesh",
    "districtCode": "S1228",
    "districtName": "CHHINDWARA",
    "acNumber": 123,
    "acName": "AMARWARA",
    "partNumber": 74,
    "partName": "SAGONIYA",
    "lat": 22.21095915,
    "lon": 78.51007323618741
  },
  {
    "partId": 101505,
    "stateCode": "S12",
    "stateName": "Madhya Pradesh",
    "districtCode": "S1228",
    "districtName": "CHHINDWARA",
    "acNumber": 123,
    "acName": "AMARWARA",
    "partNumber": 75,
    "partName": "CHHUA",
    "lat": 22.5300516,
    "lon": 79.05764514865771
  },
  {
    "partId": 100542,
    "stateCode": "S12",
    "stateName": "Madhya Pradesh",
    "districtCode": "S1228",
    "districtName": "CHHINDWARA",
    "acNumber": 123,
    "acName": "AMARWARA",
    "partNumber": 76,
    "partName": "GUTERA",
    "lat": 22.39235925,
    "lon": 79.07673320625216
  },
  {
    "partId": 101506,
    "stateCode": "S12",
    "stateName": "Madhya Pradesh",
    "districtCode": "S1228",
    "districtName": "CHHINDWARA",
    "acNumber": 123,
    "acName": "AMARWARA",
    "partNumber": 77,
    "partName": "BHUMAKA",
    "lat": 22.5300516,
    "lon": 79.05764514865771
  },
  {
    "partId": 101507,
    "stateCode": "S12",
    "stateName": "Madhya Pradesh",
    "districtCode": "S1228",
    "districtName": "CHHINDWARA",
    "acNumber": 123,
    "acName": "AMARWARA",
    "partNumber": 78,
    "partName": "MORKHA",
    "lat": 22.42023245,
    "lon": 79.1374852855719
  },
  {
    "partId": 101508,
    "stateCode": "S12",
    "stateName": "Madhya Pradesh",
    "districtCode": "S1228",
    "districtName": "CHHINDWARA",
    "acNumber": 123,
    "acName": "AMARWARA",
    "partNumber": 79,
    "partName": "BICHHUA",
    "lat": 21.8223762,
    "lon": 79.03897886924571
  },
  {
    "partId": 101509,
    "stateCode": "S12",
    "stateName": "Madhya Pradesh",
    "districtCode": "S1228",
    "districtName": "CHHINDWARA",
    "acNumber": 123,
    "acName": "AMARWARA",
    "partNumber": 80,
    "partName": "BHALAPANI",
    "lat": 22.5300516,
    "lon": 79.05764514865771
  },
  {
    "partId": 100530,
    "stateCode": "S12",
    "stateName": "Madhya Pradesh",
    "districtCode": "S1228",
    "districtName": "CHHINDWARA",
    "acNumber": 123,
    "acName": "AMARWARA",
    "partNumber": 81,
    "partName": "NACHANA",
    "lat": 22.5300516,
    "lon": 79.05764514865771
  },
  {
    "partId": 101510,
    "stateCode": "S12",
    "stateName": "Madhya Pradesh",
    "districtCode": "S1228",
    "districtName": "CHHINDWARA",
    "acNumber": 123,
    "acName": "AMARWARA",
    "partNumber": 82,
    "partName": "KHIRADA",
    "lat": 22.5300516,
    "lon": 79.05764514865771
  },
  {
    "partId": 101511,
    "stateCode": "S12",
    "stateName": "Madhya Pradesh",
    "districtCode": "S1228",
    "districtName": "CHHINDWARA",
    "acNumber": 123,
    "acName": "AMARWARA",
    "partNumber": 83,
    "partName": "DHANAURA",
    "lat": 22.0686493,
    "lon": 79.13012498389489
  },
  {
    "partId": 101468,
    "stateCode": "S12",
    "stateName": "Madhya Pradesh",
    "districtCode": "S1228",
    "districtName": "CHHINDWARA",
    "acNumber": 123,
    "acName": "AMARWARA",
    "partNumber": 84,
    "partName": "DHANAURA",
    "lat": 22.0686493,
    "lon": 79.13012498389489
  },
  {
    "partId": 101512,
    "stateCode": "S12",
    "stateName": "Madhya Pradesh",
    "districtCode": "S1228",
    "districtName": "CHHINDWARA",
    "acNumber": 123,
    "acName": "AMARWARA",
    "partNumber": 85,
    "partName": "ANDOL",
    "lat": 22.4614539,
    "lon": 79.045394
  },
  {
    "partId": 101513,
    "stateCode": "S12",
    "stateName": "Madhya Pradesh",
    "districtCode": "S1228",
    "districtName": "CHHINDWARA",
    "acNumber": 123,
    "acName": "AMARWARA",
    "partNumber": 86,
    "partName": "PALANI",
    "lat": 22.47725485,
    "lon": 79.06473101501953
  },
  {
    "partId": 101514,
    "stateCode": "S12",
    "stateName": "Madhya Pradesh",
    "districtCode": "S1228",
    "districtName": "CHHINDWARA",
    "acNumber": 123,
    "acName": "AMARWARA",
    "partNumber": 87,
    "partName": "SIMARIYA",
    "lat": 22.4022913,
    "lon": 79.13186815239634
  },
  {
    "partId": 101447,
    "stateCode": "S12",
    "stateName": "Madhya Pradesh",
    "districtCode": "S1228",
    "districtName": "CHHINDWARA",
    "acNumber": 123,
    "acName": "AMARWARA",
    "partNumber": 88,
    "partName": "DUNGARIYA",
    "lat": 22.5010183,
    "lon": 79.065360565388
  },
  {
    "partId": 101515,
    "stateCode": "S12",
    "stateName": "Madhya Pradesh",
    "districtCode": "S1228",
    "districtName": "CHHINDWARA",
    "acNumber": 123,
    "acName": "AMARWARA",
    "partNumber": 89,
    "partName": "BATAKAKHAPA",
    "lat": 22.5300516,
    "lon": 79.05764514865771
  },
  {
    "partId": 100484,
    "stateCode": "S12",
    "stateName": "Madhya Pradesh",
    "districtCode": "S1228",
    "districtName": "CHHINDWARA",
    "acNumber": 123,
    "acName": "AMARWARA",
    "partNumber": 90,
    "partName": "BATAKAKHAPA",
    "lat": 22.5300516,
    "lon": 79.05764514865771
  },
  {
    "partId": 101446,
    "stateCode": "S12",
    "stateName": "Madhya Pradesh",
    "districtCode": "S1228",
    "districtName": "CHHINDWARA",
    "acNumber": 123,
    "acName": "AMARWARA",
    "partNumber": 91,
    "partName": "BATAKAKHAPA",
    "lat": 22.5300516,
    "lon": 79.05764514865771
  },
  {
    "partId": 100543,
    "stateCode": "S12",
    "stateName": "Madhya Pradesh",
    "districtCode": "S1228",
    "districtName": "CHHINDWARA",
    "acNumber": 123,
    "acName": "AMARWARA",
    "partNumber": 92,
    "partName": "BICHHUA",
    "lat": 21.8223762,
    "lon": 79.03897886924571
  },
  {
    "partId": 100485,
    "stateCode": "S12",
    "stateName": "Madhya Pradesh",
    "districtCode": "S1228",
    "districtName": "CHHINDWARA",
    "acNumber": 123,
    "acName": "AMARWARA",
    "partNumber": 93,
    "partName": "BAICHHAPAR",
    "lat": 22.5515437,
    "lon": 78.99188668441994
  },
  {
    "partId": 100486,
    "stateCode": "S12",
    "stateName": "Madhya Pradesh",
    "districtCode": "S1228",
    "districtName": "CHHINDWARA",
    "acNumber": 123,
    "acName": "AMARWARA",
    "partNumber": 94,
    "partName": "TATEEDHAT",
    "lat": 22.5300516,
    "lon": 79.05764514865771
  },
  {
    "partId": 100531,
    "stateCode": "S12",
    "stateName": "Madhya Pradesh",
    "districtCode": "S1228",
    "districtName": "CHHINDWARA",
    "acNumber": 123,
    "acName": "AMARWARA",
    "partNumber": 95,
    "partName": "CHOPANA",
    "lat": 22.36905945,
    "lon": 78.8994100635478
  },
  {
    "partId": 100487,
    "stateCode": "S12",
    "stateName": "Madhya Pradesh",
    "districtCode": "S1228",
    "districtName": "CHHINDWARA",
    "acNumber": 123,
    "acName": "AMARWARA",
    "partNumber": 96,
    "partName": "THARAVA",
    "lat": 22.5300516,
    "lon": 79.05764514865771
  },
  {
    "partId": 101445,
    "stateCode": "S12",
    "stateName": "Madhya Pradesh",
    "districtCode": "S1228",
    "districtName": "CHHINDWARA",
    "acNumber": 123,
    "acName": "AMARWARA",
    "partNumber": 97,
    "partName": "PIPARIYA KALAN",
    "lat": 22.5380653,
    "lon": 79.09156279343267
  },
  {
    "partId": 101536,
    "stateCode": "S12",
    "stateName": "Madhya Pradesh",
    "districtCode": "S1228",
    "districtName": "CHHINDWARA",
    "acNumber": 123,
    "acName": "AMARWARA",
    "partNumber": 98,
    "partName": "CHHATA",
    "lat": 22.481438251687116,
    "lon": 79.05906294770432
  },
  {
    "partId": 100488,
    "stateCode": "S12",
    "stateName": "Madhya Pradesh",
    "districtCode": "S1228",
    "districtName": "CHHINDWARA",
    "acNumber": 123,
    "acName": "AMARWARA",
    "partNumber": 99,
    "partName": "NONIYA",
    "lat": 22.481438251687116,
    "lon": 79.05906294770432
  },
  {
    "partId": 100489,
    "stateCode": "S12",
    "stateName": "Madhya Pradesh",
    "districtCode": "S1228",
    "districtName": "CHHINDWARA",
    "acNumber": 123,
    "acName": "AMARWARA",
    "partNumber": 100,
    "partName": "PAPADA",
    "lat": 22.481438251687116,
    "lon": 79.05906294770432
  },
  {
    "partId": 101537,
    "stateCode": "S12",
    "stateName": "Madhya Pradesh",
    "districtCode": "S1228",
    "districtName": "CHHINDWARA",
    "acNumber": 123,
    "acName": "AMARWARA",
    "partNumber": 101,
    "partName": "DABARI",
    "lat": 22.5300516,
    "lon": 79.05764514865771
  },
  {
    "partId": 100490,
    "stateCode": "S12",
    "stateName": "Madhya Pradesh",
    "districtCode": "S1228",
    "districtName": "CHHINDWARA",
    "acNumber": 123,
    "acName": "AMARWARA",
    "partNumber": 102,
    "partName": "MADAI",
    "lat": 22.5300516,
    "lon": 79.05764514865771
  },
  {
    "partId": 100447,
    "stateCode": "S12",
    "stateName": "Madhya Pradesh",
    "districtCode": "S1228",
    "districtName": "CHHINDWARA",
    "acNumber": 123,
    "acName": "AMARWARA",
    "partNumber": 103,
    "partName": "DEVRI",
    "lat": 22.5749942,
    "lon": 79.06093791496892
  },
  {
    "partId": 101444,
    "stateCode": "S12",
    "stateName": "Madhya Pradesh",
    "districtCode": "S1228",
    "districtName": "CHHINDWARA",
    "acNumber": 123,
    "acName": "AMARWARA",
    "partNumber": 104,
    "partName": "SALEBARRU",
    "lat": 22.5300516,
    "lon": 79.05764514865771
  },
  {
    "partId": 100448,
    "stateCode": "S12",
    "stateName": "Madhya Pradesh",
    "districtCode": "S1228",
    "districtName": "CHHINDWARA",
    "acNumber": 123,
    "acName": "AMARWARA",
    "partNumber": 105,
    "partName": "UMARI KHURD",
    "lat": 22.5300516,
    "lon": 79.05764514865771
  },
  {
    "partId": 100449,
    "stateCode": "S12",
    "stateName": "Madhya Pradesh",
    "districtCode": "S1228",
    "districtName": "CHHINDWARA",
    "acNumber": 123,
    "acName": "AMARWARA",
    "partNumber": 106,
    "partName": "CHURI KHURD",
    "lat": 22.61229595,
    "lon": 79.02005592812989
  },
  {
    "partId": 101397,
    "stateCode": "S12",
    "stateName": "Madhya Pradesh",
    "districtCode": "S1228",
    "districtName": "CHHINDWARA",
    "acNumber": 123,
    "acName": "AMARWARA",
    "partNumber": 107,
    "partName": "KOHPANI",
    "lat": 22.595903749999998,
    "lon": 79.01079006478045
  },
  {
    "partId": 100450,
    "stateCode": "S12",
    "stateName": "Madhya Pradesh",
    "districtCode": "S1228",
    "districtName": "CHHINDWARA",
    "acNumber": 123,
    "acName": "AMARWARA",
    "partNumber": 108,
    "partName": "SAMARDOH",
    "lat": 22.64723655,
    "lon": 79.06748728755548
  },
  {
    "partId": 100451,
    "stateCode": "S12",
    "stateName": "Madhya Pradesh",
    "districtCode": "S1228",
    "districtName": "CHHINDWARA",
    "acNumber": 123,
    "acName": "AMARWARA",
    "partNumber": 109,
    "partName": "BHOUD",
    "lat": 22.5300516,
    "lon": 79.05764514865771
  },
  {
    "partId": 101443,
    "stateCode": "S12",
    "stateName": "Madhya Pradesh",
    "districtCode": "S1228",
    "districtName": "CHHINDWARA",
    "acNumber": 123,
    "acName": "AMARWARA",
    "partNumber": 110,
    "partName": "CHIKHLA",
    "lat": 22.736383449999998,
    "lon": 79.08960019747744
  },
  {
    "partId": 101538,
    "stateCode": "S12",
    "stateName": "Madhya Pradesh",
    "districtCode": "S1228",
    "districtName": "CHHINDWARA",
    "acNumber": 123,
    "acName": "AMARWARA",
    "partNumber": 111,
    "partName": "KOTRA",
    "lat": 22.73618145,
    "lon": 79.04873529663581
  },
  {
    "partId": 100452,
    "stateCode": "S12",
    "stateName": "Madhya Pradesh",
    "districtCode": "S1228",
    "districtName": "CHHINDWARA",
    "acNumber": 123,
    "acName": "AMARWARA",
    "partNumber": 112,
    "partName": "BUDHAINA",
    "lat": 22.5300516,
    "lon": 79.05764514865771
  },
  {
    "partId": 101425,
    "stateCode": "S12",
    "stateName": "Madhya Pradesh",
    "districtCode": "S1228",
    "districtName": "CHHINDWARA",
    "acNumber": 123,
    "acName": "AMARWARA",
    "partNumber": 113,
    "partName": "GADHAGADH",
    "lat": 22.5300516,
    "lon": 79.05764514865771
  },
  {
    "partId": 100474,
    "stateCode": "S12",
    "stateName": "Madhya Pradesh",
    "districtCode": "S1228",
    "districtName": "CHHINDWARA",
    "acNumber": 123,
    "acName": "AMARWARA",
    "partNumber": 114,
    "partName": "CHINDA",
    "lat": 22.5300516,
    "lon": 79.05764514865771
  },
  {
    "partId": 100557,
    "stateCode": "S12",
    "stateName": "Madhya Pradesh",
    "districtCode": "S1228",
    "districtName": "CHHINDWARA",
    "acNumber": 123,
    "acName": "AMARWARA",
    "partNumber": 115,
    "partName": "KUNDALI",
    "lat": 22.7800132,
    "lon": 79.22807297934605
  },
  {
    "partId": 101426,
    "stateCode": "S12",
    "stateName": "Madhya Pradesh",
    "districtCode": "S1228",
    "districtName": "CHHINDWARA",
    "acNumber": 123,
    "acName": "AMARWARA",
    "partNumber": 116,
    "partName": "PARTAPUR",
    "lat": 22.5300516,
    "lon": 79.05764514865771
  },
  {
    "partId": 101539,
    "stateCode": "S12",
    "stateName": "Madhya Pradesh",
    "districtCode": "S1228",
    "districtName": "CHHINDWARA",
    "acNumber": 123,
    "acName": "AMARWARA",
    "partNumber": 117,
    "partName": "TUIYAPANI",
    "lat": 22.730635,
    "lon": 79.22557563898913
  },
  {
    "partId": 100544,
    "stateCode": "S12",
    "stateName": "Madhya Pradesh",
    "districtCode": "S1228",
    "districtName": "CHHINDWARA",
    "acNumber": 123,
    "acName": "AMARWARA",
    "partNumber": 118,
    "partName": "SALAIYASVAMI",
    "lat": 22.5300516,
    "lon": 79.05764514865771
  },
  {
    "partId": 101540,
    "stateCode": "S12",
    "stateName": "Madhya Pradesh",
    "districtCode": "S1228",
    "districtName": "CHHINDWARA",
    "acNumber": 123,
    "acName": "AMARWARA",
    "partNumber": 119,
    "partName": "MARAKAPATHAR",
    "lat": 22.5300516,
    "lon": 79.05764514865771
  },
  {
    "partId": 100473,
    "stateCode": "S12",
    "stateName": "Madhya Pradesh",
    "districtCode": "S1228",
    "districtName": "CHHINDWARA",
    "acNumber": 123,
    "acName": "AMARWARA",
    "partNumber": 120,
    "partName": "GHOGRI",
    "lat": 22.5300516,
    "lon": 79.05764514865771
  },
  {
    "partId": 100472,
    "stateCode": "S12",
    "stateName": "Madhya Pradesh",
    "districtCode": "S1228",
    "districtName": "CHHINDWARA",
    "acNumber": 123,
    "acName": "AMARWARA",
    "partNumber": 121,
    "partName": "JOGIWADI",
    "lat": 22.5300516,
    "lon": 79.05764514865771
  },
  {
    "partId": 100459,
    "stateCode": "S12",
    "stateName": "Madhya Pradesh",
    "districtCode": "S1228",
    "districtName": "CHHINDWARA",
    "acNumber": 123,
    "acName": "AMARWARA",
    "partNumber": 122,
    "partName": "HATHIKHOH",
    "lat": 22.6928988,
    "lon": 79.2821695
  },
  {
    "partId": 101427,
    "stateCode": "S12",
    "stateName": "Madhya Pradesh",
    "districtCode": "S1228",
    "districtName": "CHHINDWARA",
    "acNumber": 123,
    "acName": "AMARWARA",
    "partNumber": 123,
    "partName": "DHADHRA",
    "lat": 22.69165425,
    "lon": 79.16951210686254
  },
  {
    "partId": 101481,
    "stateCode": "S12",
    "stateName": "Madhya Pradesh",
    "districtCode": "S1228",
    "districtName": "CHHINDWARA",
    "acNumber": 123,
    "acName": "AMARWARA",
    "partNumber": 124,
    "partName": "TENDANI",
    "lat": 22.003516599999998,
    "lon": 79.25492417769689
  },
  {
    "partId": 101541,
    "stateCode": "S12",
    "stateName": "Madhya Pradesh",
    "districtCode": "S1228",
    "districtName": "CHHINDWARA",
    "acNumber": 123,
    "acName": "AMARWARA",
    "partNumber": 125,
    "partName": "SINGODI",
    "lat": 22.1919288,
    "lon": 79.0565899
  },
  {
    "partId": 101453,
    "stateCode": "S12",
    "stateName": "Madhya Pradesh",
    "districtCode": "S1228",
    "districtName": "CHHINDWARA",
    "acNumber": 123,
    "acName": "AMARWARA",
    "partNumber": 126,
    "partName": "BHEDA",
    "lat": 22.5300516,
    "lon": 79.05764514865771
  },
  {
    "partId": 101454,
    "stateCode": "S12",
    "stateName": "Madhya Pradesh",
    "districtCode": "S1228",
    "districtName": "CHHINDWARA",
    "acNumber": 123,
    "acName": "AMARWARA",
    "partNumber": 127,
    "partName": "AMARI",
    "lat": 22.5300516,
    "lon": 79.05764514865771
  },
  {
    "partId": 101455,
    "stateCode": "S12",
    "stateName": "Madhya Pradesh",
    "districtCode": "S1228",
    "districtName": "CHHINDWARA",
    "acNumber": 123,
    "acName": "AMARWARA",
    "partNumber": 128,
    "partName": "TENDUKHEDA",
    "lat": 22.5300516,
    "lon": 79.05764514865771
  },
  {
    "partId": 100471,
    "stateCode": "S12",
    "stateName": "Madhya Pradesh",
    "districtCode": "S1228",
    "districtName": "CHHINDWARA",
    "acNumber": 123,
    "acName": "AMARWARA",
    "partNumber": 129,
    "partName": "PATANIYA",
    "lat": 22.65758925,
    "lon": 79.17572585302702
  },
  {
    "partId": 101456,
    "stateCode": "S12",
    "stateName": "Madhya Pradesh",
    "districtCode": "S1228",
    "districtName": "CHHINDWARA",
    "acNumber": 123,
    "acName": "AMARWARA",
    "partNumber": 130,
    "partName": "RATOMATIPIPARIYA",
    "lat": 22.5300516,
    "lon": 79.05764514865771
  },
  {
    "partId": 101533,
    "stateCode": "S12",
    "stateName": "Madhya Pradesh",
    "districtCode": "S1228",
    "districtName": "CHHINDWARA",
    "acNumber": 123,
    "acName": "AMARWARA",
    "partNumber": 131,
    "partName": "MEHNDA",
    "lat": 22.5300516,
    "lon": 79.05764514865771
  },
  {
    "partId": 101457,
    "stateCode": "S12",
    "stateName": "Madhya Pradesh",
    "districtCode": "S1228",
    "districtName": "CHHINDWARA",
    "acNumber": 123,
    "acName": "AMARWARA",
    "partNumber": 132,
    "partName": "SIYAJHIRI",
    "lat": 22.61646895,
    "lon": 79.08387488744245
  },
  {
    "partId": 101464,
    "stateCode": "S12",
    "stateName": "Madhya Pradesh",
    "districtCode": "S1228",
    "districtName": "CHHINDWARA",
    "acNumber": 123,
    "acName": "AMARWARA",
    "partNumber": 133,
    "partName": "BADASALAIYA",
    "lat": 22.5300516,
    "lon": 79.05764514865771
  },
  {
    "partId": 101532,
    "stateCode": "S12",
    "stateName": "Madhya Pradesh",
    "districtCode": "S1228",
    "districtName": "CHHINDWARA",
    "acNumber": 123,
    "acName": "AMARWARA",
    "partNumber": 134,
    "partName": "MOHRIYA",
    "lat": 22.6308404,
    "lon": 79.1174114104892
  },
  {
    "partId": 100558,
    "stateCode": "S12",
    "stateName": "Madhya Pradesh",
    "districtCode": "S1228",
    "districtName": "CHHINDWARA",
    "acNumber": 123,
    "acName": "AMARWARA",
    "partNumber": 135,
    "partName": "NAVALPUR",
    "lat": 22.5300516,
    "lon": 79.05764514865771
  },
  {
    "partId": 101465,
    "stateCode": "S12",
    "stateName": "Madhya Pradesh",
    "districtCode": "S1228",
    "districtName": "CHHINDWARA",
    "acNumber": 123,
    "acName": "AMARWARA",
    "partNumber": 136,
    "partName": "BAMHORI",
    "lat": 22.6295731,
    "lon": 78.65247926870433
  },
  {
    "partId": 101466,
    "stateCode": "S12",
    "stateName": "Madhya Pradesh",
    "districtCode": "S1228",
    "districtName": "CHHINDWARA",
    "acNumber": 123,
    "acName": "AMARWARA",
    "partNumber": 137,
    "partName": "HARRAI",
    "lat": 22.6175791,
    "lon": 79.22815151992023
  },
  {
    "partId": 101452,
    "stateCode": "S12",
    "stateName": "Madhya Pradesh",
    "districtCode": "S1228",
    "districtName": "CHHINDWARA",
    "acNumber": 123,
    "acName": "AMARWARA",
    "partNumber": 138,
    "partName": "HARRAI",
    "lat": 22.6175791,
    "lon": 79.22815151992023
  },
  {
    "partId": 100468,
    "stateCode": "S12",
    "stateName": "Madhya Pradesh",
    "districtCode": "S1228",
    "districtName": "CHHINDWARA",
    "acNumber": 123,
    "acName": "AMARWARA",
    "partNumber": 139,
    "partName": "HARRAI",
    "lat": 22.6175791,
    "lon": 79.22815151992023
  },
  {
    "partId": 100469,
    "stateCode": "S12",
    "stateName": "Madhya Pradesh",
    "districtCode": "S1228",
    "districtName": "CHHINDWARA",
    "acNumber": 123,
    "acName": "AMARWARA",
    "partNumber": 140,
    "partName": "HARRAI",
    "lat": 22.6175791,
    "lon": 79.22815151992023
  },
  {
    "partId": 100470,
    "stateCode": "S12",
    "stateName": "Madhya Pradesh",
    "districtCode": "S1228",
    "districtName": "CHHINDWARA",
    "acNumber": 123,
    "acName": "AMARWARA",
    "partNumber": 141,
    "partName": "HARRAI",
    "lat": 22.6175791,
    "lon": 79.22815151992023
  },
  {
    "partId": 100552,
    "stateCode": "S12",
    "stateName": "Madhya Pradesh",
    "districtCode": "S1228",
    "districtName": "CHHINDWARA",
    "acNumber": 123,
    "acName": "AMARWARA",
    "partNumber": 142,
    "partName": "HARRAI",
    "lat": 22.6175791,
    "lon": 79.22815151992023
  },
  {
    "partId": 101356,
    "stateCode": "S12",
    "stateName": "Madhya Pradesh",
    "districtCode": "S1228",
    "districtName": "CHHINDWARA",
    "acNumber": 123,
    "acName": "AMARWARA",
    "partNumber": 143,
    "partName": "HARRAI",
    "lat": 22.6175791,
    "lon": 79.22815151992023
  },
  {
    "partId": 101357,
    "stateCode": "S12",
    "stateName": "Madhya Pradesh",
    "districtCode": "S1228",
    "districtName": "CHHINDWARA",
    "acNumber": 123,
    "acName": "AMARWARA",
    "partNumber": 144,
    "partName": "HARRAI",
    "lat": 22.6175791,
    "lon": 79.22815151992023
  },
  {
    "partId": 100491,
    "stateCode": "S12",
    "stateName": "Madhya Pradesh",
    "districtCode": "S1228",
    "districtName": "CHHINDWARA",
    "acNumber": 123,
    "acName": "AMARWARA",
    "partNumber": 145,
    "partName": "NANDANA",
    "lat": 22.5300516,
    "lon": 79.05764514865771
  },
  {
    "partId": 100492,
    "stateCode": "S12",
    "stateName": "Madhya Pradesh",
    "districtCode": "S1228",
    "districtName": "CHHINDWARA",
    "acNumber": 123,
    "acName": "AMARWARA",
    "partNumber": 146,
    "partName": "BHAISA KALA",
    "lat": 22.5300516,
    "lon": 79.05764514865771
  },
  {
    "partId": 100458,
    "stateCode": "S12",
    "stateName": "Madhya Pradesh",
    "districtCode": "S1228",
    "districtName": "CHHINDWARA",
    "acNumber": 123,
    "acName": "AMARWARA",
    "partNumber": 147,
    "partName": "padharbhata",
    "lat": 22.5300516,
    "lon": 79.05764514865771
  },
  {
    "partId": 100493,
    "stateCode": "S12",
    "stateName": "Madhya Pradesh",
    "districtCode": "S1228",
    "districtName": "CHHINDWARA",
    "acNumber": 123,
    "acName": "AMARWARA",
    "partNumber": 148,
    "partName": "SUKHAPURA",
    "lat": 22.5300516,
    "lon": 79.05764514865771
  },
  {
    "partId": 100494,
    "stateCode": "S12",
    "stateName": "Madhya Pradesh",
    "districtCode": "S1228",
    "districtName": "CHHINDWARA",
    "acNumber": 123,
    "acName": "AMARWARA",
    "partNumber": 149,
    "partName": "KACHANARA",
    "lat": 22.5300516,
    "lon": 79.05764514865771
  },
  {
    "partId": 101542,
    "stateCode": "S12",
    "stateName": "Madhya Pradesh",
    "districtCode": "S1228",
    "districtName": "CHHINDWARA",
    "acNumber": 123,
    "acName": "AMARWARA",
    "partNumber": 150,
    "partName": "LEDIYATOLA",
    "lat": 22.5300516,
    "lon": 79.05764514865771
  },
  {
    "partId": 100559,
    "stateCode": "S12",
    "stateName": "Madhya Pradesh",
    "districtCode": "S1228",
    "districtName": "CHHINDWARA",
    "acNumber": 123,
    "acName": "AMARWARA",
    "partNumber": 151,
    "partName": "KHAMATARA",
    "lat": 22.5300516,
    "lon": 79.05764514865771
  },
  {
    "partId": 101531,
    "stateCode": "S12",
    "stateName": "Madhya Pradesh",
    "districtCode": "S1228",
    "districtName": "CHHINDWARA",
    "acNumber": 123,
    "acName": "AMARWARA",
    "partNumber": 152,
    "partName": "SUNDESAUNDI",
    "lat": 22.5300516,
    "lon": 79.05764514865771
  },
  {
    "partId": 100495,
    "stateCode": "S12",
    "stateName": "Madhya Pradesh",
    "districtCode": "S1228",
    "districtName": "CHHINDWARA",
    "acNumber": 123,
    "acName": "AMARWARA",
    "partNumber": 153,
    "partName": "AHARAVADA",
    "lat": 22.5300516,
    "lon": 79.05764514865771
  },
  {
    "partId": 100545,
    "stateCode": "S12",
    "stateName": "Madhya Pradesh",
    "districtCode": "S1228",
    "districtName": "CHHINDWARA",
    "acNumber": 123,
    "acName": "AMARWARA",
    "partNumber": 154,
    "partName": "RAIYARAV",
    "lat": 22.5300516,
    "lon": 79.05764514865771
  },
  {
    "partId": 101476,
    "stateCode": "S12",
    "stateName": "Madhya Pradesh",
    "districtCode": "S1228",
    "districtName": "CHHINDWARA",
    "acNumber": 123,
    "acName": "AMARWARA",
    "partNumber": 155,
    "partName": "BASURIYA KALA",
    "lat": 22.5300516,
    "lon": 79.05764514865771
  },
  {
    "partId": 101477,
    "stateCode": "S12",
    "stateName": "Madhya Pradesh",
    "districtCode": "S1228",
    "districtName": "CHHINDWARA",
    "acNumber": 123,
    "acName": "AMARWARA",
    "partNumber": 156,
    "partName": "KOKANPIPARIYA",
    "lat": 22.58347585,
    "lon": 79.23568949398569
  },
  {
    "partId": 101478,
    "stateCode": "S12",
    "stateName": "Madhya Pradesh",
    "districtCode": "S1228",
    "districtName": "CHHINDWARA",
    "acNumber": 123,
    "acName": "AMARWARA",
    "partNumber": 157,
    "partName": "SALAIYABULAKI",
    "lat": 22.5300516,
    "lon": 79.05764514865771
  },
  {
    "partId": 101479,
    "stateCode": "S12",
    "stateName": "Madhya Pradesh",
    "districtCode": "S1228",
    "districtName": "CHHINDWARA",
    "acNumber": 123,
    "acName": "AMARWARA",
    "partNumber": 158,
    "partName": "BARAGI",
    "lat": 22.5300516,
    "lon": 79.05764514865771
  },
  {
    "partId": 101543,
    "stateCode": "S12",
    "stateName": "Madhya Pradesh",
    "districtCode": "S1228",
    "districtName": "CHHINDWARA",
    "acNumber": 123,
    "acName": "AMARWARA",
    "partNumber": 159,
    "partName": "BICHHUA",
    "lat": 21.8223762,
    "lon": 79.03897886924571
  },
  {
    "partId": 101480,
    "stateCode": "S12",
    "stateName": "Madhya Pradesh",
    "districtCode": "S1228",
    "districtName": "CHHINDWARA",
    "acNumber": 123,
    "acName": "AMARWARA",
    "partNumber": 160,
    "partName": "MUARSANI",
    "lat": 22.5300516,
    "lon": 79.05764514865771
  },
  {
    "partId": 101368,
    "stateCode": "S12",
    "stateName": "Madhya Pradesh",
    "districtCode": "S1228",
    "districtName": "CHHINDWARA",
    "acNumber": 123,
    "acName": "AMARWARA",
    "partNumber": 161,
    "partName": "SATHIYA",
    "lat": 22.56112845,
    "lon": 79.15062097541383
  },
  {
    "partId": 101369,
    "stateCode": "S12",
    "stateName": "Madhya Pradesh",
    "districtCode": "S1228",
    "districtName": "CHHINDWARA",
    "acNumber": 123,
    "acName": "AMARWARA",
    "partNumber": 162,
    "partName": "BARUL",
    "lat": 22.565709249999998,
    "lon": 79.16998548884706
  },
  {
    "partId": 101370,
    "stateCode": "S12",
    "stateName": "Madhya Pradesh",
    "districtCode": "S1228",
    "districtName": "CHHINDWARA",
    "acNumber": 123,
    "acName": "AMARWARA",
    "partNumber": 163,
    "partName": "SAJAVA",
    "lat": 22.5300516,
    "lon": 79.05764514865771
  },
  {
    "partId": 101371,
    "stateCode": "S12",
    "stateName": "Madhya Pradesh",
    "districtCode": "S1228",
    "districtName": "CHHINDWARA",
    "acNumber": 123,
    "acName": "AMARWARA",
    "partNumber": 164,
    "partName": "KARAHAIYA",
    "lat": 22.5300516,
    "lon": 79.05764514865771
  },
  {
    "partId": 100560,
    "stateCode": "S12",
    "stateName": "Madhya Pradesh",
    "districtCode": "S1228",
    "districtName": "CHHINDWARA",
    "acNumber": 123,
    "acName": "AMARWARA",
    "partNumber": 165,
    "partName": "RAJADHANA",
    "lat": 22.5300516,
    "lon": 79.05764514865771
  },
  {
    "partId": 101396,
    "stateCode": "S12",
    "stateName": "Madhya Pradesh",
    "districtCode": "S1228",
    "districtName": "CHHINDWARA",
    "acNumber": 123,
    "acName": "AMARWARA",
    "partNumber": 166,
    "partName": "BANDABOH",
    "lat": 22.570235099999998,
    "lon": 79.22188538189803
  },
  {
    "partId": 101372,
    "stateCode": "S12",
    "stateName": "Madhya Pradesh",
    "districtCode": "S1228",
    "districtName": "CHHINDWARA",
    "acNumber": 123,
    "acName": "AMARWARA",
    "partNumber": 167,
    "partName": "HADAI",
    "lat": 22.5300516,
    "lon": 79.05764514865771
  },
  {
    "partId": 101530,
    "stateCode": "S12",
    "stateName": "Madhya Pradesh",
    "districtCode": "S1228",
    "districtName": "CHHINDWARA",
    "acNumber": 123,
    "acName": "AMARWARA",
    "partNumber": 168,
    "partName": "HADAI",
    "lat": 22.5300516,
    "lon": 79.05764514865771
  },
  {
    "partId": 101373,
    "stateCode": "S12",
    "stateName": "Madhya Pradesh",
    "districtCode": "S1228",
    "districtName": "CHHINDWARA",
    "acNumber": 123,
    "acName": "AMARWARA",
    "partNumber": 169,
    "partName": "BASURIYA KHURD",
    "lat": 22.481438251687116,
    "lon": 79.05906294770432
  },
  {
    "partId": 101374,
    "stateCode": "S12",
    "stateName": "Madhya Pradesh",
    "districtCode": "S1228",
    "districtName": "CHHINDWARA",
    "acNumber": 123,
    "acName": "AMARWARA",
    "partNumber": 170,
    "partName": "CHHATA KALA",
    "lat": 22.481438251687116,
    "lon": 79.05906294770432
  },
  {
    "partId": 101375,
    "stateCode": "S12",
    "stateName": "Madhya Pradesh",
    "districtCode": "S1228",
    "districtName": "CHHINDWARA",
    "acNumber": 123,
    "acName": "AMARWARA",
    "partNumber": 171,
    "partName": "KOHPANI",
    "lat": 22.595903749999998,
    "lon": 79.01079006478045
  },
  {
    "partId": 101529,
    "stateCode": "S12",
    "stateName": "Madhya Pradesh",
    "districtCode": "S1228",
    "districtName": "CHHINDWARA",
    "acNumber": 123,
    "acName": "AMARWARA",
    "partNumber": 172,
    "partName": "MEDKI",
    "lat": 22.5300516,
    "lon": 79.05764514865771
  },
  {
    "partId": 101376,
    "stateCode": "S12",
    "stateName": "Madhya Pradesh",
    "districtCode": "S1228",
    "districtName": "CHHINDWARA",
    "acNumber": 123,
    "acName": "AMARWARA",
    "partNumber": 173,
    "partName": "GUNGUCH",
    "lat": 22.537460099999997,
    "lon": 79.3023371714718
  },
  {
    "partId": 101377,
    "stateCode": "S12",
    "stateName": "Madhya Pradesh",
    "districtCode": "S1228",
    "districtName": "CHHINDWARA",
    "acNumber": 123,
    "acName": "AMARWARA",
    "partNumber": 174,
    "partName": "DHARMI",
    "lat": 22.518780749999998,
    "lon": 79.3074413823357
  },
  {
    "partId": 101378,
    "stateCode": "S12",
    "stateName": "Madhya Pradesh",
    "districtCode": "S1228",
    "districtName": "CHHINDWARA",
    "acNumber": 123,
    "acName": "AMARWARA",
    "partNumber": 175,
    "partName": "GOURPANI",
    "lat": 22.481438251687116,
    "lon": 79.05906294770432
  },
  {
    "partId": 101379,
    "stateCode": "S12",
    "stateName": "Madhya Pradesh",
    "districtCode": "S1228",
    "districtName": "CHHINDWARA",
    "acNumber": 123,
    "acName": "AMARWARA",
    "partNumber": 176,
    "partName": "KARER",
    "lat": 22.61034085,
    "lon": 78.50942932817874
  },
  {
    "partId": 100546,
    "stateCode": "S12",
    "stateName": "Madhya Pradesh",
    "districtCode": "S1228",
    "districtName": "CHHINDWARA",
    "acNumber": 123,
    "acName": "AMARWARA",
    "partNumber": 177,
    "partName": "KAMKASUR",
    "lat": 22.484220399999998,
    "lon": 79.26029020647236
  },
  {
    "partId": 101380,
    "stateCode": "S12",
    "stateName": "Madhya Pradesh",
    "districtCode": "S1228",
    "districtName": "CHHINDWARA",
    "acNumber": 123,
    "acName": "AMARWARA",
    "partNumber": 178,
    "partName": "BUDHAINA",
    "lat": 22.5300516,
    "lon": 79.05764514865771
  },
  {
    "partId": 101381,
    "stateCode": "S12",
    "stateName": "Madhya Pradesh",
    "districtCode": "S1228",
    "districtName": "CHHINDWARA",
    "acNumber": 123,
    "acName": "AMARWARA",
    "partNumber": 179,
    "partName": "BARATAMARI",
    "lat": 22.5300516,
    "lon": 79.05764514865771
  },
  {
    "partId": 101382,
    "stateCode": "S12",
    "stateName": "Madhya Pradesh",
    "districtCode": "S1228",
    "districtName": "CHHINDWARA",
    "acNumber": 123,
    "acName": "AMARWARA",
    "partNumber": 180,
    "partName": "JAMUNIYA",
    "lat": 22.481438251687116,
    "lon": 79.05906294770432
  },
  {
    "partId": 101383,
    "stateCode": "S12",
    "stateName": "Madhya Pradesh",
    "districtCode": "S1228",
    "districtName": "CHHINDWARA",
    "acNumber": 123,
    "acName": "AMARWARA",
    "partNumber": 181,
    "partName": "KARAPATHA",
    "lat": 22.4771939,
    "lon": 79.17583342074697
  },
  {
    "partId": 100547,
    "stateCode": "S12",
    "stateName": "Madhya Pradesh",
    "districtCode": "S1228",
    "districtName": "CHHINDWARA",
    "acNumber": 123,
    "acName": "AMARWARA",
    "partNumber": 182,
    "partName": "SEJAVADA KALA",
    "lat": 22.5300516,
    "lon": 79.05764514865771
  },
  {
    "partId": 101528,
    "stateCode": "S12",
    "stateName": "Madhya Pradesh",
    "districtCode": "S1228",
    "districtName": "CHHINDWARA",
    "acNumber": 123,
    "acName": "AMARWARA",
    "partNumber": 183,
    "partName": "SEJAVADA KALA",
    "lat": 22.5300516,
    "lon": 79.05764514865771
  },
  {
    "partId": 101384,
    "stateCode": "S12",
    "stateName": "Madhya Pradesh",
    "districtCode": "S1228",
    "districtName": "CHHINDWARA",
    "acNumber": 123,
    "acName": "AMARWARA",
    "partNumber": 184,
    "partName": "TINSAI",
    "lat": 22.5300516,
    "lon": 79.05764514865771
  },
  {
    "partId": 101385,
    "stateCode": "S12",
    "stateName": "Madhya Pradesh",
    "districtCode": "S1228",
    "districtName": "CHHINDWARA",
    "acNumber": 123,
    "acName": "AMARWARA",
    "partNumber": 185,
    "partName": "SURLAKHAPA",
    "lat": 22.5300516,
    "lon": 79.05764514865771
  },
  {
    "partId": 101527,
    "stateCode": "S12",
    "stateName": "Madhya Pradesh",
    "districtCode": "S1228",
    "districtName": "CHHINDWARA",
    "acNumber": 123,
    "acName": "AMARWARA",
    "partNumber": 186,
    "partName": "SURLAKHAPA",
    "lat": 22.481438251687116,
    "lon": 79.05906294770432
  },
  {
    "partId": 101386,
    "stateCode": "S12",
    "stateName": "Madhya Pradesh",
    "districtCode": "S1228",
    "districtName": "CHHINDWARA",
    "acNumber": 123,
    "acName": "AMARWARA",
    "partNumber": 187,
    "partName": "KHAPA",
    "lat": 22.636927,
    "lon": 78.70868215657839
  },
  {
    "partId": 101387,
    "stateCode": "S12",
    "stateName": "Madhya Pradesh",
    "districtCode": "S1228",
    "districtName": "CHHINDWARA",
    "acNumber": 123,
    "acName": "AMARWARA",
    "partNumber": 188,
    "partName": "BICHHUA",
    "lat": 22.481438251687116,
    "lon": 79.05906294770432
  },
  {
    "partId": 101388,
    "stateCode": "S12",
    "stateName": "Madhya Pradesh",
    "districtCode": "S1228",
    "districtName": "CHHINDWARA",
    "acNumber": 123,
    "acName": "AMARWARA",
    "partNumber": 189,
    "partName": "SIMARIYA MULTANI",
    "lat": 22.481438251687116,
    "lon": 79.05906294770432
  },
  {
    "partId": 101389,
    "stateCode": "S12",
    "stateName": "Madhya Pradesh",
    "districtCode": "S1228",
    "districtName": "CHHINDWARA",
    "acNumber": 123,
    "acName": "AMARWARA",
    "partNumber": 190,
    "partName": "JUNGAVANI",
    "lat": 22.5300516,
    "lon": 79.05764514865771
  },
  {
    "partId": 100454,
    "stateCode": "S12",
    "stateName": "Madhya Pradesh",
    "districtCode": "S1228",
    "districtName": "CHHINDWARA",
    "acNumber": 123,
    "acName": "AMARWARA",
    "partNumber": 191,
    "partName": "GADHADARAYAV",
    "lat": 22.5300516,
    "lon": 79.05764514865771
  },
  {
    "partId": 100455,
    "stateCode": "S12",
    "stateName": "Madhya Pradesh",
    "districtCode": "S1228",
    "districtName": "CHHINDWARA",
    "acNumber": 123,
    "acName": "AMARWARA",
    "partNumber": 192,
    "partName": "HIRRI",
    "lat": 22.37134405,
    "lon": 79.14254042772305
  },
  {
    "partId": 100561,
    "stateCode": "S12",
    "stateName": "Madhya Pradesh",
    "districtCode": "S1228",
    "districtName": "CHHINDWARA",
    "acNumber": 123,
    "acName": "AMARWARA",
    "partNumber": 193,
    "partName": "GADARWADA",
    "lat": 22.5300516,
    "lon": 79.05764514865771
  },
  {
    "partId": 100460,
    "stateCode": "S12",
    "stateName": "Madhya Pradesh",
    "districtCode": "S1228",
    "districtName": "CHHINDWARA",
    "acNumber": 123,
    "acName": "AMARWARA",
    "partNumber": 194,
    "partName": "RICHHEDA",
    "lat": 22.5300516,
    "lon": 79.05764514865771
  },
  {
    "partId": 101526,
    "stateCode": "S12",
    "stateName": "Madhya Pradesh",
    "districtCode": "S1228",
    "districtName": "CHHINDWARA",
    "acNumber": 123,
    "acName": "AMARWARA",
    "partNumber": 195,
    "partName": "JILHERI",
    "lat": 22.3945582,
    "lon": 79.10649239260923
  },
  {
    "partId": 100461,
    "stateCode": "S12",
    "stateName": "Madhya Pradesh",
    "districtCode": "S1228",
    "districtName": "CHHINDWARA",
    "acNumber": 123,
    "acName": "AMARWARA",
    "partNumber": 196,
    "partName": "LAHAGADUA",
    "lat": 22.3643747,
    "lon": 79.0780879
  },
  {
    "partId": 100570,
    "stateCode": "S12",
    "stateName": "Madhya Pradesh",
    "districtCode": "S1228",
    "districtName": "CHHINDWARA",
    "acNumber": 123,
    "acName": "AMARWARA",
    "partNumber": 197,
    "partName": "LAHAGADUA",
    "lat": 22.3643747,
    "lon": 79.0780879
  },
  {
    "partId": 100462,
    "stateCode": "S12",
    "stateName": "Madhya Pradesh",
    "districtCode": "S1228",
    "districtName": "CHHINDWARA",
    "acNumber": 123,
    "acName": "AMARWARA",
    "partNumber": 198,
    "partName": "RANGAPUR",
    "lat": 22.5300516,
    "lon": 79.05764514865771
  },
  {
    "partId": 100463,
    "stateCode": "S12",
    "stateName": "Madhya Pradesh",
    "districtCode": "S1228",
    "districtName": "CHHINDWARA",
    "acNumber": 123,
    "acName": "AMARWARA",
    "partNumber": 199,
    "partName": "NANDAN VADI",
    "lat": 22.5300516,
    "lon": 79.05764514865771
  },
  {
    "partId": 100464,
    "stateCode": "S12",
    "stateName": "Madhya Pradesh",
    "districtCode": "S1228",
    "districtName": "CHHINDWARA",
    "acNumber": 123,
    "acName": "AMARWARA",
    "partNumber": 200,
    "partName": "PURATALA KALA",
    "lat": 22.5300516,
    "lon": 79.05764514865771
  },
  {
    "partId": 101401,
    "stateCode": "S12",
    "stateName": "Madhya Pradesh",
    "districtCode": "S1228",
    "districtName": "CHHINDWARA",
    "acNumber": 123,
    "acName": "AMARWARA",
    "partNumber": 201,
    "partName": "PATHARAKATEE",
    "lat": 22.5300516,
    "lon": 79.05764514865771
  },
  {
    "partId": 101402,
    "stateCode": "S12",
    "stateName": "Madhya Pradesh",
    "districtCode": "S1228",
    "districtName": "CHHINDWARA",
    "acNumber": 123,
    "acName": "AMARWARA",
    "partNumber": 202,
    "partName": "SONPUR",
    "lat": 22.622111250000003,
    "lon": 79.20567367569706
  },
  {
    "partId": 101488,
    "stateCode": "S12",
    "stateName": "Madhya Pradesh",
    "districtCode": "S1228",
    "districtName": "CHHINDWARA",
    "acNumber": 123,
    "acName": "AMARWARA",
    "partNumber": 203,
    "partName": "SONPUR",
    "lat": 22.622111250000003,
    "lon": 79.20567367569706
  },
  {
    "partId": 101403,
    "stateCode": "S12",
    "stateName": "Madhya Pradesh",
    "districtCode": "S1228",
    "districtName": "CHHINDWARA",
    "acNumber": 123,
    "acName": "AMARWARA",
    "partNumber": 204,
    "partName": "PIPARAPANI",
    "lat": 22.5300516,
    "lon": 79.05764514865771
  },
  {
    "partId": 101404,
    "stateCode": "S12",
    "stateName": "Madhya Pradesh",
    "districtCode": "S1228",
    "districtName": "CHHINDWARA",
    "acNumber": 123,
    "acName": "AMARWARA",
    "partNumber": 205,
    "partName": "DHODAKUHI",
    "lat": 22.481438251687116,
    "lon": 79.05906294770432
  },
  {
    "partId": 101405,
    "stateCode": "S12",
    "stateName": "Madhya Pradesh",
    "districtCode": "S1228",
    "districtName": "CHHINDWARA",
    "acNumber": 123,
    "acName": "AMARWARA",
    "partNumber": 206,
    "partName": "KAHUA",
    "lat": 22.481438251687116,
    "lon": 79.05906294770432
  },
  {
    "partId": 101395,
    "stateCode": "S12",
    "stateName": "Madhya Pradesh",
    "districtCode": "S1228",
    "districtName": "CHHINDWARA",
    "acNumber": 123,
    "acName": "AMARWARA",
    "partNumber": 207,
    "partName": "KAHUA",
    "lat": 22.33018095,
    "lon": 78.93695709347432
  },
  {
    "partId": 100571,
    "stateCode": "S12",
    "stateName": "Madhya Pradesh",
    "districtCode": "S1228",
    "districtName": "CHHINDWARA",
    "acNumber": 123,
    "acName": "AMARWARA",
    "partNumber": 208,
    "partName": "SAJAVA",
    "lat": 22.5300516,
    "lon": 79.05764514865771
  },
  {
    "partId": 101406,
    "stateCode": "S12",
    "stateName": "Madhya Pradesh",
    "districtCode": "S1228",
    "districtName": "CHHINDWARA",
    "acNumber": 123,
    "acName": "AMARWARA",
    "partNumber": 209,
    "partName": "DIGHAVANI",
    "lat": 22.5300516,
    "lon": 79.05764514865771
  },
  {
    "partId": 101407,
    "stateCode": "S12",
    "stateName": "Madhya Pradesh",
    "districtCode": "S1228",
    "districtName": "CHHINDWARA",
    "acNumber": 123,
    "acName": "AMARWARA",
    "partNumber": 210,
    "partName": "SEJAVADA KHURD",
    "lat": 22.5300516,
    "lon": 79.05764514865771
  },
  {
    "partId": 101442,
    "stateCode": "S12",
    "stateName": "Madhya Pradesh",
    "districtCode": "S1228",
    "districtName": "CHHINDWARA",
    "acNumber": 123,
    "acName": "AMARWARA",
    "partNumber": 211,
    "partName": "UMARIYA",
    "lat": 22.2095772,
    "lon": 79.28866381817387
  },
  {
    "partId": 101394,
    "stateCode": "S12",
    "stateName": "Madhya Pradesh",
    "districtCode": "S1228",
    "districtName": "CHHINDWARA",
    "acNumber": 123,
    "acName": "AMARWARA",
    "partNumber": 212,
    "partName": "LAATGAON",
    "lat": 22.5300516,
    "lon": 79.05764514865771
  },
  {
    "partId": 101408,
    "stateCode": "S12",
    "stateName": "Madhya Pradesh",
    "districtCode": "S1228",
    "districtName": "CHHINDWARA",
    "acNumber": 123,
    "acName": "AMARWARA",
    "partNumber": 213,
    "partName": "BANKI",
    "lat": 22.31052705,
    "lon": 79.02052575360781
  },
  {
    "partId": 101409,
    "stateCode": "S12",
    "stateName": "Madhya Pradesh",
    "districtCode": "S1228",
    "districtName": "CHHINDWARA",
    "acNumber": 123,
    "acName": "AMARWARA",
    "partNumber": 214,
    "partName": "BAHERIYA",
    "lat": 22.29258635,
    "lon": 79.00618573876255
  },
  {
    "partId": 101410,
    "stateCode": "S12",
    "stateName": "Madhya Pradesh",
    "districtCode": "S1228",
    "districtName": "CHHINDWARA",
    "acNumber": 123,
    "acName": "AMARWARA",
    "partNumber": 215,
    "partName": "CHARANAKHAPA",
    "lat": 22.5300516,
    "lon": 79.05764514865771
  },
  {
    "partId": 100453,
    "stateCode": "S12",
    "stateName": "Madhya Pradesh",
    "districtCode": "S1228",
    "districtName": "CHHINDWARA",
    "acNumber": 123,
    "acName": "AMARWARA",
    "partNumber": 216,
    "partName": "KOLHIYA",
    "lat": 22.658926450000003,
    "lon": 79.1300824654962
  },
  {
    "partId": 100574,
    "stateCode": "S12",
    "stateName": "Madhya Pradesh",
    "districtCode": "S1228",
    "districtName": "CHHINDWARA",
    "acNumber": 123,
    "acName": "AMARWARA",
    "partNumber": 217,
    "partName": "MANDANAGADH",
    "lat": 22.5300516,
    "lon": 79.05764514865771
  },
  {
    "partId": 100575,
    "stateCode": "S12",
    "stateName": "Madhya Pradesh",
    "districtCode": "S1228",
    "districtName": "CHHINDWARA",
    "acNumber": 123,
    "acName": "AMARWARA",
    "partNumber": 218,
    "partName": "DHADHARA",
    "lat": 22.5300516,
    "lon": 79.05764514865771
  },
  {
    "partId": 100576,
    "stateCode": "S12",
    "stateName": "Madhya Pradesh",
    "districtCode": "S1228",
    "districtName": "CHHINDWARA",
    "acNumber": 123,
    "acName": "AMARWARA",
    "partNumber": 219,
    "partName": "RAHIVADA",
    "lat": 22.5300516,
    "lon": 79.05764514865771
  },
  {
    "partId": 100572,
    "stateCode": "S12",
    "stateName": "Madhya Pradesh",
    "districtCode": "S1228",
    "districtName": "CHHINDWARA",
    "acNumber": 123,
    "acName": "AMARWARA",
    "partNumber": 220,
    "partName": "MOHALI",
    "lat": 22.5300516,
    "lon": 79.05764514865771
  },
  {
    "partId": 100577,
    "stateCode": "S12",
    "stateName": "Madhya Pradesh",
    "districtCode": "S1228",
    "districtName": "CHHINDWARA",
    "acNumber": 123,
    "acName": "AMARWARA",
    "partNumber": 221,
    "partName": "LACHHUA",
    "lat": 22.5300516,
    "lon": 79.05764514865771
  },
  {
    "partId": 100436,
    "stateCode": "S12",
    "stateName": "Madhya Pradesh",
    "districtCode": "S1228",
    "districtName": "CHHINDWARA",
    "acNumber": 123,
    "acName": "AMARWARA",
    "partNumber": 222,
    "partName": "SALIVADA SANI",
    "lat": 22.5300516,
    "lon": 79.05764514865771
  },
  {
    "partId": 100437,
    "stateCode": "S12",
    "stateName": "Madhya Pradesh",
    "districtCode": "S1228",
    "districtName": "CHHINDWARA",
    "acNumber": 123,
    "acName": "AMARWARA",
    "partNumber": 223,
    "partName": "BADEGANV",
    "lat": 22.5300516,
    "lon": 79.05764514865771
  },
  {
    "partId": 100438,
    "stateCode": "S12",
    "stateName": "Madhya Pradesh",
    "districtCode": "S1228",
    "districtName": "CHHINDWARA",
    "acNumber": 123,
    "acName": "AMARWARA",
    "partNumber": 224,
    "partName": "GADHACHHOTA",
    "lat": 22.5300516,
    "lon": 79.05764514865771
  },
  {
    "partId": 100439,
    "stateCode": "S12",
    "stateName": "Madhya Pradesh",
    "districtCode": "S1228",
    "districtName": "CHHINDWARA",
    "acNumber": 123,
    "acName": "AMARWARA",
    "partNumber": 225,
    "partName": "BABAI",
    "lat": 22.1997769,
    "lon": 78.95267955503239
  },
  {
    "partId": 100440,
    "stateCode": "S12",
    "stateName": "Madhya Pradesh",
    "districtCode": "S1228",
    "districtName": "CHHINDWARA",
    "acNumber": 123,
    "acName": "AMARWARA",
    "partNumber": 226,
    "partName": "PATANIYA",
    "lat": 22.65758925,
    "lon": 79.17572585302702
  },
  {
    "partId": 100441,
    "stateCode": "S12",
    "stateName": "Madhya Pradesh",
    "districtCode": "S1228",
    "districtName": "CHHINDWARA",
    "acNumber": 123,
    "acName": "AMARWARA",
    "partNumber": 227,
    "partName": "BANKAMUKASA",
    "lat": 22.189764699999998,
    "lon": 79.02366171235816
  },
  {
    "partId": 101487,
    "stateCode": "S12",
    "stateName": "Madhya Pradesh",
    "districtCode": "S1228",
    "districtName": "CHHINDWARA",
    "acNumber": 123,
    "acName": "AMARWARA",
    "partNumber": 228,
    "partName": "BANKAMUKASA",
    "lat": 22.189764699999998,
    "lon": 79.02366171235816
  },
  {
    "partId": 100578,
    "stateCode": "S12",
    "stateName": "Madhya Pradesh",
    "districtCode": "S1228",
    "districtName": "CHHINDWARA",
    "acNumber": 123,
    "acName": "AMARWARA",
    "partNumber": 229,
    "partName": "BHAJIYA",
    "lat": 22.2142271,
    "lon": 79.0301223
  },
  {
    "partId": 100538,
    "stateCode": "S12",
    "stateName": "Madhya Pradesh",
    "districtCode": "S1228",
    "districtName": "CHHINDWARA",
    "acNumber": 123,
    "acName": "AMARWARA",
    "partNumber": 230,
    "partName": "SINGODI",
    "lat": 22.1919288,
    "lon": 79.0565899
  },
  {
    "partId": 100569,
    "stateCode": "S12",
    "stateName": "Madhya Pradesh",
    "districtCode": "S1228",
    "districtName": "CHHINDWARA",
    "acNumber": 123,
    "acName": "AMARWARA",
    "partNumber": 231,
    "partName": "SINGODI",
    "lat": 22.1919288,
    "lon": 79.0565899
  },
  {
    "partId": 100579,
    "stateCode": "S12",
    "stateName": "Madhya Pradesh",
    "districtCode": "S1228",
    "districtName": "CHHINDWARA",
    "acNumber": 123,
    "acName": "AMARWARA",
    "partNumber": 232,
    "partName": "SINGODI",
    "lat": 22.1919288,
    "lon": 79.0565899
  },
  {
    "partId": 100568,
    "stateCode": "S12",
    "stateName": "Madhya Pradesh",
    "districtCode": "S1228",
    "districtName": "CHHINDWARA",
    "acNumber": 123,
    "acName": "AMARWARA",
    "partNumber": 233,
    "partName": "SINGODI",
    "lat": 22.1919288,
    "lon": 79.0565899
  },
  {
    "partId": 100573,
    "stateCode": "S12",
    "stateName": "Madhya Pradesh",
    "districtCode": "S1228",
    "districtName": "CHHINDWARA",
    "acNumber": 123,
    "acName": "AMARWARA",
    "partNumber": 234,
    "partName": "KATIYADHANA(RAJANGAON)",
    "lat": 22.5300516,
    "lon": 79.05764514865771
  },
  {
    "partId": 101544,
    "stateCode": "S12",
    "stateName": "Madhya Pradesh",
    "districtCode": "S1228",
    "districtName": "CHHINDWARA",
    "acNumber": 123,
    "acName": "AMARWARA",
    "partNumber": 235,
    "partName": "RAJOLA",
    "lat": 22.508003100000003,
    "lon": 78.73689250300748
  },
  {
    "partId": 100580,
    "stateCode": "S12",
    "stateName": "Madhya Pradesh",
    "districtCode": "S1228",
    "districtName": "CHHINDWARA",
    "acNumber": 123,
    "acName": "AMARWARA",
    "partNumber": 236,
    "partName": "RAJOLA",
    "lat": 22.508003100000003,
    "lon": 78.73689250300748
  },
  {
    "partId": 100581,
    "stateCode": "S12",
    "stateName": "Madhya Pradesh",
    "districtCode": "S1228",
    "districtName": "CHHINDWARA",
    "acNumber": 123,
    "acName": "AMARWARA",
    "partNumber": 237,
    "partName": "NANDAAIRA",
    "lat": 22.5300516,
    "lon": 79.05764514865771
  },
  {
    "partId": 101486,
    "stateCode": "S12",
    "stateName": "Madhya Pradesh",
    "districtCode": "S1228",
    "districtName": "CHHINDWARA",
    "acNumber": 123,
    "acName": "AMARWARA",
    "partNumber": 238,
    "partName": "KUBADI",
    "lat": 22.481438251687116,
    "lon": 79.05906294770432
  },
  {
    "partId": 101545,
    "stateCode": "S12",
    "stateName": "Madhya Pradesh",
    "districtCode": "S1228",
    "districtName": "CHHINDWARA",
    "acNumber": 123,
    "acName": "AMARWARA",
    "partNumber": 239,
    "partName": "DHABAI",
    "lat": 22.5300516,
    "lon": 79.05764514865771
  },
  {
    "partId": 100582,
    "stateCode": "S12",
    "stateName": "Madhya Pradesh",
    "districtCode": "S1228",
    "districtName": "CHHINDWARA",
    "acNumber": 123,
    "acName": "AMARWARA",
    "partNumber": 240,
    "partName": "NANDORI",
    "lat": 22.24247655,
    "lon": 79.06038960758369
  },
  {
    "partId": 100583,
    "stateCode": "S12",
    "stateName": "Madhya Pradesh",
    "districtCode": "S1228",
    "districtName": "CHHINDWARA",
    "acNumber": 123,
    "acName": "AMARWARA",
    "partNumber": 241,
    "partName": "GHATAPIPARIYA",
    "lat": 22.5300516,
    "lon": 79.05764514865771
  },
  {
    "partId": 100584,
    "stateCode": "S12",
    "stateName": "Madhya Pradesh",
    "districtCode": "S1228",
    "districtName": "CHHINDWARA",
    "acNumber": 123,
    "acName": "AMARWARA",
    "partNumber": 242,
    "partName": "TENDANI MAL",
    "lat": 22.5300516,
    "lon": 79.05764514865771
  },
  {
    "partId": 101485,
    "stateCode": "S12",
    "stateName": "Madhya Pradesh",
    "districtCode": "S1228",
    "districtName": "CHHINDWARA",
    "acNumber": 123,
    "acName": "AMARWARA",
    "partNumber": 243,
    "partName": "CHIMOUA",
    "lat": 22.5300516,
    "lon": 79.05764514865771
  },
  {
    "partId": 100585,
    "stateCode": "S12",
    "stateName": "Madhya Pradesh",
    "districtCode": "S1228",
    "districtName": "CHHINDWARA",
    "acNumber": 123,
    "acName": "AMARWARA",
    "partNumber": 244,
    "partName": "PINDARAIDABIR",
    "lat": 22.5300516,
    "lon": 79.05764514865771
  },
  {
    "partId": 100586,
    "stateCode": "S12",
    "stateName": "Madhya Pradesh",
    "districtCode": "S1228",
    "districtName": "CHHINDWARA",
    "acNumber": 123,
    "acName": "AMARWARA",
    "partNumber": 245,
    "partName": "KHAKARACHAUR\u00a7",
    "lat": 22.5300516,
    "lon": 79.05764514865771
  },
  {
    "partId": 101523,
    "stateCode": "S12",
    "stateName": "Madhya Pradesh",
    "districtCode": "S1228",
    "districtName": "CHHINDWARA",
    "acNumber": 123,
    "acName": "AMARWARA",
    "partNumber": 246,
    "partName": "KHAKARACHAUR\u00a7",
    "lat": 22.5300516,
    "lon": 79.05764514865771
  },
  {
    "partId": 100587,
    "stateCode": "S12",
    "stateName": "Madhya Pradesh",
    "districtCode": "S1228",
    "districtName": "CHHINDWARA",
    "acNumber": 123,
    "acName": "AMARWARA",
    "partNumber": 247,
    "partName": "MAHENDRAVADA",
    "lat": 22.5300516,
    "lon": 79.05764514865771
  },
  {
    "partId": 100588,
    "stateCode": "S12",
    "stateName": "Madhya Pradesh",
    "districtCode": "S1228",
    "districtName": "CHHINDWARA",
    "acNumber": 123,
    "acName": "AMARWARA",
    "partNumber": 248,
    "partName": "GURAIYA",
    "lat": 22.08407095,
    "lon": 79.2520146666796
  },
  {
    "partId": 100589,
    "stateCode": "S12",
    "stateName": "Madhya Pradesh",
    "districtCode": "S1228",
    "districtName": "CHHINDWARA",
    "acNumber": 123,
    "acName": "AMARWARA",
    "partNumber": 249,
    "partName": "KHAMIHIRA",
    "lat": 22.2089518,
    "lon": 79.11576995170657
  },
  {
    "partId": 100590,
    "stateCode": "S12",
    "stateName": "Madhya Pradesh",
    "districtCode": "S1228",
    "districtName": "CHHINDWARA",
    "acNumber": 123,
    "acName": "AMARWARA",
    "partNumber": 250,
    "partName": "BAGALA MAL",
    "lat": 22.5300516,
    "lon": 79.05764514865771
  },
  {
    "partId": 101472,
    "stateCode": "S12",
    "stateName": "Madhya Pradesh",
    "districtCode": "S1228",
    "districtName": "CHHINDWARA",
    "acNumber": 123,
    "acName": "AMARWARA",
    "partNumber": 251,
    "partName": "MANEGANV",
    "lat": 22.481438251687116,
    "lon": 79.05906294770432
  },
  {
    "partId": 101546,
    "stateCode": "S12",
    "stateName": "Madhya Pradesh",
    "districtCode": "S1228",
    "districtName": "CHHINDWARA",
    "acNumber": 123,
    "acName": "AMARWARA",
    "partNumber": 252,
    "partName": "NANDIYA",
    "lat": 22.2002675,
    "lon": 79.1574352
  },
  {
    "partId": 100591,
    "stateCode": "S12",
    "stateName": "Madhya Pradesh",
    "districtCode": "S1228",
    "districtName": "CHHINDWARA",
    "acNumber": 123,
    "acName": "AMARWARA",
    "partNumber": 253,
    "partName": "BANDRA",
    "lat": 22.481438251687116,
    "lon": 79.05906294770432
  },
  {
    "partId": 101547,
    "stateCode": "S12",
    "stateName": "Madhya Pradesh",
    "districtCode": "S1228",
    "districtName": "CHHINDWARA",
    "acNumber": 123,
    "acName": "AMARWARA",
    "partNumber": 254,
    "partName": "BANDARADHANA",
    "lat": 22.5300516,
    "lon": 79.05764514865771
  },
  {
    "partId": 100592,
    "stateCode": "S12",
    "stateName": "Madhya Pradesh",
    "districtCode": "S1228",
    "districtName": "CHHINDWARA",
    "acNumber": 123,
    "acName": "AMARWARA",
    "partNumber": 255,
    "partName": "PIPARIYA GUMANI",
    "lat": 22.481438251687116,
    "lon": 79.05906294770432
  },
  {
    "partId": 100593,
    "stateCode": "S12",
    "stateName": "Madhya Pradesh",
    "districtCode": "S1228",
    "districtName": "CHHINDWARA",
    "acNumber": 123,
    "acName": "AMARWARA",
    "partNumber": 256,
    "partName": "KHUSIRPAR",
    "lat": 22.5300516,
    "lon": 79.05764514865771
  },
  {
    "partId": 100539,
    "stateCode": "S12",
    "stateName": "Madhya Pradesh",
    "districtCode": "S1228",
    "districtName": "CHHINDWARA",
    "acNumber": 123,
    "acName": "AMARWARA",
    "partNumber": 257,
    "partName": "AKALAMA",
    "lat": 22.5300516,
    "lon": 79.05764514865771
  },
  {
    "partId": 101522,
    "stateCode": "S12",
    "stateName": "Madhya Pradesh",
    "districtCode": "S1228",
    "districtName": "CHHINDWARA",
    "acNumber": 123,
    "acName": "AMARWARA",
    "partNumber": 258,
    "partName": "DIVANGAON (VANGRAM)",
    "lat": 22.481438251687116,
    "lon": 79.05906294770432
  },
  {
    "partId": 101548,
    "stateCode": "S12",
    "stateName": "Madhya Pradesh",
    "districtCode": "S1228",
    "districtName": "CHHINDWARA",
    "acNumber": 123,
    "acName": "AMARWARA",
    "partNumber": 259,
    "partName": "BERAVAN",
    "lat": 22.5300516,
    "lon": 79.05764514865771
  },
  {
    "partId": 101329,
    "stateCode": "S12",
    "stateName": "Madhya Pradesh",
    "districtCode": "S1228",
    "districtName": "CHHINDWARA",
    "acNumber": 123,
    "acName": "AMARWARA",
    "partNumber": 260,
    "partName": "HATODA",
    "lat": 22.5300516,
    "lon": 79.05764514865771
  },
  {
    "partId": 101330,
    "stateCode": "S12",
    "stateName": "Madhya Pradesh",
    "districtCode": "S1228",
    "districtName": "CHHINDWARA",
    "acNumber": 123,
    "acName": "AMARWARA",
    "partNumber": 261,
    "partName": "JHAGADABOH",
    "lat": 22.5300516,
    "lon": 79.05764514865771
  },
  {
    "partId": 101331,
    "stateCode": "S12",
    "stateName": "Madhya Pradesh",
    "districtCode": "S1228",
    "districtName": "CHHINDWARA",
    "acNumber": 123,
    "acName": "AMARWARA",
    "partNumber": 262,
    "partName": "BARADHIYA",
    "lat": 22.5300516,
    "lon": 79.05764514865771
  },
  {
    "partId": 101332,
    "stateCode": "S12",
    "stateName": "Madhya Pradesh",
    "districtCode": "S1228",
    "districtName": "CHHINDWARA",
    "acNumber": 123,
    "acName": "AMARWARA",
    "partNumber": 263,
    "partName": "KUDAVARI",
    "lat": 22.5300516,
    "lon": 79.05764514865771
  },
  {
    "partId": 101333,
    "stateCode": "S12",
    "stateName": "Madhya Pradesh",
    "districtCode": "S1228",
    "districtName": "CHHINDWARA",
    "acNumber": 123,
    "acName": "AMARWARA",
    "partNumber": 264,
    "partName": "SARIYAPANI",
    "lat": 22.284413450000002,
    "lon": 79.07382526737896
  },
  {
    "partId": 101473,
    "stateCode": "S12",
    "stateName": "Madhya Pradesh",
    "districtCode": "S1228",
    "districtName": "CHHINDWARA",
    "acNumber": 123,
    "acName": "AMARWARA",
    "partNumber": 265,
    "partName": "RAPHA",
    "lat": 22.3000883,
    "lon": 79.0704794811846
  },
  {
    "partId": 101334,
    "stateCode": "S12",
    "stateName": "Madhya Pradesh",
    "districtCode": "S1228",
    "districtName": "CHHINDWARA",
    "acNumber": 123,
    "acName": "AMARWARA",
    "partNumber": 266,
    "partName": "CHANERI",
    "lat": 22.3011738,
    "lon": 79.1243222
  },
  {
    "partId": 101335,
    "stateCode": "S12",
    "stateName": "Madhya Pradesh",
    "districtCode": "S1228",
    "districtName": "CHHINDWARA",
    "acNumber": 123,
    "acName": "AMARWARA",
    "partNumber": 267,
    "partName": "CHIKHALEEMUKASA",
    "lat": 22.5300516,
    "lon": 79.05764514865771
  },
  {
    "partId": 101467,
    "stateCode": "S12",
    "stateName": "Madhya Pradesh",
    "districtCode": "S1228",
    "districtName": "CHHINDWARA",
    "acNumber": 123,
    "acName": "AMARWARA",
    "partNumber": 268,
    "partName": "HIWRASANI",
    "lat": 22.5300516,
    "lon": 79.05764514865771
  },
  {
    "partId": 101336,
    "stateCode": "S12",
    "stateName": "Madhya Pradesh",
    "districtCode": "S1228",
    "districtName": "CHHINDWARA",
    "acNumber": 123,
    "acName": "AMARWARA",
    "partNumber": 269,
    "partName": "KOPAKHEDA",
    "lat": 22.5300516,
    "lon": 79.05764514865771
  },
  {
    "partId": 101337,
    "stateCode": "S12",
    "stateName": "Madhya Pradesh",
    "districtCode": "S1228",
    "districtName": "CHHINDWARA",
    "acNumber": 123,
    "acName": "AMARWARA",
    "partNumber": 270,
    "partName": "PAUNARI",
    "lat": 21.96673775,
    "lon": 78.95215946887981
  },
  {
    "partId": 101338,
    "stateCode": "S12",
    "stateName": "Madhya Pradesh",
    "districtCode": "S1228",
    "districtName": "CHHINDWARA",
    "acNumber": 123,
    "acName": "AMARWARA",
    "partNumber": 271,
    "partName": "MAHALON",
    "lat": 22.5300516,
    "lon": 79.05764514865771
  },
  {
    "partId": 101339,
    "stateCode": "S12",
    "stateName": "Madhya Pradesh",
    "districtCode": "S1228",
    "districtName": "CHHINDWARA",
    "acNumber": 123,
    "acName": "AMARWARA",
    "partNumber": 272,
    "partName": "SARASADOL MAL",
    "lat": 22.5300516,
    "lon": 79.05764514865771
  },
  {
    "partId": 101340,
    "stateCode": "S12",
    "stateName": "Madhya Pradesh",
    "districtCode": "S1228",
    "districtName": "CHHINDWARA",
    "acNumber": 123,
    "acName": "AMARWARA",
    "partNumber": 273,
    "partName": "GHOGHARI",
    "lat": 22.481438251687116,
    "lon": 79.05906294770432
  },
  {
    "partId": 101341,
    "stateCode": "S12",
    "stateName": "Madhya Pradesh",
    "districtCode": "S1228",
    "districtName": "CHHINDWARA",
    "acNumber": 123,
    "acName": "AMARWARA",
    "partNumber": 274,
    "partName": "KHAMARA ADAKU",
    "lat": 22.5300516,
    "lon": 79.05764514865771
  },
  {
    "partId": 101342,
    "stateCode": "S12",
    "stateName": "Madhya Pradesh",
    "districtCode": "S1228",
    "districtName": "CHHINDWARA",
    "acNumber": 123,
    "acName": "AMARWARA",
    "partNumber": 275,
    "partName": "KHAIRI HAMIRA",
    "lat": 22.5300516,
    "lon": 79.05764514865771
  },
  {
    "partId": 101343,
    "stateCode": "S12",
    "stateName": "Madhya Pradesh",
    "districtCode": "S1228",
    "districtName": "CHHINDWARA",
    "acNumber": 123,
    "acName": "AMARWARA",
    "partNumber": 276,
    "partName": "JAMUNIYA BHURA",
    "lat": 22.5300516,
    "lon": 79.05764514865771
  },
  {
    "partId": 101344,
    "stateCode": "S12",
    "stateName": "Madhya Pradesh",
    "districtCode": "S1228",
    "districtName": "CHHINDWARA",
    "acNumber": 123,
    "acName": "AMARWARA",
    "partNumber": 277,
    "partName": "MOHALIBHARAT",
    "lat": 22.5300516,
    "lon": 79.05764514865771
  },
  {
    "partId": 101474,
    "stateCode": "S12",
    "stateName": "Madhya Pradesh",
    "districtCode": "S1228",
    "districtName": "CHHINDWARA",
    "acNumber": 123,
    "acName": "AMARWARA",
    "partNumber": 278,
    "partName": "KARABADOL",
    "lat": 22.5300516,
    "lon": 79.05764514865771
  },
  {
    "partId": 101345,
    "stateCode": "S12",
    "stateName": "Madhya Pradesh",
    "districtCode": "S1228",
    "districtName": "CHHINDWARA",
    "acNumber": 123,
    "acName": "AMARWARA",
    "partNumber": 279,
    "partName": "KONDARA",
    "lat": 22.5300516,
    "lon": 79.05764514865771
  },
  {
    "partId": 101346,
    "stateCode": "S12",
    "stateName": "Madhya Pradesh",
    "districtCode": "S1228",
    "districtName": "CHHINDWARA",
    "acNumber": 123,
    "acName": "AMARWARA",
    "partNumber": 280,
    "partName": "SEJA",
    "lat": 22.481438251687116,
    "lon": 79.05906294770432
  },
  {
    "partId": 101347,
    "stateCode": "S12",
    "stateName": "Madhya Pradesh",
    "districtCode": "S1228",
    "districtName": "CHHINDWARA",
    "acNumber": 123,
    "acName": "AMARWARA",
    "partNumber": 281,
    "partName": "PIPARIYABHARATI",
    "lat": 22.5300516,
    "lon": 79.05764514865771
  },
  {
    "partId": 101348,
    "stateCode": "S12",
    "stateName": "Madhya Pradesh",
    "districtCode": "S1228",
    "districtName": "CHHINDWARA",
    "acNumber": 123,
    "acName": "AMARWARA",
    "partNumber": 282,
    "partName": "BORIMAL",
    "lat": 22.5300516,
    "lon": 79.05764514865771
  },
  {
    "partId": 101521,
    "stateCode": "S12",
    "stateName": "Madhya Pradesh",
    "districtCode": "S1228",
    "districtName": "CHHINDWARA",
    "acNumber": 123,
    "acName": "AMARWARA",
    "partNumber": 283,
    "partName": "BABUTOLA",
    "lat": 22.3664704,
    "lon": 79.227215
  },
  {
    "partId": 101349,
    "stateCode": "S12",
    "stateName": "Madhya Pradesh",
    "districtCode": "S1228",
    "districtName": "CHHINDWARA",
    "acNumber": 123,
    "acName": "AMARWARA",
    "partNumber": 284,
    "partName": "DULARA",
    "lat": 22.37901305,
    "lon": 79.22035490501372
  },
  {
    "partId": 101350,
    "stateCode": "S12",
    "stateName": "Madhya Pradesh",
    "districtCode": "S1228",
    "districtName": "CHHINDWARA",
    "acNumber": 123,
    "acName": "AMARWARA",
    "partNumber": 285,
    "partName": "PETADEVARI",
    "lat": 22.5300516,
    "lon": 79.05764514865771
  },
  {
    "partId": 101351,
    "stateCode": "S12",
    "stateName": "Madhya Pradesh",
    "districtCode": "S1228",
    "districtName": "CHHINDWARA",
    "acNumber": 123,
    "acName": "AMARWARA",
    "partNumber": 286,
    "partName": "JAVAHARAGANV VANAGRAM",
    "lat": 22.5300516,
    "lon": 79.05764514865771
  },
  {
    "partId": 101352,
    "stateCode": "S12",
    "stateName": "Madhya Pradesh",
    "districtCode": "S1228",
    "districtName": "CHHINDWARA",
    "acNumber": 123,
    "acName": "AMARWARA",
    "partNumber": 287,
    "partName": "BANDHANI",
    "lat": 22.404020600000003,
    "lon": 79.19738090191929
  },
  {
    "partId": 101353,
    "stateCode": "S12",
    "stateName": "Madhya Pradesh",
    "districtCode": "S1228",
    "districtName": "CHHINDWARA",
    "acNumber": 123,
    "acName": "AMARWARA",
    "partNumber": 288,
    "partName": "CHURAKA",
    "lat": 22.5300516,
    "lon": 79.05764514865771
  },
  {
    "partId": 101354,
    "stateCode": "S12",
    "stateName": "Madhya Pradesh",
    "districtCode": "S1228",
    "districtName": "CHHINDWARA",
    "acNumber": 123,
    "acName": "AMARWARA",
    "partNumber": 289,
    "partName": "JUNGAVADA",
    "lat": 22.5300516,
    "lon": 79.05764514865771
  },
  {
    "partId": 101355,
    "stateCode": "S12",
    "stateName": "Madhya Pradesh",
    "districtCode": "S1228",
    "districtName": "CHHINDWARA",
    "acNumber": 123,
    "acName": "AMARWARA",
    "partNumber": 290,
    "partName": "THANVARI KHURD",
    "lat": 22.422634549999998,
    "lon": 79.26945978401508
  },
  {
    "partId": 101475,
    "stateCode": "S12",
    "stateName": "Madhya Pradesh",
    "districtCode": "S1228",
    "districtName": "CHHINDWARA",
    "acNumber": 123,
    "acName": "AMARWARA",
    "partNumber": 291,
    "partName": "BHAJIPANI",
    "lat": 22.19995665,
    "lon": 78.70028286859952
  },
  {
    "partId": 100548,
    "stateCode": "S12",
    "stateName": "Madhya Pradesh",
    "districtCode": "S1228",
    "districtName": "CHHINDWARA",
    "acNumber": 123,
    "acName": "AMARWARA",
    "partNumber": 292,
    "partName": "CHARAGAON",
    "lat": 22.5300516,
    "lon": 79.05764514865771
  },
  {
    "partId": 101489,
    "stateCode": "S12",
    "stateName": "Madhya Pradesh",
    "districtCode": "S1228",
    "districtName": "CHHINDWARA",
    "acNumber": 123,
    "acName": "AMARWARA",
    "partNumber": 293,
    "partName": "BARAHADHANA",
    "lat": 22.5300516,
    "lon": 79.05764514865771
  },
  {
    "partId": 100567,
    "stateCode": "S12",
    "stateName": "Madhya Pradesh",
    "districtCode": "S1228",
    "districtName": "CHHINDWARA",
    "acNumber": 123,
    "acName": "AMARWARA",
    "partNumber": 294,
    "partName": "BARAHAHIRA MAL",
    "lat": 22.5300516,
    "lon": 79.05764514865771
  },
  {
    "partId": 101490,
    "stateCode": "S12",
    "stateName": "Madhya Pradesh",
    "districtCode": "S1228",
    "districtName": "CHHINDWARA",
    "acNumber": 123,
    "acName": "AMARWARA",
    "partNumber": 295,
    "partName": "LAKHANAVADA",
    "lat": 22.5300516,
    "lon": 79.05764514865771
  },
  {
    "partId": 101491,
    "stateCode": "S12",
    "stateName": "Madhya Pradesh",
    "districtCode": "S1228",
    "districtName": "CHHINDWARA",
    "acNumber": 123,
    "acName": "AMARWARA",
    "partNumber": 296,
    "partName": "DHADA",
    "lat": 22.5300516,
    "lon": 79.05764514865771
  },
  {
    "partId": 101516,
    "stateCode": "S12",
    "stateName": "Madhya Pradesh",
    "districtCode": "S1228",
    "districtName": "CHHINDWARA",
    "acNumber": 123,
    "acName": "AMARWARA",
    "partNumber": 297,
    "partName": "DHASANAVADA",
    "lat": 22.5300516,
    "lon": 79.05764514865771
  },
  {
    "partId": 101484,
    "stateCode": "S12",
    "stateName": "Madhya Pradesh",
    "districtCode": "S1228",
    "districtName": "CHHINDWARA",
    "acNumber": 123,
    "acName": "AMARWARA",
    "partNumber": 298,
    "partName": "DHASANAVADA",
    "lat": 22.5300516,
    "lon": 79.05764514865771
  },
  {
    "partId": 101517,
    "stateCode": "S12",
    "stateName": "Madhya Pradesh",
    "districtCode": "S1228",
    "districtName": "CHHINDWARA",
    "acNumber": 123,
    "acName": "AMARWARA",
    "partNumber": 299,
    "partName": "LAHAGADUA",
    "lat": 22.3643747,
    "lon": 79.0780879
  },
  {
    "partId": 101518,
    "stateCode": "S12",
    "stateName": "Madhya Pradesh",
    "districtCode": "S1228",
    "districtName": "CHHINDWARA",
    "acNumber": 123,
    "acName": "AMARWARA",
    "partNumber": 300,
    "partName": "PUTARRA",
    "lat": 22.481438251687116,
    "lon": 79.05906294770432
  },
  {
    "partId": 101411,
    "stateCode": "S12",
    "stateName": "Madhya Pradesh",
    "districtCode": "S1228",
    "districtName": "CHHINDWARA",
    "acNumber": 123,
    "acName": "AMARWARA",
    "partNumber": 301,
    "partName": "GHUGHARALA KHURD",
    "lat": 22.5300516,
    "lon": 79.05764514865771
  },
  {
    "partId": 101412,
    "stateCode": "S12",
    "stateName": "Madhya Pradesh",
    "districtCode": "S1228",
    "districtName": "CHHINDWARA",
    "acNumber": 123,
    "acName": "AMARWARA",
    "partNumber": 302,
    "partName": "DUNGARIYA RAI.",
    "lat": 22.5300516,
    "lon": 79.05764514865771
  },
  {
    "partId": 101413,
    "stateCode": "S12",
    "stateName": "Madhya Pradesh",
    "districtCode": "S1228",
    "districtName": "CHHINDWARA",
    "acNumber": 123,
    "acName": "AMARWARA",
    "partNumber": 303,
    "partName": "PIPARIYAMANU",
    "lat": 22.3498859,
    "lon": 79.31447771734346
  },
  {
    "partId": 100465,
    "stateCode": "S12",
    "stateName": "Madhya Pradesh",
    "districtCode": "S1228",
    "districtName": "CHHINDWARA",
    "acNumber": 123,
    "acName": "AMARWARA",
    "partNumber": 304,
    "partName": "PAUNAR",
    "lat": 22.328044,
    "lon": 79.26188618330005
  },
  {
    "partId": 101414,
    "stateCode": "S12",
    "stateName": "Madhya Pradesh",
    "districtCode": "S1228",
    "districtName": "CHHINDWARA",
    "acNumber": 123,
    "acName": "AMARWARA",
    "partNumber": 305,
    "partName": "PAUNAR",
    "lat": 22.328044,
    "lon": 79.26188618330005
  },
  {
    "partId": 101393,
    "stateCode": "S12",
    "stateName": "Madhya Pradesh",
    "districtCode": "S1228",
    "districtName": "CHHINDWARA",
    "acNumber": 123,
    "acName": "AMARWARA",
    "partNumber": 306,
    "partName": "PAUNAR",
    "lat": 22.328044,
    "lon": 79.26188618330005
  },
  {
    "partId": 101415,
    "stateCode": "S12",
    "stateName": "Madhya Pradesh",
    "districtCode": "S1228",
    "districtName": "CHHINDWARA",
    "acNumber": 123,
    "acName": "AMARWARA",
    "partNumber": 307,
    "partName": "CHIKHALIVALA",
    "lat": 22.5300516,
    "lon": 79.05764514865771
  },
  {
    "partId": 101416,
    "stateCode": "S12",
    "stateName": "Madhya Pradesh",
    "districtCode": "S1228",
    "districtName": "CHHINDWARA",
    "acNumber": 123,
    "acName": "AMARWARA",
    "partNumber": 308,
    "partName": "CHANDANAGANV",
    "lat": 22.5300516,
    "lon": 79.05764514865771
  },
  {
    "partId": 101417,
    "stateCode": "S12",
    "stateName": "Madhya Pradesh",
    "districtCode": "S1228",
    "districtName": "CHHINDWARA",
    "acNumber": 123,
    "acName": "AMARWARA",
    "partNumber": 309,
    "partName": "SAHAKARI",
    "lat": 22.5300516,
    "lon": 79.05764514865771
  },
  {
    "partId": 101418,
    "stateCode": "S12",
    "stateName": "Madhya Pradesh",
    "districtCode": "S1228",
    "districtName": "CHHINDWARA",
    "acNumber": 123,
    "acName": "AMARWARA",
    "partNumber": 310,
    "partName": "CHHUI",
    "lat": 22.3006291,
    "lon": 79.2352062467746
  },
  {
    "partId": 100566,
    "stateCode": "S12",
    "stateName": "Madhya Pradesh",
    "districtCode": "S1228",
    "districtName": "CHHINDWARA",
    "acNumber": 123,
    "acName": "AMARWARA",
    "partNumber": 311,
    "partName": "CHHUI",
    "lat": 22.3006291,
    "lon": 79.2352062467746
  },
  {
    "partId": 101419,
    "stateCode": "S12",
    "stateName": "Madhya Pradesh",
    "districtCode": "S1228",
    "districtName": "CHHINDWARA",
    "acNumber": 123,
    "acName": "AMARWARA",
    "partNumber": 312,
    "partName": "CHHUADEHI",
    "lat": 22.32437575,
    "lon": 79.23889264016793
  },
  {
    "partId": 100549,
    "stateCode": "S12",
    "stateName": "Madhya Pradesh",
    "districtCode": "S1228",
    "districtName": "CHHINDWARA",
    "acNumber": 123,
    "acName": "AMARWARA",
    "partNumber": 313,
    "partName": "HINGAPANI",
    "lat": 22.5300516,
    "lon": 79.05764514865771
  },
  {
    "partId": 101420,
    "stateCode": "S12",
    "stateName": "Madhya Pradesh",
    "districtCode": "S1228",
    "districtName": "CHHINDWARA",
    "acNumber": 123,
    "acName": "AMARWARA",
    "partNumber": 314,
    "partName": "PIPARIYARAJAGURU",
    "lat": 22.5300516,
    "lon": 79.05764514865771
  },
  {
    "partId": 100565,
    "stateCode": "S12",
    "stateName": "Madhya Pradesh",
    "districtCode": "S1228",
    "districtName": "CHHINDWARA",
    "acNumber": 123,
    "acName": "AMARWARA",
    "partNumber": 315,
    "partName": "PIPARIYARAJAGURU",
    "lat": 22.5300516,
    "lon": 79.05764514865771
  },
  {
    "partId": 101458,
    "stateCode": "S12",
    "stateName": "Madhya Pradesh",
    "districtCode": "S1228",
    "districtName": "CHHINDWARA",
    "acNumber": 123,
    "acName": "AMARWARA",
    "partNumber": 316,
    "partName": "SUKHARI KALA",
    "lat": 22.5300516,
    "lon": 79.05764514865771
  },
  {
    "partId": 101392,
    "stateCode": "S12",
    "stateName": "Madhya Pradesh",
    "districtCode": "S1228",
    "districtName": "CHHINDWARA",
    "acNumber": 123,
    "acName": "AMARWARA",
    "partNumber": 317,
    "partName": "SUKHARI KALA",
    "lat": 22.5300516,
    "lon": 79.05764514865771
  },
  {
    "partId": 101459,
    "stateCode": "S12",
    "stateName": "Madhya Pradesh",
    "districtCode": "S1228",
    "districtName": "CHHINDWARA",
    "acNumber": 123,
    "acName": "AMARWARA",
    "partNumber": 318,
    "partName": "SUKHAREE KHURD",
    "lat": 22.5300516,
    "lon": 79.05764514865771
  },
  {
    "partId": 101460,
    "stateCode": "S12",
    "stateName": "Madhya Pradesh",
    "districtCode": "S1228",
    "districtName": "CHHINDWARA",
    "acNumber": 123,
    "acName": "AMARWARA",
    "partNumber": 319,
    "partName": "SALEEVADASHARADA",
    "lat": 22.5300516,
    "lon": 79.05764514865771
  },
  {
    "partId": 100564,
    "stateCode": "S12",
    "stateName": "Madhya Pradesh",
    "districtCode": "S1228",
    "districtName": "CHHINDWARA",
    "acNumber": 123,
    "acName": "AMARWARA",
    "partNumber": 320,
    "partName": "SALEEVADASHARADA",
    "lat": 22.5300516,
    "lon": 79.05764514865771
  },
  {
    "partId": 101549,
    "stateCode": "S12",
    "stateName": "Madhya Pradesh",
    "districtCode": "S1228",
    "districtName": "CHHINDWARA",
    "acNumber": 123,
    "acName": "AMARWARA",
    "partNumber": 321,
    "partName": "THAVADIKALA",
    "lat": 22.481438251687116,
    "lon": 79.05906294770432
  },
  {
    "partId": 101421,
    "stateCode": "S12",
    "stateName": "Madhya Pradesh",
    "districtCode": "S1228",
    "districtName": "CHHINDWARA",
    "acNumber": 123,
    "acName": "AMARWARA",
    "partNumber": 322,
    "partName": "RANIKAMATH",
    "lat": 22.5300516,
    "lon": 79.05764514865771
  },
  {
    "partId": 101422,
    "stateCode": "S12",
    "stateName": "Madhya Pradesh",
    "districtCode": "S1228",
    "districtName": "CHHINDWARA",
    "acNumber": 123,
    "acName": "AMARWARA",
    "partNumber": 323,
    "partName": "SAKARAVADA",
    "lat": 22.5300516,
    "lon": 79.05764514865771
  },
  {
    "partId": 100466,
    "stateCode": "S12",
    "stateName": "Madhya Pradesh",
    "districtCode": "S1228",
    "districtName": "CHHINDWARA",
    "acNumber": 123,
    "acName": "AMARWARA",
    "partNumber": 324,
    "partName": "HIRIRMUKASA",
    "lat": 22.5300516,
    "lon": 79.05764514865771
  },
  {
    "partId": 101423,
    "stateCode": "S12",
    "stateName": "Madhya Pradesh",
    "districtCode": "S1228",
    "districtName": "CHHINDWARA",
    "acNumber": 123,
    "acName": "AMARWARA",
    "partNumber": 325,
    "partName": "KHAMI",
    "lat": 22.2497855,
    "lon": 79.24753427962241
  },
  {
    "partId": 101424,
    "stateCode": "S12",
    "stateName": "Madhya Pradesh",
    "districtCode": "S1228",
    "districtName": "CHHINDWARA",
    "acNumber": 123,
    "acName": "AMARWARA",
    "partNumber": 326,
    "partName": "BINEKI",
    "lat": 22.27012505,
    "lon": 79.27486693739891
  },
  {
    "partId": 100563,
    "stateCode": "S12",
    "stateName": "Madhya Pradesh",
    "districtCode": "S1228",
    "districtName": "CHHINDWARA",
    "acNumber": 123,
    "acName": "AMARWARA",
    "partNumber": 327,
    "partName": "BINEKI",
    "lat": 22.27012505,
    "lon": 79.27486693739891
  },
  {
    "partId": 101483,
    "stateCode": "S12",
    "stateName": "Madhya Pradesh",
    "districtCode": "S1228",
    "districtName": "CHHINDWARA",
    "acNumber": 123,
    "acName": "AMARWARA",
    "partNumber": 328,
    "partName": "DATURIYA",
    "lat": 22.0438293,
    "lon": 79.06993112078518
  },