[
  {
    "partId": 3927,
    "stateCode": "S12",
    "stateName": "Madhya Pradesh",
    "districtCode": "S1205",
    "districtName": "DATIA",
    "acNumber": 21,
    "acName": "BHANDER",
    "partNumber": 1,
    "partName": "SENTHAREE",
    "lat": 25.728760049999998,
    "lon": 78.74892020938377
  },
  {
    "partId": 60779,
    "stateCode": "S12",
    "stateName": "Madhya Pradesh",
    "districtCode": "S1205",
    "districtName": "DATIA",
    "acNumber": 21,
    "acName": "BHANDER",
    "partNumber": 2,
    "partName": "SENTHAREE",
    "lat": 25.728760049999998,
    "lon": 78.74892020938377
  },
  {
    "partId": 24670,
    "stateCode": "S12",
    "stateName": "Madhya Pradesh",
    "districtCode": "S1205",
    "districtName": "DATIA",
    "acNumber": 21,
    "acName": "BHANDER",
    "partNumber": 3,
    "partName": "SENTHAREE",
    "lat": 25.728760049999998,
    "lon": 78.74892020938377
  },
  {
    "partId": 3928,
    "stateCode": "S12",
    "stateName": "Madhya Pradesh",
    "districtCode": "S1205",
    "districtName": "DATIA",
    "acNumber": 21,
    "acName": "BHANDER",
    "partNumber": 4,
    "partName": "ANSULEE",
    "lat": 25.728760049999998,
    "lon": 78.74892020938377
  },
  {
    "partId": 3929,
    "stateCode": "S12",
    "stateName": "Madhya Pradesh",
    "districtCode": "S1205",
    "districtName": "DATIA",
    "acNumber": 21,
    "acName": "BHANDER",
    "partNumber": 5,
    "partName": "PORASA",
    "lat": 25.728760049999998,
    "lon": 78.74892020938377
  },
  {
    "partId": 60778,
    "stateCode": "S12",
    "stateName": "Madhya Pradesh",
    "districtCode": "S1205",
    "districtName": "DATIA",
    "acNumber": 21,
    "acName": "BHANDER",
    "partNumber": 6,
    "partName": "PORASA",
    "lat": 25.728760049999998,
    "lon": 78.74892020938377
  },
  {
    "partId": 3930,
    "stateCode": "S12",
    "stateName": "Madhya Pradesh",
    "districtCode": "S1205",
    "districtName": "DATIA",
    "acNumber": 21,
    "acName": "BHANDER",
    "partNumber": 7,
    "partName": "MAHADUA",
    "lat": 25.9952741,
    "lon": 78.7535834
  },
  {
    "partId": 3931,
    "stateCode": "S12",
    "stateName": "Madhya Pradesh",
    "districtCode": "S1205",
    "districtName": "DATIA",
    "acNumber": 21,
    "acName": "BHANDER",
    "partNumber": 8,
    "partName": "JOURI",
    "lat": 25.728760049999998,
    "lon": 78.74892020938377
  },
  {
    "partId": 4230,
    "stateCode": "S12",
    "stateName": "Madhya Pradesh",
    "districtCode": "S1205",
    "districtName": "DATIA",
    "acNumber": 21,
    "acName": "BHANDER",
    "partNumber": 9,
    "partName": "GANESHAPURA",
    "lat": 25.728760049999998,
    "lon": 78.74892020938377
  },
  {
    "partId": 4231,
    "stateCode": "S12",
    "stateName": "Madhya Pradesh",
    "districtCode": "S1205",
    "districtName": "DATIA",
    "acNumber": 21,
    "acName": "BHANDER",
    "partNumber": 10,
    "partName": "BAISORA",
    "lat": 25.96362675,
    "lon": 78.73970265057213
  },
  {
    "partId": 4232,
    "stateCode": "S12",
    "stateName": "Madhya Pradesh",
    "districtCode": "S1205",
    "districtName": "DATIA",
    "acNumber": 21,
    "acName": "BHANDER",
    "partNumber": 11,
    "partName": "BODAR",
    "lat": 25.9616569,
    "lon": 78.75392798076497
  },
  {
    "partId": 4233,
    "stateCode": "S12",
    "stateName": "Madhya Pradesh",
    "districtCode": "S1205",
    "districtName": "DATIA",
    "acNumber": 21,
    "acName": "BHANDER",
    "partNumber": 12,
    "partName": "UDEE",
    "lat": 25.728760049999998,
    "lon": 78.74892020938377
  },
  {
    "partId": 4234,
    "stateCode": "S12",
    "stateName": "Madhya Pradesh",
    "districtCode": "S1205",
    "districtName": "DATIA",
    "acNumber": 21,
    "acName": "BHANDER",
    "partNumber": 13,
    "partName": "RAKHARA",
    "lat": 25.728760049999998,
    "lon": 78.74892020938377
  },
  {
    "partId": 4235,
    "stateCode": "S12",
    "stateName": "Madhya Pradesh",
    "districtCode": "S1205",
    "districtName": "DATIA",
    "acNumber": 21,
    "acName": "BHANDER",
    "partNumber": 14,
    "partName": "PURADABAAH",
    "lat": 25.728760049999998,
    "lon": 78.74892020938377
  },
  {
    "partId": 4236,
    "stateCode": "S12",
    "stateName": "Madhya Pradesh",
    "districtCode": "S1205",
    "districtName": "DATIA",
    "acNumber": 21,
    "acName": "BHANDER",
    "partNumber": 15,
    "partName": "PADAREEKALAN",
    "lat": 25.728760049999998,
    "lon": 78.74892020938377
  },
  {
    "partId": 4237,
    "stateCode": "S12",
    "stateName": "Madhya Pradesh",
    "districtCode": "S1205",
    "districtName": "DATIA",
    "acNumber": 21,
    "acName": "BHANDER",
    "partNumber": 16,
    "partName": "TALAGANV",
    "lat": 25.728760049999998,
    "lon": 78.74892020938377
  },
  {
    "partId": 60777,
    "stateCode": "S12",
    "stateName": "Madhya Pradesh",
    "districtCode": "S1205",
    "districtName": "DATIA",
    "acNumber": 21,
    "acName": "BHANDER",
    "partNumber": 17,
    "partName": "TALAGANV",
    "lat": 25.728760049999998,
    "lon": 78.74892020938377
  },
  {
    "partId": 4238,
    "stateCode": "S12",
    "stateName": "Madhya Pradesh",
    "districtCode": "S1205",
    "districtName": "DATIA",
    "acNumber": 21,
    "acName": "BHANDER",
    "partNumber": 18,
    "partName": "TALAGANV",
    "lat": 25.728760049999998,
    "lon": 78.74892020938377
  },
  {
    "partId": 4239,
    "stateCode": "S12",
    "stateName": "Madhya Pradesh",
    "districtCode": "S1205",
    "districtName": "DATIA",
    "acNumber": 21,
    "acName": "BHANDER",
    "partNumber": 19,
    "partName": "DHAUND",
    "lat": 25.728760049999998,
    "lon": 78.74892020938377
  },
  {
    "partId": 4240,
    "stateCode": "S12",
    "stateName": "Madhya Pradesh",
    "districtCode": "S1205",
    "districtName": "DATIA",
    "acNumber": 21,
    "acName": "BHANDER",
    "partNumber": 20,
    "partName": "SOHAN",
    "lat": 25.94552015,
    "lon": 78.78502364429801
  },
  {
    "partId": 60776,
    "stateCode": "S12",
    "stateName": "Madhya Pradesh",
    "districtCode": "S1205",
    "districtName": "DATIA",
    "acNumber": 21,
    "acName": "BHANDER",
    "partNumber": 21,
    "partName": "SOHAN",
    "lat": 25.94552015,
    "lon": 78.78502364429801
  },
  {
    "partId": 24699,
    "stateCode": "S12",
    "stateName": "Madhya Pradesh",
    "districtCode": "S1205",
    "districtName": "DATIA",
    "acNumber": 21,
    "acName": "BHANDER",
    "partNumber": 22,
    "partName": "CHAMDANEE",
    "lat": 25.728760049999998,
    "lon": 78.74892020938377
  },
  {
    "partId": 4241,
    "stateCode": "S12",
    "stateName": "Madhya Pradesh",
    "districtCode": "S1205",
    "districtName": "DATIA",
    "acNumber": 21,
    "acName": "BHANDER",
    "partNumber": 23,
    "partName": "KURAGANV",
    "lat": 25.728760049999998,
    "lon": 78.74892020938377
  },
  {
    "partId": 4242,
    "stateCode": "S12",
    "stateName": "Madhya Pradesh",
    "districtCode": "S1205",
    "districtName": "DATIA",
    "acNumber": 21,
    "acName": "BHANDER",
    "partNumber": 24,
    "partName": "GHANASHYAMAPUR",
    "lat": 25.728760049999998,
    "lon": 78.74892020938377
  },
  {
    "partId": 4243,
    "stateCode": "S12",
    "stateName": "Madhya Pradesh",
    "districtCode": "S1205",
    "districtName": "DATIA",
    "acNumber": 21,
    "acName": "BHANDER",
    "partNumber": 25,
    "partName": "SOJANA",
    "lat": 25.728760049999998,
    "lon": 78.74892020938377
  },
  {
    "partId": 4244,
    "stateCode": "S12",
    "stateName": "Madhya Pradesh",
    "districtCode": "S1205",
    "districtName": "DATIA",
    "acNumber": 21,
    "acName": "BHANDER",
    "partNumber": 26,
    "partName": "GUDAHA",
    "lat": 25.9075926,
    "lon": 78.8293505
  },
  {
    "partId": 4245,
    "stateCode": "S12",
    "stateName": "Madhya Pradesh",
    "districtCode": "S1205",
    "districtName": "DATIA",
    "acNumber": 21,
    "acName": "BHANDER",
    "partNumber": 27,
    "partName": "KHIRIYA ALAM",
    "lat": 25.9120607,
    "lon": 78.8328588
  },
  {
    "partId": 4246,
    "stateCode": "S12",
    "stateName": "Madhya Pradesh",
    "districtCode": "S1205",
    "districtName": "DATIA",
    "acNumber": 21,
    "acName": "BHANDER",
    "partNumber": 28,
    "partName": "VINDAVA",
    "lat": 25.728760049999998,
    "lon": 78.74892020938377
  },
  {
    "partId": 4247,
    "stateCode": "S12",
    "stateName": "Madhya Pradesh",
    "districtCode": "S1205",
    "districtName": "DATIA",
    "acNumber": 21,
    "acName": "BHANDER",
    "partNumber": 29,
    "partName": "SAKATAPURA",
    "lat": 25.728760049999998,
    "lon": 78.74892020938377
  },
  {
    "partId": 4248,
    "stateCode": "S12",
    "stateName": "Madhya Pradesh",
    "districtCode": "S1205",
    "districtName": "DATIA",
    "acNumber": 21,
    "acName": "BHANDER",
    "partNumber": 30,
    "partName": "BILHETEE",
    "lat": 25.728760049999998,
    "lon": 78.74892020938377
  },
  {
    "partId": 4249,
    "stateCode": "S12",
    "stateName": "Madhya Pradesh",
    "districtCode": "S1205",
    "districtName": "DATIA",
    "acNumber": 21,
    "acName": "BHANDER",
    "partNumber": 31,
    "partName": "BHEDAPURA",
    "lat": 25.728760049999998,
    "lon": 78.74892020938377
  },
  {
    "partId": 24700,
    "stateCode": "S12",
    "stateName": "Madhya Pradesh",
    "districtCode": "S1205",
    "districtName": "DATIA",
    "acNumber": 21,
    "acName": "BHANDER",
    "partNumber": 32,
    "partName": "TOREE",
    "lat": 25.728760049999998,
    "lon": 78.74892020938377
  },
  {
    "partId": 4250,
    "stateCode": "S12",
    "stateName": "Madhya Pradesh",
    "districtCode": "S1205",
    "districtName": "DATIA",
    "acNumber": 21,
    "acName": "BHANDER",
    "partNumber": 33,
    "partName": "RAMANER",
    "lat": 25.728760049999998,
    "lon": 78.74892020938377
  },
  {
    "partId": 4251,
    "stateCode": "S12",
    "stateName": "Madhya Pradesh",
    "districtCode": "S1205",
    "districtName": "DATIA",
    "acNumber": 21,
    "acName": "BHANDER",
    "partNumber": 34,
    "partName": "SALON B",
    "lat": 25.8966302,
    "lon": 78.7596519
  },
  {
    "partId": 24669,
    "stateCode": "S12",
    "stateName": "Madhya Pradesh",
    "districtCode": "S1205",
    "districtName": "DATIA",
    "acNumber": 21,
    "acName": "BHANDER",
    "partNumber": 35,
    "partName": "SALON B",
    "lat": 25.8966302,
    "lon": 78.7596519
  },
  {
    "partId": 4252,
    "stateCode": "S12",
    "stateName": "Madhya Pradesh",
    "districtCode": "S1205",
    "districtName": "DATIA",
    "acNumber": 21,
    "acName": "BHANDER",
    "partNumber": 36,
    "partName": "SALON B",
    "lat": 25.8966302,
    "lon": 78.7596519
  },
  {
    "partId": 60775,
    "stateCode": "S12",
    "stateName": "Madhya Pradesh",
    "districtCode": "S1205",
    "districtName": "DATIA",
    "acNumber": 21,
    "acName": "BHANDER",
    "partNumber": 37,
    "partName": "SALON B",
    "lat": 25.8966302,
    "lon": 78.7596519
  },
  {
    "partId": 4253,
    "stateCode": "S12",
    "stateName": "Madhya Pradesh",
    "districtCode": "S1205",
    "districtName": "DATIA",
    "acNumber": 21,
    "acName": "BHANDER",
    "partNumber": 38,
    "partName": "SYAURA",
    "lat": 25.728760049999998,
    "lon": 78.74892020938377
  },
  {
    "partId": 4254,
    "stateCode": "S12",
    "stateName": "Madhya Pradesh",
    "districtCode": "S1205",
    "districtName": "DATIA",
    "acNumber": 21,
    "acName": "BHANDER",
    "partNumber": 39,
    "partName": "KARRA",
    "lat": 25.91287505,
    "lon": 78.69838134146536
  },
  {
    "partId": 4255,
    "stateCode": "S12",
    "stateName": "Madhya Pradesh",
    "districtCode": "S1205",
    "districtName": "DATIA",
    "acNumber": 21,
    "acName": "BHANDER",
    "partNumber": 40,
    "partName": "NAUGUVAN",
    "lat": 25.728760049999998,
    "lon": 78.74892020938377
  },
  {
    "partId": 60774,
    "stateCode": "S12",
    "stateName": "Madhya Pradesh",
    "districtCode": "S1205",
    "districtName": "DATIA",
    "acNumber": 21,
    "acName": "BHANDER",
    "partNumber": 41,
    "partName": "MALAUA",
    "lat": 25.941085,
    "lon": 78.6556291
  },
  {
    "partId": 4256,
    "stateCode": "S12",
    "stateName": "Madhya Pradesh",
    "districtCode": "S1205",
    "districtName": "DATIA",
    "acNumber": 21,
    "acName": "BHANDER",
    "partNumber": 42,
    "partName": "AHARAUNEE",
    "lat": 25.728760049999998,
    "lon": 78.74892020938377
  },
  {
    "partId": 4257,
    "stateCode": "S12",
    "stateName": "Madhya Pradesh",
    "districtCode": "S1205",
    "districtName": "DATIA",
    "acNumber": 21,
    "acName": "BHANDER",
    "partNumber": 43,
    "partName": "RICHHAURA",
    "lat": 25.728760049999998,
    "lon": 78.74892020938377
  },
  {
    "partId": 4258,
    "stateCode": "S12",
    "stateName": "Madhya Pradesh",
    "districtCode": "S1205",
    "districtName": "DATIA",
    "acNumber": 21,
    "acName": "BHANDER",
    "partNumber": 44,
    "partName": "BHALAKA",
    "lat": 25.728760049999998,
    "lon": 78.74892020938377
  },
  {
    "partId": 4259,
    "stateCode": "S12",
    "stateName": "Madhya Pradesh",
    "districtCode": "S1205",
    "districtName": "DATIA",
    "acNumber": 21,
    "acName": "BHANDER",
    "partNumber": 45,
    "partName": "UDEENA",
    "lat": 25.728760049999998,
    "lon": 78.74892020938377
  },
  {
    "partId": 4260,
    "stateCode": "S12",
    "stateName": "Madhya Pradesh",
    "districtCode": "S1205",
    "districtName": "DATIA",
    "acNumber": 21,
    "acName": "BHANDER",
    "partNumber": 46,
    "partName": "UDEENA",
    "lat": 25.728760049999998,
    "lon": 78.74892020938377
  },
  {
    "partId": 60773,
    "stateCode": "S12",
    "stateName": "Madhya Pradesh",
    "districtCode": "S1205",
    "districtName": "DATIA",
    "acNumber": 21,
    "acName": "BHANDER",
    "partNumber": 47,
    "partName": "UDEENA",
    "lat": 25.728760049999998,
    "lon": 78.74892020938377
  },
  {
    "partId": 24701,
    "stateCode": "S12",
    "stateName": "Madhya Pradesh",
    "districtCode": "S1205",
    "districtName": "DATIA",
    "acNumber": 21,
    "acName": "BHANDER",
    "partNumber": 48,
    "partName": "KASHEEPUR",
    "lat": 25.728760049999998,
    "lon": 78.74892020938377
  },
  {
    "partId": 4261,
    "stateCode": "S12",
    "stateName": "Madhya Pradesh",
    "districtCode": "S1205",
    "districtName": "DATIA",
    "acNumber": 21,
    "acName": "BHANDER",
    "partNumber": 49,
    "partName": "KAMALAPUREE",
    "lat": 25.728760049999998,
    "lon": 78.74892020938377
  },
  {
    "partId": 4262,
    "stateCode": "S12",
    "stateName": "Madhya Pradesh",
    "districtCode": "S1205",
    "districtName": "DATIA",
    "acNumber": 21,
    "acName": "BHANDER",
    "partNumber": 50,
    "partName": "GONDAN",
    "lat": 25.728760049999998,
    "lon": 78.74892020938377
  },
  {
    "partId": 60772,
    "stateCode": "S12",
    "stateName": "Madhya Pradesh",
    "districtCode": "S1205",
    "districtName": "DATIA",
    "acNumber": 21,
    "acName": "BHANDER",
    "partNumber": 51,
    "partName": "GONDAN",
    "lat": 25.728760049999998,
    "lon": 78.74892020938377
  },
  {
    "partId": 4263,
    "stateCode": "S12",
    "stateName": "Madhya Pradesh",
    "districtCode": "S1205",
    "districtName": "DATIA",
    "acNumber": 21,
    "acName": "BHANDER",
    "partNumber": 52,
    "partName": "GONDAN",
    "lat": 25.728760049999998,
    "lon": 78.74892020938377
  },
  {
    "partId": 4264,
    "stateCode": "S12",
    "stateName": "Madhya Pradesh",
    "districtCode": "S1205",
    "districtName": "DATIA",
    "acNumber": 21,
    "acName": "BHANDER",
    "partNumber": 53,
    "partName": "SODA",
    "lat": 25.728760049999998,
    "lon": 78.74892020938377
  },
  {
    "partId": 4265,
    "stateCode": "S12",
    "stateName": "Madhya Pradesh",
    "districtCode": "S1205",
    "districtName": "DATIA",
    "acNumber": 21,
    "acName": "BHANDER",
    "partNumber": 54,
    "partName": "TAIDAUT",
    "lat": 25.728760049999998,
    "lon": 78.74892020938377
  },
  {
    "partId": 4266,
    "stateCode": "S12",
    "stateName": "Madhya Pradesh",
    "districtCode": "S1205",
    "districtName": "DATIA",
    "acNumber": 21,
    "acName": "BHANDER",
    "partNumber": 55,
    "partName": "KHIRIYA PHAIJULLA",
    "lat": 25.728760049999998,
    "lon": 78.74892020938377
  },
  {
    "partId": 4267,
    "stateCode": "S12",
    "stateName": "Madhya Pradesh",
    "districtCode": "S1205",
    "districtName": "DATIA",
    "acNumber": 21,
    "acName": "BHANDER",
    "partNumber": 56,
    "partName": "CHHAN",
    "lat": 25.854024199999998,
    "lon": 78.71216759675013
  },
  {
    "partId": 4268,
    "stateCode": "S12",
    "stateName": "Madhya Pradesh",
    "districtCode": "S1205",
    "districtName": "DATIA",
    "acNumber": 21,
    "acName": "BHANDER",
    "partNumber": 57,
    "partName": "IMILIYA",
    "lat": 25.728760049999998,
    "lon": 78.74892020938377
  },
  {
    "partId": 4269,
    "stateCode": "S12",
    "stateName": "Madhya Pradesh",
    "districtCode": "S1205",
    "districtName": "DATIA",
    "acNumber": 21,
    "acName": "BHANDER",
    "partNumber": 58,
    "partName": "TETANA",
    "lat": 25.728760049999998,
    "lon": 78.74892020938377
  },
  {
    "partId": 4270,
    "stateCode": "S12",
    "stateName": "Madhya Pradesh",
    "districtCode": "S1205",
    "districtName": "DATIA",
    "acNumber": 21,
    "acName": "BHANDER",
    "partNumber": 59,
    "partName": "HASANAPUR",
    "lat": 25.728760049999998,
    "lon": 78.74892020938377
  },
  {
    "partId": 4271,
    "stateCode": "S12",
    "stateName": "Madhya Pradesh",
    "districtCode": "S1205",
    "districtName": "DATIA",
    "acNumber": 21,
    "acName": "BHANDER",
    "partNumber": 60,
    "partName": "BHITARI",
    "lat": 25.877010499999997,
    "lon": 78.70276449132645
  },
  {
    "partId": 60771,
    "stateCode": "S12",
    "stateName": "Madhya Pradesh",
    "districtCode": "S1205",
    "districtName": "DATIA",
    "acNumber": 21,
    "acName": "BHANDER",
    "partNumber": 61,
    "partName": "BHITARI",
    "lat": 25.877010499999997,
    "lon": 78.70276449132645
  },
  {
    "partId": 4272,
    "stateCode": "S12",
    "stateName": "Madhya Pradesh",
    "districtCode": "S1205",
    "districtName": "DATIA",
    "acNumber": 21,
    "acName": "BHANDER",
    "partNumber": 62,
    "partName": "BARAKA",
    "lat": 25.728760049999998,
    "lon": 78.74892020938377
  },
  {
    "partId": 60770,
    "stateCode": "S12",
    "stateName": "Madhya Pradesh",
    "districtCode": "S1205",
    "districtName": "DATIA",
    "acNumber": 21,
    "acName": "BHANDER",
    "partNumber": 63,
    "partName": "BARAKA",
    "lat": 25.728760049999998,
    "lon": 78.74892020938377
  },
  {
    "partId": 4273,
    "stateCode": "S12",
    "stateName": "Madhya Pradesh",
    "districtCode": "S1205",
    "districtName": "DATIA",
    "acNumber": 21,
    "acName": "BHANDER",
    "partNumber": 64,
    "partName": "DHANAPEEPAREE",
    "lat": 25.728760049999998,
    "lon": 78.74892020938377
  },
  {
    "partId": 60769,
    "stateCode": "S12",
    "stateName": "Madhya Pradesh",
    "districtCode": "S1205",
    "districtName": "DATIA",
    "acNumber": 21,
    "acName": "BHANDER",
    "partNumber": 65,
    "partName": "DHIMARPURA",
    "lat": 25.8639349,
    "lon": 78.7638402
  },
  {
    "partId": 4274,
    "stateCode": "S12",
    "stateName": "Madhya Pradesh",
    "districtCode": "S1205",
    "districtName": "DATIA",
    "acNumber": 21,
    "acName": "BHANDER",
    "partNumber": 66,
    "partName": "PANDOKHAR",
    "lat": 25.89441385,
    "lon": 78.7870773848133
  },
  {
    "partId": 24668,
    "stateCode": "S12",
    "stateName": "Madhya Pradesh",
    "districtCode": "S1205",
    "districtName": "DATIA",
    "acNumber": 21,
    "acName": "BHANDER",
    "partNumber": 67,
    "partName": "PANDOKHAR",
    "lat": 25.89441385,
    "lon": 78.7870773848133
  },
  {
    "partId": 24702,
    "stateCode": "S12",
    "stateName": "Madhya Pradesh",
    "districtCode": "S1205",
    "districtName": "DATIA",
    "acNumber": 21,
    "acName": "BHANDER",
    "partNumber": 68,
    "partName": "MAINTHANAPAHUNCH",
    "lat": 25.728760049999998,
    "lon": 78.74892020938377
  },
  {
    "partId": 4275,
    "stateCode": "S12",
    "stateName": "Madhya Pradesh",
    "districtCode": "S1205",
    "districtName": "DATIA",
    "acNumber": 21,
    "acName": "BHANDER",
    "partNumber": 69,
    "partName": "SADAKA",
    "lat": 25.728760049999998,
    "lon": 78.74892020938377
  },
  {
    "partId": 4276,
    "stateCode": "S12",
    "stateName": "Madhya Pradesh",
    "districtCode": "S1205",
    "districtName": "DATIA",
    "acNumber": 21,
    "acName": "BHANDER",
    "partNumber": 70,
    "partName": "LAHAR HAVELEE",
    "lat": 25.728760049999998,
    "lon": 78.74892020938377
  },
  {
    "partId": 4277,
    "stateCode": "S12",
    "stateName": "Madhya Pradesh",
    "districtCode": "S1205",
    "districtName": "DATIA",
    "acNumber": 21,
    "acName": "BHANDER",
    "partNumber": 71,
    "partName": "LAHAR HAVELEE",
    "lat": 25.728760049999998,
    "lon": 78.74892020938377
  },
  {
    "partId": 4278,
    "stateCode": "S12",
    "stateName": "Madhya Pradesh",
    "districtCode": "S1205",
    "districtName": "DATIA",
    "acNumber": 21,
    "acName": "BHANDER",
    "partNumber": 72,
    "partName": "KHIRIYA (KANDOUR)",
    "lat": 25.728760049999998,
    "lon": 78.74892020938377
  },
  {
    "partId": 4279,
    "stateCode": "S12",
    "stateName": "Madhya Pradesh",
    "districtCode": "S1205",
    "districtName": "DATIA",
    "acNumber": 21,
    "acName": "BHANDER",
    "partNumber": 73,
    "partName": "DHANOTI",
    "lat": 25.836609799999998,
    "lon": 78.8319021978354
  },
  {
    "partId": 4280,
    "stateCode": "S12",
    "stateName": "Madhya Pradesh",
    "districtCode": "S1205",
    "districtName": "DATIA",
    "acNumber": 21,
    "acName": "BHANDER",
    "partNumber": 74,
    "partName": "BADAIRA SAUPAN",
    "lat": 25.728760049999998,
    "lon": 78.74892020938377
  },
  {
    "partId": 60768,
    "stateCode": "S12",
    "stateName": "Madhya Pradesh",
    "districtCode": "S1205",
    "districtName": "DATIA",
    "acNumber": 21,
    "acName": "BHANDER",
    "partNumber": 75,
    "partName": "BADAIRA SAUPAN",
    "lat": 25.728760049999998,
    "lon": 78.74892020938377
  },
  {
    "partId": 4281,
    "stateCode": "S12",
    "stateName": "Madhya Pradesh",
    "districtCode": "S1205",
    "districtName": "DATIA",
    "acNumber": 21,
    "acName": "BHANDER",
    "partNumber": 76,
    "partName": "BADAIRA SOPAN",
    "lat": 25.728760049999998,
    "lon": 78.74892020938377
  },
  {
    "partId": 60767,
    "stateCode": "S12",
    "stateName": "Madhya Pradesh",
    "districtCode": "S1205",
    "districtName": "DATIA",
    "acNumber": 21,
    "acName": "BHANDER",
    "partNumber": 77,
    "partName": "BADAIRA SOPAN",
    "lat": 25.728760049999998,
    "lon": 78.74892020938377
  },
  {
    "partId": 4282,
    "stateCode": "S12",
    "stateName": "Madhya Pradesh",
    "districtCode": "S1205",
    "districtName": "DATIA",
    "acNumber": 21,
    "acName": "BHANDER",
    "partNumber": 78,
    "partName": "NATARRA",
    "lat": 25.832674349999998,
    "lon": 78.78346341035912
  },
  {
    "partId": 4283,
    "stateCode": "S12",
    "stateName": "Madhya Pradesh",
    "districtCode": "S1205",
    "districtName": "DATIA",
    "acNumber": 21,
    "acName": "BHANDER",
    "partNumber": 79,
    "partName": "VISALPURA",
    "lat": 25.728760049999998,
    "lon": 78.74892020938377
  },
  {
    "partId": 4284,
    "stateCode": "S12",
    "stateName": "Madhya Pradesh",
    "districtCode": "S1205",
    "districtName": "DATIA",
    "acNumber": 21,
    "acName": "BHANDER",
    "partNumber": 80,
    "partName": "KUTAULEE",
    "lat": 25.728760049999998,
    "lon": 78.74892020938377
  },
  {
    "partId": 4285,
    "stateCode": "S12",
    "stateName": "Madhya Pradesh",
    "districtCode": "S1205",
    "districtName": "DATIA",
    "acNumber": 21,
    "acName": "BHANDER",
    "partNumber": 81,
    "partName": "NADIYA",
    "lat": 25.8492403,
    "lon": 78.7373292
  },
  {
    "partId": 4286,
    "stateCode": "S12",
    "stateName": "Madhya Pradesh",
    "districtCode": "S1205",
    "districtName": "DATIA",
    "acNumber": 21,
    "acName": "BHANDER",
    "partNumber": 82,
    "partName": "SUNAREE",
    "lat": 25.728760049999998,
    "lon": 78.74892020938377
  },
  {
    "partId": 24703,
    "stateCode": "S12",
    "stateName": "Madhya Pradesh",
    "districtCode": "S1205",
    "districtName": "DATIA",
    "acNumber": 21,
    "acName": "BHANDER",
    "partNumber": 83,
    "partName": "KHIRIYAGOPEE",
    "lat": 25.728760049999998,
    "lon": 78.74892020938377
  },
  {
    "partId": 4287,
    "stateCode": "S12",
    "stateName": "Madhya Pradesh",
    "districtCode": "S1205",
    "districtName": "DATIA",
    "acNumber": 21,
    "acName": "BHANDER",
    "partNumber": 84,
    "partName": "CHHACHHAPURA",
    "lat": 25.728760049999998,
    "lon": 78.74892020938377
  },
  {
    "partId": 4288,
    "stateCode": "S12",
    "stateName": "Madhya Pradesh",
    "districtCode": "S1205",
    "districtName": "DATIA",
    "acNumber": 21,
    "acName": "BHANDER",
    "partNumber": 85,
    "partName": "SOPHTA",
    "lat": 25.818480049999998,
    "lon": 78.76561463525022
  },
  {
    "partId": 60766,
    "stateCode": "S12",
    "stateName": "Madhya Pradesh",
    "districtCode": "S1205",
    "districtName": "DATIA",
    "acNumber": 21,
    "acName": "BHANDER",
    "partNumber": 86,
    "partName": "DEVRA",
    "lat": 25.803854049999998,
    "lon": 78.78188615574777
  },
  {
    "partId": 4289,
    "stateCode": "S12",
    "stateName": "Madhya Pradesh",
    "districtCode": "S1205",
    "districtName": "DATIA",
    "acNumber": 21,
    "acName": "BHANDER",
    "partNumber": 87,
    "partName": "SIMATHARA",
    "lat": 25.728760049999998,
    "lon": 78.74892020938377
  },
  {
    "partId": 4290,
    "stateCode": "S12",
    "stateName": "Madhya Pradesh",
    "districtCode": "S1205",
    "districtName": "DATIA",
    "acNumber": 21,
    "acName": "BHANDER",
    "partNumber": 88,
    "partName": "DHARAMAPURA",
    "lat": 25.728760049999998,
    "lon": 78.74892020938377
  },
  {
    "partId": 4291,
    "stateCode": "S12",
    "stateName": "Madhya Pradesh",
    "districtCode": "S1205",
    "districtName": "DATIA",
    "acNumber": 21,
    "acName": "BHANDER",
    "partNumber": 89,
    "partName": "BARCHOULI",
    "lat": 25.728760049999998,
    "lon": 78.74892020938377
  },
  {
    "partId": 4292,
    "stateCode": "S12",
    "stateName": "Madhya Pradesh",
    "districtCode": "S1205",
    "districtName": "DATIA",
    "acNumber": 21,
    "acName": "BHANDER",
    "partNumber": 90,
    "partName": "CHANDROL",
    "lat": 25.80294935,
    "lon": 78.76326208788146
  },
  {
    "partId": 4293,
    "stateCode": "S12",
    "stateName": "Madhya Pradesh",
    "districtCode": "S1205",
    "districtName": "DATIA",
    "acNumber": 21,
    "acName": "BHANDER",
    "partNumber": 91,
    "partName": "TIGHARAKALA",
    "lat": 25.728760049999998,
    "lon": 78.74892020938377
  },
  {
    "partId": 4294,
    "stateCode": "S12",
    "stateName": "Madhya Pradesh",
    "districtCode": "S1205",
    "districtName": "DATIA",
    "acNumber": 21,
    "acName": "BHANDER",
    "partNumber": 92,
    "partName": "KHIRIYA RIYASAT",
    "lat": 25.728760049999998,
    "lon": 78.74892020938377
  },
  {
    "partId": 4295,
    "stateCode": "S12",
    "stateName": "Madhya Pradesh",
    "districtCode": "S1205",
    "districtName": "DATIA",
    "acNumber": 21,
    "acName": "BHANDER",
    "partNumber": 93,
    "partName": "KEVALAREE",
    "lat": 25.728760049999998,
    "lon": 78.74892020938377
  },
  {
    "partId": 4296,
    "stateCode": "S12",
    "stateName": "Madhya Pradesh",
    "districtCode": "S1205",
    "districtName": "DATIA",
    "acNumber": 21,
    "acName": "BHANDER",
    "partNumber": 94,
    "partName": "BICHHARENTA",
    "lat": 25.728760049999998,
    "lon": 78.74892020938377
  },
  {
    "partId": 4297,
    "stateCode": "S12",
    "stateName": "Madhya Pradesh",
    "districtCode": "S1205",
    "districtName": "DATIA",
    "acNumber": 21,
    "acName": "BHANDER",
    "partNumber": 95,
    "partName": "BAGAPURA",
    "lat": 25.728760049999998,
    "lon": 78.74892020938377
  },
  {
    "partId": 24704,
    "stateCode": "S12",
    "stateName": "Madhya Pradesh",
    "districtCode": "S1205",
    "districtName": "DATIA",
    "acNumber": 21,
    "acName": "BHANDER",
    "partNumber": 96,
    "partName": "MADHOPURA",
    "lat": 25.7892533,
    "lon": 78.73814269648274
  },
  {
    "partId": 4298,
    "stateCode": "S12",
    "stateName": "Madhya Pradesh",
    "districtCode": "S1205",
    "districtName": "DATIA",
    "acNumber": 21,
    "acName": "BHANDER",
    "partNumber": 97,
    "partName": "PATHARRANARAYAN",
    "lat": 25.728760049999998,
    "lon": 78.74892020938377
  },
  {
    "partId": 4299,
    "stateCode": "S12",
    "stateName": "Madhya Pradesh",
    "districtCode": "S1205",
    "districtName": "DATIA",
    "acNumber": 21,
    "acName": "BHANDER",
    "partNumber": 98,
    "partName": "SINHAPURA",
    "lat": 25.73974613967136,
    "lon": 78.73162393527284
  },
  {
    "partId": 4300,
    "stateCode": "S12",
    "stateName": "Madhya Pradesh",
    "districtCode": "S1205",
    "districtName": "DATIA",
    "acNumber": 21,
    "acName": "BHANDER",
    "partNumber": 99,
    "partName": "SAIMAHA",
    "lat": 25.73974613967136,
    "lon": 78.73162393527284
  },
  {
    "partId": 4301,
    "stateCode": "S12",
    "stateName": "Madhya Pradesh",
    "districtCode": "S1205",
    "districtName": "DATIA",
    "acNumber": 21,
    "acName": "BHANDER",
    "partNumber": 100,
    "partName": "AJEETAPURA",
    "lat": 25.73974613967136,
    "lon": 78.73162393527284
  },
  {
    "partId": 4302,
    "stateCode": "S12",
    "stateName": "Madhya Pradesh",
    "districtCode": "S1205",
    "districtName": "DATIA",
    "acNumber": 21,
    "acName": "BHANDER",
    "partNumber": 101,
    "partName": "BERACHH",
    "lat": 25.7673733,
    "lon": 78.7306666
  },
  {
    "partId": 60765,
    "stateCode": "S12",
    "stateName": "Madhya Pradesh",
    "districtCode": "S1205",
    "districtName": "DATIA",
    "acNumber": 21,
    "acName": "BHANDER",
    "partNumber": 102,
    "partName": "BERACHH",
    "lat": 25.7673733,
    "lon": 78.7306666
  },
  {
    "partId": 4303,
    "stateCode": "S12",
    "stateName": "Madhya Pradesh",
    "districtCode": "S1205",
    "districtName": "DATIA",
    "acNumber": 21,
    "acName": "BHANDER",
    "partNumber": 103,
    "partName": "BADAIRA HAVELEE",
    "lat": 25.728760049999998,
    "lon": 78.74892020938377
  },
  {
    "partId": 4304,
    "stateCode": "S12",
    "stateName": "Madhya Pradesh",
    "districtCode": "S1205",
    "districtName": "DATIA",
    "acNumber": 21,
    "acName": "BHANDER",
    "partNumber": 104,
    "partName": "BARANA",
    "lat": 25.76257975,
    "lon": 78.70032600164774
  },
  {
    "partId": 4305,
    "stateCode": "S12",
    "stateName": "Madhya Pradesh",
    "districtCode": "S1205",
    "districtName": "DATIA",
    "acNumber": 21,
    "acName": "BHANDER",
    "partNumber": 105,
    "partName": "SUJED",
    "lat": 25.7477191,
    "lon": 78.6608219
  },
  {
    "partId": 4306,
    "stateCode": "S12",
    "stateName": "Madhya Pradesh",
    "districtCode": "S1205",
    "districtName": "DATIA",
    "acNumber": 21,
    "acName": "BHANDER",
    "partNumber": 106,
    "partName": "KHIRIYA KHODAS",
    "lat": 25.728760049999998,
    "lon": 78.74892020938377
  },
  {
    "partId": 4307,
    "stateCode": "S12",
    "stateName": "Madhya Pradesh",
    "districtCode": "S1205",
    "districtName": "DATIA",
    "acNumber": 21,
    "acName": "BHANDER",
    "partNumber": 107,
    "partName": "GUDHA",
    "lat": 25.728760049999998,
    "lon": 78.74892020938377
  },
  {
    "partId": 4308,
    "stateCode": "S12",
    "stateName": "Madhya Pradesh",
    "districtCode": "S1205",
    "districtName": "DATIA",
    "acNumber": 21,
    "acName": "BHANDER",
    "partNumber": 108,
    "partName": "KUMHARRA",
    "lat": 25.76453725,
    "lon": 78.64867288793525
  },
  {
    "partId": 4309,
    "stateCode": "S12",
    "stateName": "Madhya Pradesh",
    "districtCode": "S1205",
    "districtName": "DATIA",
    "acNumber": 21,
    "acName": "BHANDER",
    "partNumber": 109,
    "partName": "NADAEE",
    "lat": 25.728760049999998,
    "lon": 78.74892020938377
  },
  {
    "partId": 4310,
    "stateCode": "S12",
    "stateName": "Madhya Pradesh",
    "districtCode": "S1205",
    "districtName": "DATIA",
    "acNumber": 21,
    "acName": "BHANDER",
    "partNumber": 110,
    "partName": "BHOY",
    "lat": 25.7653829,
    "lon": 78.6353516
  },
  {
    "partId": 24705,
    "stateCode": "S12",
    "stateName": "Madhya Pradesh",
    "districtCode": "S1205",
    "districtName": "DATIA",
    "acNumber": 21,
    "acName": "BHANDER",
    "partNumber": 111,
    "partName": "MAINTHANAPALEE",
    "lat": 25.728760049999998,
    "lon": 78.74892020938377
  },
  {
    "partId": 4311,
    "stateCode": "S12",
    "stateName": "Madhya Pradesh",
    "districtCode": "S1205",
    "districtName": "DATIA",
    "acNumber": 21,
    "acName": "BHANDER",
    "partNumber": 112,
    "partName": "KURAITHA",
    "lat": 25.787639300000002,
    "lon": 78.5960439682495
  },
  {
    "partId": 4312,
    "stateCode": "S12",
    "stateName": "Madhya Pradesh",
    "districtCode": "S1205",
    "districtName": "DATIA",
    "acNumber": 21,
    "acName": "BHANDER",
    "partNumber": 113,
    "partName": "RAJAURA",
    "lat": 25.78287015,
    "lon": 78.57894518978105
  },
  {
    "partId": 4313,
    "stateCode": "S12",
    "stateName": "Madhya Pradesh",
    "districtCode": "S1205",
    "districtName": "DATIA",
    "acNumber": 21,
    "acName": "BHANDER",
    "partNumber": 114,
    "partName": "NAYAGANV",
    "lat": 25.728760049999998,
    "lon": 78.74892020938377
  },
  {
    "partId": 4314,
    "stateCode": "S12",
    "stateName": "Madhya Pradesh",
    "districtCode": "S1205",
    "districtName": "DATIA",
    "acNumber": 21,
    "acName": "BHANDER",
    "partNumber": 115,
    "partName": "AKOLA",
    "lat": 25.7842806,
    "lon": 78.5431051
  },
  {
    "partId": 4315,
    "stateCode": "S12",
    "stateName": "Madhya Pradesh",
    "districtCode": "S1205",
    "districtName": "DATIA",
    "acNumber": 21,
    "acName": "BHANDER",
    "partNumber": 116,
    "partName": "SEM\u00a7",
    "lat": 25.728760049999998,
    "lon": 78.74892020938377
  },
  {
    "partId": 60764,
    "stateCode": "S12",
    "stateName": "Madhya Pradesh",
    "districtCode": "S1205",
    "districtName": "DATIA",
    "acNumber": 21,
    "acName": "BHANDER",
    "partNumber": 117,
    "partName": "SEM\u00a7",
    "lat": 25.728760049999998,
    "lon": 78.74892020938377
  },
  {
    "partId": 4316,
    "stateCode": "S12",
    "stateName": "Madhya Pradesh",
    "districtCode": "S1205",
    "districtName": "DATIA",
    "acNumber": 21,
    "acName": "BHANDER",
    "partNumber": 118,
    "partName": "LETARA",
    "lat": 25.728760049999998,
    "lon": 78.74892020938377
  },
  {
    "partId": 4317,
    "stateCode": "S12",
    "stateName": "Madhya Pradesh",
    "districtCode": "S1205",
    "districtName": "DATIA",
    "acNumber": 21,
    "acName": "BHANDER",
    "partNumber": 119,
    "partName": "KALEEPURA",
    "lat": 25.728760049999998,
    "lon": 78.74892020938377
  },
  {
    "partId": 24706,
    "stateCode": "S12",
    "stateName": "Madhya Pradesh",
    "districtCode": "S1205",
    "districtName": "DATIA",
    "acNumber": 21,
    "acName": "BHANDER",
    "partNumber": 120,
    "partName": "SINDHAVAREE",
    "lat": 25.728760049999998,
    "lon": 78.74892020938377
  },
  {
    "partId": 60763,
    "stateCode": "S12",
    "stateName": "Madhya Pradesh",
    "districtCode": "S1205",
    "districtName": "DATIA",
    "acNumber": 21,
    "acName": "BHANDER",
    "partNumber": 121,
    "partName": "SINDHAVAREE",
    "lat": 25.73974613967136,
    "lon": 78.73162393527284
  },
  {
    "partId": 4318,
    "stateCode": "S12",
    "stateName": "Madhya Pradesh",
    "districtCode": "S1205",
    "districtName": "DATIA",
    "acNumber": 21,
    "acName": "BHANDER",
    "partNumber": 122,
    "partName": "CHIROLEE",
    "lat": 25.728760049999998,
    "lon": 78.74892020938377
  },
  {
    "partId": 4319,
    "stateCode": "S12",
    "stateName": "Madhya Pradesh",
    "districtCode": "S1205",
    "districtName": "DATIA",
    "acNumber": 21,
    "acName": "BHANDER",
    "partNumber": 123,
    "partName": "SUKETA",
    "lat": 25.7661945,
    "lon": 78.565228
  },
  {
    "partId": 4320,
    "stateCode": "S12",
    "stateName": "Madhya Pradesh",
    "districtCode": "S1205",
    "districtName": "DATIA",
    "acNumber": 21,
    "acName": "BHANDER",
    "partNumber": 124,
    "partName": "BADANAPUR",
    "lat": 25.728760049999998,
    "lon": 78.74892020938377
  },
  {
    "partId": 4321,
    "stateCode": "S12",
    "stateName": "Madhya Pradesh",
    "districtCode": "S1205",
    "districtName": "DATIA",
    "acNumber": 21,
    "acName": "BHANDER",
    "partNumber": 125,
    "partName": "BUHARA",
    "lat": 25.73974613967136,
    "lon": 78.73162393527284
  },
  {
    "partId": 4322,
    "stateCode": "S12",
    "stateName": "Madhya Pradesh",
    "districtCode": "S1205",
    "districtName": "DATIA",
    "acNumber": 21,
    "acName": "BHANDER",
    "partNumber": 126,
    "partName": "KHIRIYA GHONGHOO",
    "lat": 25.728760049999998,
    "lon": 78.74892020938377
  },
  {
    "partId": 4323,
    "stateCode": "S12",
    "stateName": "Madhya Pradesh",
    "districtCode": "S1205",
    "districtName": "DATIA",
    "acNumber": 21,
    "acName": "BHANDER",
    "partNumber": 127,
    "partName": "RADHAPUR",
    "lat": 25.7204876,
    "lon": 78.5508479322911
  },
  {
    "partId": 4324,
    "stateCode": "S12",
    "stateName": "Madhya Pradesh",
    "districtCode": "S1205",
    "districtName": "DATIA",
    "acNumber": 21,
    "acName": "BHANDER",
    "partNumber": 128,
    "partName": "BHITORA",
    "lat": 25.728760049999998,
    "lon": 78.74892020938377
  },
  {
    "partId": 4325,
    "stateCode": "S12",
    "stateName": "Madhya Pradesh",
    "districtCode": "S1205",
    "districtName": "DATIA",
    "acNumber": 21,
    "acName": "BHANDER",
    "partNumber": 129,
    "partName": "MAVAI",
    "lat": 25.728760049999998,
    "lon": 78.74892020938377
  },
  {
    "partId": 4326,
    "stateCode": "S12",
    "stateName": "Madhya Pradesh",
    "districtCode": "S1205",
    "districtName": "DATIA",
    "acNumber": 21,
    "acName": "BHANDER",
    "partNumber": 130,
    "partName": "CHARABARA",
    "lat": 25.728760049999998,
    "lon": 78.74892020938377
  },
  {
    "partId": 4327,
    "stateCode": "S12",
    "stateName": "Madhya Pradesh",
    "districtCode": "S1205",
    "districtName": "DATIA",
    "acNumber": 21,
    "acName": "BHANDER",
    "partNumber": 131,
    "partName": "KARAKHADA",
    "lat": 25.728760049999998,
    "lon": 78.74892020938377
  },
  {
    "partId": 4328,
    "stateCode": "S12",
    "stateName": "Madhya Pradesh",
    "districtCode": "S1205",
    "districtName": "DATIA",
    "acNumber": 21,
    "acName": "BHANDER",
    "partNumber": 132,
    "partName": "DUBAHA",
    "lat": 25.7396294,
    "lon": 78.64997989441775
  },
  {
    "partId": 24707,
    "stateCode": "S12",
    "stateName": "Madhya Pradesh",
    "districtCode": "S1205",
    "districtName": "DATIA",
    "acNumber": 21,
    "acName": "BHANDER",
    "partNumber": 133,
    "partName": "DURASADA",
    "lat": 25.728760049999998,
    "lon": 78.74892020938377
  },
  {
    "partId": 60762,
    "stateCode": "S12",
    "stateName": "Madhya Pradesh",
    "districtCode": "S1205",
    "districtName": "DATIA",
    "acNumber": 21,
    "acName": "BHANDER",
    "partNumber": 134,
    "partName": "DURASADA",
    "lat": 25.728760049999998,
    "lon": 78.74892020938377
  },
  {
    "partId": 4329,
    "stateCode": "S12",
    "stateName": "Madhya Pradesh",
    "districtCode": "S1205",
    "districtName": "DATIA",
    "acNumber": 21,
    "acName": "BHANDER",
    "partNumber": 135,
    "partName": "DISABAR",
    "lat": 25.728760049999998,
    "lon": 78.74892020938377
  },
  {
    "partId": 4330,
    "stateCode": "S12",
    "stateName": "Madhya Pradesh",
    "districtCode": "S1205",
    "districtName": "DATIA",
    "acNumber": 21,
    "acName": "BHANDER",
    "partNumber": 136,
    "partName": "BASAVAHA",
    "lat": 25.728760049999998,
    "lon": 78.74892020938377
  },
  {
    "partId": 60761,
    "stateCode": "S12",
    "stateName": "Madhya Pradesh",
    "districtCode": "S1205",
    "districtName": "DATIA",
    "acNumber": 21,
    "acName": "BHANDER",
    "partNumber": 137,
    "partName": "BASAVAHA",
    "lat": 25.728760049999998,
    "lon": 78.74892020938377
  },
  {
    "partId": 4331,
    "stateCode": "S12",
    "stateName": "Madhya Pradesh",
    "districtCode": "S1205",
    "districtName": "DATIA",
    "acNumber": 21,
    "acName": "BHANDER",
    "partNumber": 138,
    "partName": "VIJANAPURA",
    "lat": 25.73974613967136,
    "lon": 78.73162393527284
  },
  {
    "partId": 4332,
    "stateCode": "S12",
    "stateName": "Madhya Pradesh",
    "districtCode": "S1205",
    "districtName": "DATIA",
    "acNumber": 21,
    "acName": "BHANDER",
    "partNumber": 139,
    "partName": "KUSAULEE",
    "lat": 25.728760049999998,
    "lon": 78.74892020938377
  },
  {
    "partId": 60760,
    "stateCode": "S12",
    "stateName": "Madhya Pradesh",
    "districtCode": "S1205",
    "districtName": "DATIA",
    "acNumber": 21,
    "acName": "BHANDER",
    "partNumber": 140,
    "partName": "KUSAULEE",
    "lat": 25.728760049999998,
    "lon": 78.74892020938377
  },
  {
    "partId": 4333,
    "stateCode": "S12",
    "stateName": "Madhya Pradesh",
    "districtCode": "S1205",
    "districtName": "DATIA",
    "acNumber": 21,
    "acName": "BHANDER",
    "partNumber": 141,
    "partName": "SASOOTEE",
    "lat": 25.728760049999998,
    "lon": 78.74892020938377
  },
  {
    "partId": 4334,
    "stateCode": "S12",
    "stateName": "Madhya Pradesh",
    "districtCode": "S1205",
    "districtName": "DATIA",
    "acNumber": 21,
    "acName": "BHANDER",
    "partNumber": 142,
    "partName": "DARAYAPUR",
    "lat": 25.728760049999998,
    "lon": 78.74892020938377
  },
  {
    "partId": 4335,
    "stateCode": "S12",
    "stateName": "Madhya Pradesh",
    "districtCode": "S1205",
    "districtName": "DATIA",
    "acNumber": 21,
    "acName": "BHANDER",
    "partNumber": 143,
    "partName": "GULMAU",
    "lat": 25.670764,
    "lon": 78.64890429328285
  },
  {
    "partId": 4336,
    "stateCode": "S12",
    "stateName": "Madhya Pradesh",
    "districtCode": "S1205",
    "districtName": "DATIA",
    "acNumber": 21,
    "acName": "BHANDER",
    "partNumber": 144,
    "partName": "SADABARA",
    "lat": 25.73974613967136,
    "lon": 78.73162393527284
  },
  {
    "partId": 4337,
    "stateCode": "S12",
    "stateName": "Madhya Pradesh",
    "districtCode": "S1205",
    "districtName": "DATIA",
    "acNumber": 21,
    "acName": "BHANDER",
    "partNumber": 145,
    "partName": "PENTA",
    "lat": 25.6756065,
    "lon": 78.6086368
  },
  {
    "partId": 24708,
    "stateCode": "S12",
    "stateName": "Madhya Pradesh",
    "districtCode": "S1205",
    "districtName": "DATIA",
    "acNumber": 21,
    "acName": "BHANDER",
    "partNumber": 146,
    "partName": "BEEKAR",
    "lat": 25.73974613967136,
    "lon": 78.73162393527284
  },
  {
    "partId": 4338,
    "stateCode": "S12",
    "stateName": "Madhya Pradesh",
    "districtCode": "S1205",
    "districtName": "DATIA",
    "acNumber": 21,
    "acName": "BHANDER",
    "partNumber": 147,
    "partName": "IMILIYA",
    "lat": 25.728760049999998,
    "lon": 78.74892020938377
  },
  {
    "partId": 60759,
    "stateCode": "S12",
    "stateName": "Madhya Pradesh",
    "districtCode": "S1205",
    "districtName": "DATIA",
    "acNumber": 21,
    "acName": "BHANDER",
    "partNumber": 148,
    "partName": "kakroua",
    "lat": 25.728760049999998,
    "lon": 78.74892020938377
  },
  {
    "partId": 4339,
    "stateCode": "S12",
    "stateName": "Madhya Pradesh",
    "districtCode": "S1205",
    "districtName": "DATIA",
    "acNumber": 21,
    "acName": "BHANDER",
    "partNumber": 149,
    "partName": "SYAREE",
    "lat": 25.728760049999998,
    "lon": 78.74892020938377
  },
  {
    "partId": 4340,
    "stateCode": "S12",
    "stateName": "Madhya Pradesh",
    "districtCode": "S1205",
    "districtName": "DATIA",
    "acNumber": 21,
    "acName": "BHANDER",
    "partNumber": 150,
    "partName": "IKARA",
    "lat": 25.66166715,
    "lon": 78.53977361628365
  },
  {
    "partId": 60758,
    "stateCode": "S12",
    "stateName": "Madhya Pradesh",
    "districtCode": "S1205",
    "districtName": "DATIA",
    "acNumber": 21,
    "acName": "BHANDER",
    "partNumber": 151,
    "partName": "IKARA",
    "lat": 25.66166715,
    "lon": 78.53977361628365
  },
  {
    "partId": 4341,
    "stateCode": "S12",
    "stateName": "Madhya Pradesh",
    "districtCode": "S1205",
    "districtName": "DATIA",
    "acNumber": 21,
    "acName": "BHANDER",
    "partNumber": 152,
    "partName": "GOVINDAGADH",
    "lat": 25.728760049999998,
    "lon": 78.74892020938377
  },
  {
    "partId": 4342,
    "stateCode": "S12",
    "stateName": "Madhya Pradesh",
    "districtCode": "S1205",
    "districtName": "DATIA",
    "acNumber": 21,
    "acName": "BHANDER",
    "partNumber": 153,
    "partName": "DHAVAREE",
    "lat": 25.728760049999998,
    "lon": 78.74892020938377
  },
  {
    "partId": 4343,
    "stateCode": "S12",
    "stateName": "Madhya Pradesh",
    "districtCode": "S1205",
    "districtName": "DATIA",
    "acNumber": 21,
    "acName": "BHANDER",
    "partNumber": 154,
    "partName": "PATHARA",
    "lat": 25.7988093,
    "lon": 78.7050569
  },
  {
    "partId": 4344,
    "stateCode": "S12",
    "stateName": "Madhya Pradesh",
    "districtCode": "S1205",
    "districtName": "DATIA",
    "acNumber": 21,
    "acName": "BHANDER",
    "partNumber": 155,
    "partName": "lalaua",
    "lat": 25.73974613967136,
    "lon": 78.73162393527284
  },
  {
    "partId": 4345,
    "stateCode": "S12",
    "stateName": "Madhya Pradesh",
    "districtCode": "S1205",
    "districtName": "DATIA",
    "acNumber": 21,
    "acName": "BHANDER",
    "partNumber": 156,
    "partName": "SERASA",
    "lat": 25.728760049999998,
    "lon": 78.74892020938377
  },
  {
    "partId": 60757,
    "stateCode": "S12",
    "stateName": "Madhya Pradesh",
    "districtCode": "S1205",
    "districtName": "DATIA",
    "acNumber": 21,
    "acName": "BHANDER",
    "partNumber": 157,
    "partName": "SERASA",
    "lat": 25.73974613967136,
    "lon": 78.73162393527284
  },
  {
    "partId": 4346,
    "stateCode": "S12",
    "stateName": "Madhya Pradesh",
    "districtCode": "S1205",
    "districtName": "DATIA",
    "acNumber": 21,
    "acName": "BHANDER",
    "partNumber": 158,
    "partName": "GHARAWA",
    "lat": 25.5934283,
    "lon": 78.5334311163161
  },
  {
    "partId": 24709,
    "stateCode": "S12",
    "stateName": "Madhya Pradesh",
    "districtCode": "S1205",
    "districtName": "DATIA",
    "acNumber": 21,
    "acName": "BHANDER",
    "partNumber": 159,
    "partName": "TAGA",
    "lat": 25.589831150000002,
    "lon": 78.51573738073148
  },
  {
    "partId": 4347,
    "stateCode": "S12",
    "stateName": "Madhya Pradesh",
    "districtCode": "S1205",
    "districtName": "DATIA",
    "acNumber": 21,
    "acName": "BHANDER",
    "partNumber": 160,
    "partName": "GUJARRA",
    "lat": 25.5747725,
    "lon": 78.5456617770129
  },
  {
    "partId": 60756,
    "stateCode": "S12",
    "stateName": "Madhya Pradesh",
    "districtCode": "S1205",
    "districtName": "DATIA",
    "acNumber": 21,
    "acName": "BHANDER",
    "partNumber": 161,
    "partName": "GHISALANI",
    "lat": 25.728760049999998,
    "lon": 78.74892020938377
  },
  {
    "partId": 4348,
    "stateCode": "S12",
    "stateName": "Madhya Pradesh",
    "districtCode": "S1205",
    "districtName": "DATIA",
    "acNumber": 21,
    "acName": "BHANDER",
    "partNumber": 162,
    "partName": "PARASAREE",
    "lat": 25.73974613967136,
    "lon": 78.73162393527284
  },
  {
    "partId": 4349,
    "stateCode": "S12",
    "stateName": "Madhya Pradesh",
    "districtCode": "S1205",
    "districtName": "DATIA",
    "acNumber": 21,
    "acName": "BHANDER",
    "partNumber": 163,
    "partName": "PARASAREE",
    "lat": 25.728760049999998,
    "lon": 78.74892020938377
  },
  {
    "partId": 4350,
    "stateCode": "S12",
    "stateName": "Madhya Pradesh",
    "districtCode": "S1205",
    "districtName": "DATIA",
    "acNumber": 21,
    "acName": "BHANDER",
    "partNumber": 164,
    "partName": "UNAV",
    "lat": 25.728760049999998,
    "lon": 78.74892020938377
  },
  {
    "partId": 60755,
    "stateCode": "S12",
    "stateName": "Madhya Pradesh",
    "districtCode": "S1205",
    "districtName": "DATIA",
    "acNumber": 21,
    "acName": "BHANDER",
    "partNumber": 165,
    "partName": "UNAV",
    "lat": 25.728760049999998,
    "lon": 78.74892020938377
  },
  {
    "partId": 4351,
    "stateCode": "S12",
    "stateName": "Madhya Pradesh",
    "districtCode": "S1205",
    "districtName": "DATIA",
    "acNumber": 21,
    "acName": "BHANDER",
    "partNumber": 166,
    "partName": "UNAV",
    "lat": 25.73974613967136,
    "lon": 78.73162393527284
  },
  {
    "partId": 4352,
    "stateCode": "S12",
    "stateName": "Madhya Pradesh",
    "districtCode": "S1205",
    "districtName": "DATIA",
    "acNumber": 21,
    "acName": "BHANDER",
    "partNumber": 167,
    "partName": "UNAV",
    "lat": 25.728760049999998,
    "lon": 78.74892020938377
  },
  {
    "partId": 4353,
    "stateCode": "S12",
    "stateName": "Madhya Pradesh",
    "districtCode": "S1205",
    "districtName": "DATIA",
    "acNumber": 21,
    "acName": "BHANDER",
    "partNumber": 168,
    "partName": "UNAV",
    "lat": 25.728760049999998,
    "lon": 78.74892020938377
  },
  {
    "partId": 4354,
    "stateCode": "S12",
    "stateName": "Madhya Pradesh",
    "districtCode": "S1205",
    "districtName": "DATIA",
    "acNumber": 21,
    "acName": "BHANDER",
    "partNumber": 169,
    "partName": "UNAV",
    "lat": 25.728760049999998,
    "lon": 78.74892020938377
  },
  {
    "partId": 4355,
    "stateCode": "S12",
    "stateName": "Madhya Pradesh",
    "districtCode": "S1205",
    "districtName": "DATIA",
    "acNumber": 21,
    "acName": "BHANDER",
    "partNumber": 170,
    "partName": "BHADEVARA",
    "lat": 25.6201972,
    "lon": 78.5990882
  },
  {
    "partId": 24710,
    "stateCode": "S12",
    "stateName": "Madhya Pradesh",
    "districtCode": "S1205",
    "districtName": "DATIA",
    "acNumber": 21,
    "acName": "BHANDER",
    "partNumber": 171,
    "partName": "ASER",
    "lat": 25.64758045,
    "lon": 78.60037705307757
  },
  {
    "partId": 4356,
    "stateCode": "S12",
    "stateName": "Madhya Pradesh",
    "districtCode": "S1205",
    "districtName": "DATIA",
    "acNumber": 21,
    "acName": "BHANDER",
    "partNumber": 172,
    "partName": "KAMAD",
    "lat": 25.6284974,
    "lon": 78.6280351
  },
  {
    "partId": 60754,
    "stateCode": "S12",
    "stateName": "Madhya Pradesh",
    "districtCode": "S1205",
    "districtName": "DATIA",
    "acNumber": 21,
    "acName": "BHANDER",
    "partNumber": 173,
    "partName": "KAMAD",
    "lat": 25.6284974,
    "lon": 78.6280351
  },
  {
    "partId": 24667,
    "stateCode": "S12",
    "stateName": "Madhya Pradesh",
    "districtCode": "S1205",
    "districtName": "DATIA",
    "acNumber": 21,
    "acName": "BHANDER",
    "partNumber": 174,
    "partName": "KAMAD",
    "lat": 25.6284974,
    "lon": 78.6280351
  },
  {
    "partId": 4357,
    "stateCode": "S12",
    "stateName": "Madhya Pradesh",
    "districtCode": "S1205",
    "districtName": "DATIA",
    "acNumber": 21,
    "acName": "BHANDER",
    "partNumber": 175,
    "partName": "RICHHAR",
    "lat": 25.64743545,
    "lon": 78.65478116270597
  },
  {
    "partId": 4358,
    "stateCode": "S12",
    "stateName": "Madhya Pradesh",
    "districtCode": "S1205",
    "districtName": "DATIA",
    "acNumber": 21,
    "acName": "BHANDER",
    "partNumber": 176,
    "partName": "DEVARA",
    "lat": 25.728760049999998,
    "lon": 78.74892020938377
  },
  {
    "partId": 4359,
    "stateCode": "S12",
    "stateName": "Madhya Pradesh",
    "districtCode": "S1205",
    "districtName": "DATIA",
    "acNumber": 21,
    "acName": "BHANDER",
    "partNumber": 177,
    "partName": "PYAVAL",
    "lat": 25.728760049999998,
    "lon": 78.74892020938377
  },
  {
    "partId": 4360,
    "stateCode": "S12",
    "stateName": "Madhya Pradesh",
    "districtCode": "S1205",
    "districtName": "DATIA",
    "acNumber": 21,
    "acName": "BHANDER",
    "partNumber": 178,
    "partName": "SIMARIYA",
    "lat": 25.728760049999998,
    "lon": 78.74892020938377
  },
  {
    "partId": 4361,
    "stateCode": "S12",
    "stateName": "Madhya Pradesh",
    "districtCode": "S1205",
    "districtName": "DATIA",
    "acNumber": 21,
    "acName": "BHANDER",
    "partNumber": 179,
    "partName": "KUMHARIYA",
    "lat": 25.728760049999998,
    "lon": 78.74892020938377
  },
  {
    "partId": 4362,
    "stateCode": "S12",
    "stateName": "Madhya Pradesh",
    "districtCode": "S1205",
    "districtName": "DATIA",
    "acNumber": 21,
    "acName": "BHANDER",
    "partNumber": 180,
    "partName": "TARGUWAN",
    "lat": 25.5891881,
    "lon": 78.6321544
  },
  {
    "partId": 4363,
    "stateCode": "S12",
    "stateName": "Madhya Pradesh",
    "districtCode": "S1205",
    "districtName": "DATIA",
    "acNumber": 21,
    "acName": "BHANDER",
    "partNumber": 181,
    "partName": "TARGUWAN",
    "lat": 25.5891881,
    "lon": 78.6321544
  },
  {
    "partId": 4364,
    "stateCode": "S12",
    "stateName": "Madhya Pradesh",
    "districtCode": "S1205",
    "districtName": "DATIA",
    "acNumber": 21,
    "acName": "BHANDER",
    "partNumber": 182,
    "partName": "DHAMANA",
    "lat": 25.728760049999998,
    "lon": 78.74892020938377
  },
  {
    "partId": 4365,
    "stateCode": "S12",
    "stateName": "Madhya Pradesh",
    "districtCode": "S1205",
    "districtName": "DATIA",
    "acNumber": 21,
    "acName": "BHANDER",
    "partNumber": 183,
    "partName": "SARSAI",
    "lat": 25.5888568,
    "lon": 78.66614719313941
  },
  {
    "partId": 24711,
    "stateCode": "S12",
    "stateName": "Madhya Pradesh",
    "districtCode": "S1205",
    "districtName": "DATIA",
    "acNumber": 21,
    "acName": "BHANDER",
    "partNumber": 184,
    "partName": "SARSAI",
    "lat": 25.5888568,
    "lon": 78.66614719313941
  },
  {
    "partId": 4366,
    "stateCode": "S12",
    "stateName": "Madhya Pradesh",
    "districtCode": "S1205",
    "districtName": "DATIA",
    "acNumber": 21,
    "acName": "BHANDER",
    "partNumber": 185,
    "partName": "SARSAI",
    "lat": 25.5888568,
    "lon": 78.66614719313941
  },
  {
    "partId": 4367,
    "stateCode": "S12",
    "stateName": "Madhya Pradesh",
    "districtCode": "S1205",
    "districtName": "DATIA",
    "acNumber": 21,
    "acName": "BHANDER",
    "partNumber": 186,
    "partName": "ASTOT",
    "lat": 25.60598015,
    "lon": 78.70398988936626
  },
  {
    "partId": 4368,
    "stateCode": "S12",
    "stateName": "Madhya Pradesh",
    "districtCode": "S1205",
    "districtName": "DATIA",
    "acNumber": 21,
    "acName": "BHANDER",
    "partNumber": 187,
    "partName": "MURIYA",
    "lat": 25.728760049999998,
    "lon": 78.74892020938377
  },
  {
    "partId": 4369,
    "stateCode": "S12",
    "stateName": "Madhya Pradesh",
    "districtCode": "S1205",
    "districtName": "DATIA",
    "acNumber": 21,
    "acName": "BHANDER",
    "partNumber": 188,
    "partName": "MUSTARA",
    "lat": 25.6168798,
    "lon": 78.74811545313634
  },
  {
    "partId": 4370,
    "stateCode": "S12",
    "stateName": "Madhya Pradesh",
    "districtCode": "S1205",
    "districtName": "DATIA",
    "acNumber": 21,
    "acName": "BHANDER",
    "partNumber": 189,
    "partName": "SALETARA",
    "lat": 25.728760049999998,
    "lon": 78.74892020938377
  },
  {
    "partId": 24666,
    "stateCode": "S12",
    "stateName": "Madhya Pradesh",
    "districtCode": "S1205",
    "districtName": "DATIA",
    "acNumber": 21,
    "acName": "BHANDER",
    "partNumber": 190,
    "partName": "SALETARA",
    "lat": 25.728760049999998,
    "lon": 78.74892020938377
  },
  {
    "partId": 4371,
    "stateCode": "S12",
    "stateName": "Madhya Pradesh",
    "districtCode": "S1205",
    "districtName": "DATIA",
    "acNumber": 21,
    "acName": "BHANDER",
    "partNumber": 191,
    "partName": "SAINTOL",
    "lat": 25.728760049999998,
    "lon": 78.74892020938377
  },
  {
    "partId": 4372,
    "stateCode": "S12",
    "stateName": "Madhya Pradesh",
    "districtCode": "S1205",
    "districtName": "DATIA",
    "acNumber": 21,
    "acName": "BHANDER",
    "partNumber": 192,
    "partName": "KULHARIYA",
    "lat": 25.73974613967136,
    "lon": 78.73162393527284
  },
  {
    "partId": 4373,
    "stateCode": "S12",
    "stateName": "Madhya Pradesh",
    "districtCode": "S1205",
    "districtName": "DATIA",
    "acNumber": 21,
    "acName": "BHANDER",
    "partNumber": 193,
    "partName": "BAINDA",
    "lat": 25.728760049999998,
    "lon": 78.74892020938377
  },
  {
    "partId": 4374,
    "stateCode": "S12",
    "stateName": "Madhya Pradesh",
    "districtCode": "S1205",
    "districtName": "DATIA",
    "acNumber": 21,
    "acName": "BHANDER",
    "partNumber": 194,
    "partName": "PIPARAUAKALA",
    "lat": 25.728760049999998,
    "lon": 78.74892020938377
  },
  {
    "partId": 24665,
    "stateCode": "S12",
    "stateName": "Madhya Pradesh",
    "districtCode": "S1205",
    "districtName": "DATIA",
    "acNumber": 21,
    "acName": "BHANDER",
    "partNumber": 195,
    "partName": "PIPARAUAKALA",
    "lat": 25.728760049999998,
    "lon": 78.74892020938377
  },
  {
    "partId": 4375,
    "stateCode": "S12",
    "stateName": "Madhya Pradesh",
    "districtCode": "S1205",
    "districtName": "DATIA",
    "acNumber": 21,
    "acName": "BHANDER",
    "partNumber": 196,
    "partName": "KUMHARIYARAY",
    "lat": 25.728760049999998,
    "lon": 78.74892020938377
  },
  {
    "partId": 4376,
    "stateCode": "S12",
    "stateName": "Madhya Pradesh",
    "districtCode": "S1205",
    "districtName": "DATIA",
    "acNumber": 21,
    "acName": "BHANDER",
    "partNumber": 197,
    "partName": "KHIRIYASAHAB",
    "lat": 25.728760049999998,
    "lon": 78.74892020938377
  },
  {
    "partId": 24712,
    "stateCode": "S12",
    "stateName": "Madhya Pradesh",
    "districtCode": "S1205",
    "districtName": "DATIA",
    "acNumber": 21,
    "acName": "BHANDER",
    "partNumber": 198,
    "partName": "BAIDHAREE",
    "lat": 25.728760049999998,
    "lon": 78.74892020938377
  },
  {
    "partId": 4377,
    "stateCode": "S12",
    "stateName": "Madhya Pradesh",
    "districtCode": "S1205",
    "districtName": "DATIA",
    "acNumber": 21,
    "acName": "BHANDER",
    "partNumber": 199,
    "partName": "BHANDER",
    "lat": 25.728760049999998,
    "lon": 78.74892020938377
  },
  {
    "partId": 60753,
    "stateCode": "S12",
    "stateName": "Madhya Pradesh",
    "districtCode": "S1205",
    "districtName": "DATIA",
    "acNumber": 21,
    "acName": "BHANDER",
    "partNumber": 200,
    "partName": "BHANDER",
    "lat": 25.728760049999998,
    "lon": 78.74892020938377
  },
  {
    "partId": 4378,
    "stateCode": "S12",
    "stateName": "Madhya Pradesh",
    "districtCode": "S1205",
    "districtName": "DATIA",
    "acNumber": 21,
    "acName": "BHANDER",
    "partNumber": 201,
    "partName": "BHANDER",
    "lat": 25.73974613967136,
    "lon": 78.73162393527284
  },
  {
    "partId": 4379,
    "stateCode": "S12",
    "stateName": "Madhya Pradesh",
    "districtCode": "S1205",
    "districtName": "DATIA",
    "acNumber": 21,
    "acName": "BHANDER",
    "partNumber": 202,
    "partName": "BHANDER",
    "lat": 25.728760049999998,
    "lon": 78.74892020938377
  },
  {
    "partId": 24664,
    "stateCode": "S12",
    "stateName": "Madhya Pradesh",
    "districtCode": "S1205",
    "districtName": "DATIA",
    "acNumber": 21,
    "acName": "BHANDER",
    "partNumber": 203,
    "partName": "BHANDER",
    "lat": 25.73974613967136,
    "lon": 78.73162393527284
  },
  {
    "partId": 4380,
    "stateCode": "S12",
    "stateName": "Madhya Pradesh",
    "districtCode": "S1205",
    "districtName": "DATIA",
    "acNumber": 21,
    "acName": "BHANDER",
    "partNumber": 204,
    "partName": "BHANDER",
    "lat": 25.728760049999998,
    "lon": 78.74892020938377
  },
  {
    "partId": 24663,
    "stateCode": "S12",
    "stateName": "Madhya Pradesh",
    "districtCode": "S1205",
    "districtName": "DATIA",
    "acNumber": 21,
    "acName": "BHANDER",
    "partNumber": 205,
    "partName": "BHANDER",
    "lat": 25.73974613967136,
    "lon": 78.73162393527284
  },
  {
    "partId": 4381,
    "stateCode": "S12",
    "stateName": "Madhya Pradesh",
    "districtCode": "S1205",
    "districtName": "DATIA",
    "acNumber": 21,
    "acName": "BHANDER",
    "partNumber": 206,
    "partName": "BHANDER",
    "lat": 25.728760049999998,
    "lon": 78.74892020938377
  },
  {
    "partId": 4382,
    "stateCode": "S12",
    "stateName": "Madhya Pradesh",
    "districtCode": "S1205",
    "districtName": "DATIA",
    "acNumber": 21,
    "acName": "BHANDER",
    "partNumber": 207,
    "partName": "BHANDER",
    "lat": 25.728760049999998,
    "lon": 78.74892020938377
  },
  {
    "partId": 4383,
    "stateCode": "S12",
    "stateName": "Madhya Pradesh",
    "districtCode": "S1205",
    "districtName": "DATIA",
    "acNumber": 21,
    "acName": "BHANDER",
    "partNumber": 208,
    "partName": "BHANDER",
    "lat": 25.728760049999998,
    "lon": 78.74892020938377
  },
  {
    "partId": 4384,
    "stateCode": "S12",
    "stateName": "Madhya Pradesh",
    "districtCode": "S1205",
    "districtName": "DATIA",
    "acNumber": 21,
    "acName": "BHANDER",
    "partNumber": 209,
    "partName": "BHANDER",
    "lat": 25.728760049999998,
    "lon": 78.74892020938377
  },
  {
    "partId": 4385,
    "stateCode": "S12",
    "stateName": "Madhya Pradesh",
    "districtCode": "S1205",
    "districtName": "DATIA",
    "acNumber": 21,
    "acName": "BHANDER",
    "partNumber": 210,
    "partName": "BHANDER",
    "lat": 25.728760049999998,
    "lon": 78.74892020938377
  },
  {
    "partId": 60752,
    "stateCode": "S12",
    "stateName": "Madhya Pradesh",
    "districtCode": "S1205",
    "districtName": "DATIA",
    "acNumber": 21,
    "acName": "BHANDER",
    "partNumber": 211,
    "partName": "BHANDER",
    "lat": 25.728760049999998,
    "lon": 78.74892020938377
  },
  {
    "partId": 4386,
    "stateCode": "S12",
    "stateName": "Madhya Pradesh",
    "districtCode": "S1205",
    "districtName": "DATIA",
    "acNumber": 21,
    "acName": "BHANDER",
    "partNumber": 212,
    "partName": "BHANDER",
    "lat": 25.728760049999998,
    "lon": 78.74892020938377
  },
  {
    "partId": 4387,
    "stateCode": "S12",
    "stateName": "Madhya Pradesh",
    "districtCode": "S1205",
    "districtName": "DATIA",
    "acNumber": 21,
    "acName": "BHANDER",
    "partNumber": 213,
    "partName": "BHANDER",
    "lat": 25.728760049999998,
    "lon": 78.74892020938377
  },
  {
    "partId": 4388,
    "stateCode": "S12",
    "stateName": "Madhya Pradesh",
    "districtCode": "S1205",
    "districtName": "DATIA",
    "acNumber": 21,
    "acName": "BHANDER",
    "partNumber": 214,
    "partName": "BHANDER",
    "lat": 25.728760049999998,
    "lon": 78.74892020938377
  },
  {
    "partId": 24662,
    "stateCode": "S12",
    "stateName": "Madhya Pradesh",
    "districtCode": "S1205",
    "districtName": "DATIA",
    "acNumber": 21,
    "acName": "BHANDER",
    "partNumber": 215,
    "partName": "BHANDER",
    "lat": 25.728760049999998,
    "lon": 78.74892020938377
  },
  {
    "partId": 4389,
    "stateCode": "S12",
    "stateName": "Madhya Pradesh",
    "districtCode": "S1205",
    "districtName": "DATIA",
    "acNumber": 21,
    "acName": "BHANDER",
    "partNumber": 216,
    "partName": "BHANDER",
    "lat": 25.728760049999998,
    "lon": 78.74892020938377
  },
  {
    "partId": 4390,
    "stateCode": "S12",
    "stateName": "Madhya Pradesh",
    "districtCode": "S1205",
    "districtName": "DATIA",
    "acNumber": 21,
    "acName": "BHANDER",
    "partNumber": 217,
    "partName": "BHANDER",
    "lat": 25.728760049999998,
    "lon": 78.74892020938377
  },
  {
    "partId": 60751,
    "stateCode": "S12",
    "stateName": "Madhya Pradesh",
    "districtCode": "S1205",
    "districtName": "DATIA",
    "acNumber": 21,
    "acName": "BHANDER",
    "partNumber": 218,
    "partName": "BHANDER",
    "lat": 25.728760049999998,
    "lon": 78.74892020938377
  },
  {
    "partId": 4391,
    "stateCode": "S12",
    "stateName": "Madhya Pradesh",
    "districtCode": "S1205",
    "districtName": "DATIA",
    "acNumber": 21,
    "acName": "BHANDER",
    "partNumber": 219,
    "partName": "TATARAPUR",
    "lat": 25.728760049999998,
    "lon": 78.74892020938377
  },
  {
    "partId": 4392,
    "stateCode": "S12",
    "stateName": "Madhya Pradesh",
    "districtCode": "S1205",
    "districtName": "DATIA",
    "acNumber": 21,
    "acName": "BHANDER",
    "partNumber": 220,
    "partName": "PATHARIYA TATARAPUR",
    "lat": 25.728760049999998,
    "lon": 78.74892020938377
  },
  {
    "partId": 24713,
    "stateCode": "S12",
    "stateName": "Madhya Pradesh",
    "districtCode": "S1205",
    "districtName": "DATIA",
    "acNumber": 21,
    "acName": "BHANDER",
    "partNumber": 221,
    "partName": "NOB\u00a7",
    "lat": 25.728760049999998,
    "lon": 78.74892020938377
  },
  {
    "partId": 4394,
    "stateCode": "S12",
    "stateName": "Madhya Pradesh",
    "districtCode": "S1205",
    "districtName": "DATIA",
    "acNumber": 21,
    "acName": "BHANDER",
    "partNumber": 222,
    "partName": "SALON A",
    "lat": 25.688836950000002,
    "lon": 78.79490359042917
  },
  {
    "partId": 60750,
    "stateCode": "S12",
    "stateName": "Madhya Pradesh",
    "districtCode": "S1205",
    "districtName": "DATIA",
    "acNumber": 21,
    "acName": "BHANDER",
    "partNumber": 223,
    "partName": "SALON A",
    "lat": 25.688836950000002,
    "lon": 78.79490359042917
  },
  {
    "partId": 4395,
    "stateCode": "S12",
    "stateName": "Madhya Pradesh",
    "districtCode": "S1205",
    "districtName": "DATIA",
    "acNumber": 21,
    "acName": "BHANDER",
    "partNumber": 224,
    "partName": "BHARARALEE",
    "lat": 25.728760049999998,
    "lon": 78.74892020938377
  },
  {
    "partId": 4396,
    "stateCode": "S12",
    "stateName": "Madhya Pradesh",
    "districtCode": "S1205",
    "districtName": "DATIA",
    "acNumber": 21,
    "acName": "BHANDER",
    "partNumber": 225,
    "partName": "DALAPATAPUR",
    "lat": 25.728760049999998,
    "lon": 78.74892020938377
  },
  {
    "partId": 4397,
    "stateCode": "S12",
    "stateName": "Madhya Pradesh",
    "districtCode": "S1205",
    "districtName": "DATIA",
    "acNumber": 21,
    "acName": "BHANDER",
    "partNumber": 226,
    "partName": "BAGADA",
    "lat": 25.728760049999998,
    "lon": 78.74892020938377
  },
  {
    "partId": 4398,
    "stateCode": "S12",
    "stateName": "Madhya Pradesh",
    "districtCode": "S1205",
    "districtName": "DATIA",
    "acNumber": 21,
    "acName": "BHANDER",
    "partNumber": 227,
    "partName": "BICHHAUDANA",
    "lat": 25.728760049999998,
    "lon": 78.74892020938377
  },
  {
    "partId": 60749,
    "stateCode": "S12",
    "stateName": "Madhya Pradesh",
    "districtCode": "S1205",
    "districtName": "DATIA",
    "acNumber": 21,
    "acName": "BHANDER",
    "partNumber": 228,
    "partName": "BICHHAUDANA",
    "lat": 25.728760049999998,
    "lon": 78.74892020938377
  },
  {
    "partId": 24661,
    "stateCode": "S12",
    "stateName": "Madhya Pradesh",
    "districtCode": "S1205",
    "districtName": "DATIA",
    "acNumber": 21,
    "acName": "BHANDER",
    "partNumber": 229,
    "partName": "BICHHAUDANA",
    "lat": 25.728760049999998,
    "lon": 78.74892020938377
  },
  {
    "partId": 4404,
    "stateCode": "S12",
    "stateName": "Madhya Pradesh",
    "districtCode": "S1205",
    "districtName": "DATIA",
    "acNumber": 22,
    "acName": "DATIA",
    "partNumber": 1,
    "partName": "KOTARA",
    "lat": 25.75,
    "lon": 78.5
  },
  {
    "partId": 4508,
    "stateCode": "S12",
    "stateName": "Madhya Pradesh",
    "districtCode": "S1205",
    "districtName": "DATIA",
    "acNumber": 22,
    "acName": "DATIA",
    "partNumber": 2,
    "partName": "GORA",
    "lat": 26.032923750000002,
    "lon": 78.75795908913523
  },
  {
    "partId": 4405,
    "stateCode": "S12",
    "stateName": "Madhya Pradesh",
    "districtCode": "S1205",
    "districtName": "DATIA",
    "acNumber": 22,
    "acName": "DATIA",
    "partNumber": 3,
    "partName": "PACHOKHARA",
    "lat": 25.9264387,
    "lon": 78.5277843
  },
  {
    "partId": 4406,
    "stateCode": "S12",
    "stateName": "Madhya Pradesh",
    "districtCode": "S1205",
    "districtName": "DATIA",
    "acNumber": 22,
    "acName": "DATIA",
    "partNumber": 4,
    "partName": "BADONAKALAN",
    "lat": 25.75,
    "lon": 78.5
  },
  {
    "partId": 61345,
    "stateCode": "S12",
    "stateName": "Madhya Pradesh",
    "districtCode": "S1205",
    "districtName": "DATIA",
    "acNumber": 22,
    "acName": "DATIA",
    "partNumber": 5,
    "partName": "DHORRA",
    "lat": 26.0423486,
    "lon": 78.65623371915521
  },
  {
    "partId": 4407,
    "stateCode": "S12",
    "stateName": "Madhya Pradesh",
    "districtCode": "S1205",
    "districtName": "DATIA",
    "acNumber": 22,
    "acName": "DATIA",
    "partNumber": 6,
    "partName": "BADONAKALAN",
    "lat": 25.75,
    "lon": 78.5
  },
  {
    "partId": 61344,
    "stateCode": "S12",
    "stateName": "Madhya Pradesh",
    "districtCode": "S1205",
    "districtName": "DATIA",
    "acNumber": 22,
    "acName": "DATIA",
    "partNumber": 7,
    "partName": "BADONAKALAN",
    "lat": 25.75,
    "lon": 78.5
  },
  {
    "partId": 4408,
    "stateCode": "S12",
    "stateName": "Madhya Pradesh",
    "districtCode": "S1205",
    "districtName": "DATIA",
    "acNumber": 22,
    "acName": "DATIA",
    "partNumber": 8,
    "partName": "DAGARAKU",
    "lat": 25.75,
    "lon": 78.5
  },
  {
    "partId": 4409,
    "stateCode": "S12",
    "stateName": "Madhya Pradesh",
    "districtCode": "S1205",
    "districtName": "DATIA",
    "acNumber": 22,
    "acName": "DATIA",
    "partNumber": 9,
    "partName": "HINOTIYA",
    "lat": 25.7595709,
    "lon": 78.2981658
  },
  {
    "partId": 4410,
    "stateCode": "S12",
    "stateName": "Madhya Pradesh",
    "districtCode": "S1205",
    "districtName": "DATIA",
    "acNumber": 22,
    "acName": "DATIA",
    "partNumber": 10,
    "partName": "HIDORA",
    "lat": 25.7310578,
    "lon": 78.3081007
  },
  {
    "partId": 4540,
    "stateCode": "S12",
    "stateName": "Madhya Pradesh",
    "districtCode": "S1205",
    "districtName": "DATIA",
    "acNumber": 22,
    "acName": "DATIA",
    "partNumber": 11,
    "partName": "BHILLA",
    "lat": 25.74614845,
    "lon": 78.32275514966643
  },
  {
    "partId": 4411,
    "stateCode": "S12",
    "stateName": "Madhya Pradesh",
    "districtCode": "S1205",
    "districtName": "DATIA",
    "acNumber": 22,
    "acName": "DATIA",
    "partNumber": 12,
    "partName": "GHUGHASI",
    "lat": 25.75,
    "lon": 78.5
  },
  {
    "partId": 4412,
    "stateCode": "S12",
    "stateName": "Madhya Pradesh",
    "districtCode": "S1205",
    "districtName": "DATIA",
    "acNumber": 22,
    "acName": "DATIA",
    "partNumber": 13,
    "partName": "ORINA",
    "lat": 25.75,
    "lon": 78.5
  },
  {
    "partId": 4413,
    "stateCode": "S12",
    "stateName": "Madhya Pradesh",
    "districtCode": "S1205",
    "districtName": "DATIA",
    "acNumber": 22,
    "acName": "DATIA",
    "partNumber": 14,
    "partName": "SIJORA",
    "lat": 25.7077376,
    "lon": 78.28650513922976
  },
  {
    "partId": 4414,
    "stateCode": "S12",
    "stateName": "Madhya Pradesh",
    "districtCode": "S1205",
    "districtName": "DATIA",
    "acNumber": 22,
    "acName": "DATIA",
    "partNumber": 15,
    "partName": "JOUNHAR",
    "lat": 25.75,
    "lon": 78.5
  },
  {
    "partId": 4415,
    "stateCode": "S12",
    "stateName": "Madhya Pradesh",
    "districtCode": "S1205",
    "districtName": "DATIA",
    "acNumber": 22,
    "acName": "DATIA",
    "partNumber": 16,
    "partName": "KURATHARA",
    "lat": 25.75,
    "lon": 78.5
  },
  {
    "partId": 4509,
    "stateCode": "S12",
    "stateName": "Madhya Pradesh",
    "districtCode": "S1205",
    "districtName": "DATIA",
    "acNumber": 22,
    "acName": "DATIA",
    "partNumber": 17,
    "partName": "PITASURA",
    "lat": 25.75,
    "lon": 78.5
  },
  {
    "partId": 4539,
    "stateCode": "S12",
    "stateName": "Madhya Pradesh",
    "districtCode": "S1205",
    "districtName": "DATIA",
    "acNumber": 22,
    "acName": "DATIA",
    "partNumber": 18,
    "partName": "KAMTHARA",
    "lat": 25.6974189,
    "lon": 78.3355772
  },
  {
    "partId": 4416,
    "stateCode": "S12",
    "stateName": "Madhya Pradesh",
    "districtCode": "S1205",
    "districtName": "DATIA",
    "acNumber": 22,
    "acName": "DATIA",
    "partNumber": 19,
    "partName": "BADONIKHURD",
    "lat": 25.6854304,
    "lon": 78.3745336
  },
  {
    "partId": 61343,
    "stateCode": "S12",
    "stateName": "Madhya Pradesh",
    "districtCode": "S1205",
    "districtName": "DATIA",
    "acNumber": 22,
    "acName": "DATIA",
    "partNumber": 20,
    "partName": "BADONIKHURD",
    "lat": 25.6854304,
    "lon": 78.3745336
  },
  {
    "partId": 4417,
    "stateCode": "S12",
    "stateName": "Madhya Pradesh",
    "districtCode": "S1205",
    "districtName": "DATIA",
    "acNumber": 22,
    "acName": "DATIA",
    "partNumber": 21,
    "partName": "BADONIKHURD",
    "lat": 25.6854304,
    "lon": 78.3745336
  },
  {
    "partId": 4418,
    "stateCode": "S12",
    "stateName": "Madhya Pradesh",
    "districtCode": "S1205",
    "districtName": "DATIA",
    "acNumber": 22,
    "acName": "DATIA",
    "partNumber": 22,
    "partName": "BADONIKHURD",
    "lat": 25.6854304,
    "lon": 78.3745336
  },
  {
    "partId": 4419,
    "stateCode": "S12",
    "stateName": "Madhya Pradesh",
    "districtCode": "S1205",
    "districtName": "DATIA",
    "acNumber": 22,
    "acName": "DATIA",
    "partNumber": 23,
    "partName": "BADONIKHURD",
    "lat": 25.6854304,
    "lon": 78.3745336
  },
  {
    "partId": 61342,
    "stateCode": "S12",
    "stateName": "Madhya Pradesh",
    "districtCode": "S1205",
    "districtName": "DATIA",
    "acNumber": 22,
    "acName": "DATIA",
    "partNumber": 24,
    "partName": "BADONIKHURD",
    "lat": 25.6854304,
    "lon": 78.3745336
  },
  {
    "partId": 4420,
    "stateCode": "S12",
    "stateName": "Madhya Pradesh",
    "districtCode": "S1205",
    "districtName": "DATIA",
    "acNumber": 22,
    "acName": "DATIA",
    "partNumber": 25,
    "partName": "BADONIKHURD",
    "lat": 25.6854304,
    "lon": 78.3745336
  },
  {
    "partId": 61341,
    "stateCode": "S12",
    "stateName": "Madhya Pradesh",
    "districtCode": "S1205",
    "districtName": "DATIA",
    "acNumber": 22,
    "acName": "DATIA",
    "partNumber": 26,
    "partName": "BADONIKHURD",
    "lat": 25.6854304,
    "lon": 78.3745336
  },
  {
    "partId": 4421,
    "stateCode": "S12",
    "stateName": "Madhya Pradesh",
    "districtCode": "S1205",
    "districtName": "DATIA",
    "acNumber": 22,
    "acName": "DATIA",
    "partNumber": 27,
    "partName": "SEVANI",
    "lat": 25.63393438220339,
    "lon": 78.4515381021797
  },
  {
    "partId": 4538,
    "stateCode": "S12",
    "stateName": "Madhya Pradesh",
    "districtCode": "S1205",
    "districtName": "DATIA",
    "acNumber": 22,
    "acName": "DATIA",
    "partNumber": 28,
    "partName": "SUNAR",
    "lat": 25.7232289,
    "lon": 78.3575392
  },
  {
    "partId": 4422,
    "stateCode": "S12",
    "stateName": "Madhya Pradesh",
    "districtCode": "S1205",
    "districtName": "DATIA",
    "acNumber": 22,
    "acName": "DATIA",
    "partNumber": 29,
    "partName": "BHADUMARA",
    "lat": 25.75,
    "lon": 78.5
  },
  {
    "partId": 4423,
    "stateCode": "S12",
    "stateName": "Madhya Pradesh",
    "districtCode": "S1205",
    "districtName": "DATIA",
    "acNumber": 22,
    "acName": "DATIA",
    "partNumber": 30,
    "partName": "ERAI",
    "lat": 25.75,
    "lon": 78.5
  },
  {
    "partId": 4424,
    "stateCode": "S12",
    "stateName": "Madhya Pradesh",
    "districtCode": "S1205",
    "districtName": "DATIA",
    "acNumber": 22,
    "acName": "DATIA",
    "partNumber": 31,
    "partName": "BHITI",
    "lat": 25.73931955,
    "lon": 78.34822716420575
  },
  {
    "partId": 4425,
    "stateCode": "S12",
    "stateName": "Madhya Pradesh",
    "districtCode": "S1205",
    "districtName": "DATIA",
    "acNumber": 22,
    "acName": "DATIA",
    "partNumber": 32,
    "partName": "RAVARI",
    "lat": 25.75,
    "lon": 78.5
  },
  {
    "partId": 4426,
    "stateCode": "S12",
    "stateName": "Madhya Pradesh",
    "districtCode": "S1205",
    "districtName": "DATIA",
    "acNumber": 22,
    "acName": "DATIA",
    "partNumber": 33,
    "partName": "VAMAROL",
    "lat": 25.75,
    "lon": 78.5
  },
  {
    "partId": 4510,
    "stateCode": "S12",
    "stateName": "Madhya Pradesh",
    "districtCode": "S1205",
    "districtName": "DATIA",
    "acNumber": 22,
    "acName": "DATIA",
    "partNumber": 34,
    "partName": "VARAGANY",
    "lat": 25.75,
    "lon": 78.5
  },
  {
    "partId": 4427,
    "stateCode": "S12",
    "stateName": "Madhya Pradesh",
    "districtCode": "S1205",
    "districtName": "DATIA",
    "acNumber": 22,
    "acName": "DATIA",
    "partNumber": 35,
    "partName": "VARAGANY",
    "lat": 25.75,
    "lon": 78.5
  },
  {
    "partId": 4537,
    "stateCode": "S12",
    "stateName": "Madhya Pradesh",
    "districtCode": "S1205",
    "districtName": "DATIA",
    "acNumber": 22,
    "acName": "DATIA",
    "partNumber": 36,
    "partName": "SEPURA",
    "lat": 25.75,
    "lon": 78.5
  },
  {
    "partId": 4428,
    "stateCode": "S12",
    "stateName": "Madhya Pradesh",
    "districtCode": "S1205",
    "districtName": "DATIA",
    "acNumber": 22,
    "acName": "DATIA",
    "partNumber": 37,
    "partName": "SINAVAL",
    "lat": 25.75,
    "lon": 78.5
  },
  {
    "partId": 4429,
    "stateCode": "S12",
    "stateName": "Madhya Pradesh",
    "districtCode": "S1205",
    "districtName": "DATIA",
    "acNumber": 22,
    "acName": "DATIA",
    "partNumber": 38,
    "partName": "MAHEVA",
    "lat": 25.75,
    "lon": 78.5
  },
  {
    "partId": 4430,
    "stateCode": "S12",
    "stateName": "Madhya Pradesh",
    "districtCode": "S1205",
    "districtName": "DATIA",
    "acNumber": 22,
    "acName": "DATIA",
    "partNumber": 39,
    "partName": "MURERA",
    "lat": 25.71926985,
    "lon": 78.41327806151389
  },
  {
    "partId": 61340,
    "stateCode": "S12",
    "stateName": "Madhya Pradesh",
    "districtCode": "S1205",
    "districtName": "DATIA",
    "acNumber": 22,
    "acName": "DATIA",
    "partNumber": 40,
    "partName": "MURERA",
    "lat": 25.71926985,
    "lon": 78.41327806151389
  },
  {
    "partId": 4431,
    "stateCode": "S12",
    "stateName": "Madhya Pradesh",
    "districtCode": "S1205",
    "districtName": "DATIA",
    "acNumber": 22,
    "acName": "DATIA",
    "partNumber": 41,
    "partName": "RAM SAGAR",
    "lat": 25.75,
    "lon": 78.5
  },
  {
    "partId": 4432,
    "stateCode": "S12",
    "stateName": "Madhya Pradesh",
    "districtCode": "S1205",
    "districtName": "DATIA",
    "acNumber": 22,
    "acName": "DATIA",
    "partNumber": 42,
    "partName": "GOVINDAPUR",
    "lat": 25.75,
    "lon": 78.5
  },
  {
    "partId": 4433,
    "stateCode": "S12",
    "stateName": "Madhya Pradesh",
    "districtCode": "S1205",
    "districtName": "DATIA",
    "acNumber": 22,
    "acName": "DATIA",
    "partNumber": 43,
    "partName": "RICHHARI",
    "lat": 25.7160537,
    "lon": 78.42811863080527
  },
  {
    "partId": 61339,
    "stateCode": "S12",
    "stateName": "Madhya Pradesh",
    "districtCode": "S1205",
    "districtName": "DATIA",
    "acNumber": 22,
    "acName": "DATIA",
    "partNumber": 44,
    "partName": "JAKHORIYA",
    "lat": 25.75,
    "lon": 78.5
  },
  {
    "partId": 4434,
    "stateCode": "S12",
    "stateName": "Madhya Pradesh",
    "districtCode": "S1205",
    "districtName": "DATIA",
    "acNumber": 22,
    "acName": "DATIA",
    "partNumber": 45,
    "partName": "SITAPUR",
    "lat": 25.743252050000002,
    "lon": 78.41151970370234
  },
  {
    "partId": 61338,
    "stateCode": "S12",
    "stateName": "Madhya Pradesh",
    "districtCode": "S1205",
    "districtName": "DATIA",
    "acNumber": 22,
    "acName": "DATIA",
    "partNumber": 46,
    "partName": "SITAPUR",
    "lat": 25.743252050000002,
    "lon": 78.41151970370234
  },
  {
    "partId": 4435,
    "stateCode": "S12",
    "stateName": "Madhya Pradesh",
    "districtCode": "S1205",
    "districtName": "DATIA",
    "acNumber": 22,
    "acName": "DATIA",
    "partNumber": 47,
    "partName": "UPARAY",
    "lat": 25.75,
    "lon": 78.5
  },
  {
    "partId": 4436,
    "stateCode": "S12",
    "stateName": "Madhya Pradesh",
    "districtCode": "S1205",
    "districtName": "DATIA",
    "acNumber": 22,
    "acName": "DATIA",
    "partNumber": 48,
    "partName": "UPARAY",
    "lat": 25.75,
    "lon": 78.5
  },
  {
    "partId": 4511,
    "stateCode": "S12",
    "stateName": "Madhya Pradesh",
    "districtCode": "S1205",
    "districtName": "DATIA",
    "acNumber": 22,
    "acName": "DATIA",
    "partNumber": 49,
    "partName": "VADERA",
    "lat": 25.75,
    "lon": 78.5
  },
  {
    "partId": 4536,
    "stateCode": "S12",
    "stateName": "Madhya Pradesh",
    "districtCode": "S1205",
    "districtName": "DATIA",
    "acNumber": 22,
    "acName": "DATIA",
    "partNumber": 50,
    "partName": "GULIYAPURA",
    "lat": 25.788702800000003,
    "lon": 78.37791484446748
  },
  {
    "partId": 4437,
    "stateCode": "S12",
    "stateName": "Madhya Pradesh",
    "districtCode": "S1205",
    "districtName": "DATIA",
    "acNumber": 22,
    "acName": "DATIA",
    "partNumber": 51,
    "partName": "MALAKAPAHADI",
    "lat": 25.75,
    "lon": 78.5
  },
  {
    "partId": 4438,
    "stateCode": "S12",
    "stateName": "Madhya Pradesh",
    "districtCode": "S1205",
    "districtName": "DATIA",
    "acNumber": 22,
    "acName": "DATIA",
    "partNumber": 52,
    "partName": "BAHARUKA",
    "lat": 25.75,
    "lon": 78.5
  },
  {
    "partId": 4439,
    "stateCode": "S12",
    "stateName": "Madhya Pradesh",
    "districtCode": "S1205",
    "districtName": "DATIA",
    "acNumber": 22,
    "acName": "DATIA",
    "partNumber": 53,
    "partName": "BANOLI",
    "lat": 25.7862514,
    "lon": 78.4448075
  },
  {
    "partId": 4440,
    "stateCode": "S12",
    "stateName": "Madhya Pradesh",
    "districtCode": "S1205",
    "districtName": "DATIA",
    "acNumber": 22,
    "acName": "DATIA",
    "partNumber": 54,
    "partName": "DONGARAPUR",
    "lat": 25.75,
    "lon": 78.5
  },
  {
    "partId": 4535,
    "stateCode": "S12",
    "stateName": "Madhya Pradesh",
    "districtCode": "S1205",
    "districtName": "DATIA",
    "acNumber": 22,
    "acName": "DATIA",
    "partNumber": 55,
    "partName": "GADHA",
    "lat": 25.75,
    "lon": 78.5
  },
  {
    "partId": 4441,
    "stateCode": "S12",
    "stateName": "Madhya Pradesh",
    "districtCode": "S1205",
    "districtName": "DATIA",
    "acNumber": 22,
    "acName": "DATIA",
    "partNumber": 56,
    "partName": "BAROY",
    "lat": 25.7684168,
    "lon": 78.4562874
  },
  {
    "partId": 4442,
    "stateCode": "S12",
    "stateName": "Madhya Pradesh",
    "districtCode": "S1205",
    "districtName": "DATIA",
    "acNumber": 22,
    "acName": "DATIA",
    "partNumber": 57,
    "partName": "LIDHORA",
    "lat": 25.7751413,
    "lon": 78.4818005
  },
  {
    "partId": 4443,
    "stateCode": "S12",
    "stateName": "Madhya Pradesh",
    "districtCode": "S1205",
    "districtName": "DATIA",
    "acNumber": 22,
    "acName": "DATIA",
    "partNumber": 58,
    "partName": "MAHU",
    "lat": 25.75,
    "lon": 78.5
  },
  {
    "partId": 4444,
    "stateCode": "S12",
    "stateName": "Madhya Pradesh",
    "districtCode": "S1205",
    "districtName": "DATIA",
    "acNumber": 22,
    "acName": "DATIA",
    "partNumber": 59,
    "partName": "GADHI",
    "lat": 25.747004,
    "lon": 78.4329629
  },
  {
    "partId": 4445,
    "stateCode": "S12",
    "stateName": "Madhya Pradesh",
    "districtCode": "S1205",
    "districtName": "DATIA",
    "acNumber": 22,
    "acName": "DATIA",
    "partNumber": 60,
    "partName": "BUDHEDA",
    "lat": 25.7448586,
    "lon": 78.4645057
  },
  {
    "partId": 4446,
    "stateCode": "S12",
    "stateName": "Madhya Pradesh",
    "districtCode": "S1205",
    "districtName": "DATIA",
    "acNumber": 22,
    "acName": "DATIA",
    "partNumber": 61,
    "partName": "SIROL",
    "lat": 25.7185893,
    "lon": 78.4549999
  },
  {
    "partId": 4512,
    "stateCode": "S12",
    "stateName": "Madhya Pradesh",
    "districtCode": "S1205",
    "districtName": "DATIA",
    "acNumber": 22,
    "acName": "DATIA",
    "partNumber": 62,
    "partName": "RICHHARA",
    "lat": 25.653326,
    "lon": 78.6570024
  },
  {
    "partId": 4447,
    "stateCode": "S12",
    "stateName": "Madhya Pradesh",
    "districtCode": "S1205",
    "districtName": "DATIA",
    "acNumber": 22,
    "acName": "DATIA",
    "partNumber": 63,
    "partName": "KUMHEDI",
    "lat": 25.63393438220339,
    "lon": 78.4515381021797
  },
  {
    "partId": 4448,
    "stateCode": "S12",
    "stateName": "Madhya Pradesh",
    "districtCode": "S1205",
    "districtName": "DATIA",
    "acNumber": 22,
    "acName": "DATIA",
    "partNumber": 64,
    "partName": "JHADIYA",
    "lat": 25.63393438220339,
    "lon": 78.4515381021797
  },
  {
    "partId": 4449,
    "stateCode": "S12",
    "stateName": "Madhya Pradesh",
    "districtCode": "S1205",
    "districtName": "DATIA",
    "acNumber": 22,
    "acName": "DATIA",
    "partNumber": 65,
    "partName": "KEVALARI",
    "lat": 25.75,
    "lon": 78.5
  },
  {
    "partId": 61360,
    "stateCode": "S12",
    "stateName": "Madhya Pradesh",
    "districtCode": "S1205",
    "districtName": "DATIA",
    "acNumber": 22,
    "acName": "DATIA",
    "partNumber": 66,
    "partName": "BAHADURAPUR",
    "lat": 25.75,
    "lon": 78.5
  },
  {
    "partId": 61361,
    "stateCode": "S12",
    "stateName": "Madhya Pradesh",
    "districtCode": "S1205",
    "districtName": "DATIA",
    "acNumber": 22,
    "acName": "DATIA",
    "partNumber": 67,
    "partName": "REDA",
    "lat": 25.7133696,
    "lon": 78.5080004
  },
  {
    "partId": 61362,
    "stateCode": "S12",
    "stateName": "Madhya Pradesh",
    "districtCode": "S1205",
    "districtName": "DATIA",
    "acNumber": 22,
    "acName": "DATIA",
    "partNumber": 68,
    "partName": "MAHARAJAPURA",
    "lat": 25.75,
    "lon": 78.5
  },
  {
    "partId": 61363,
    "stateCode": "S12",
    "stateName": "Madhya Pradesh",
    "districtCode": "S1205",
    "districtName": "DATIA",
    "acNumber": 22,
    "acName": "DATIA",
    "partNumber": 69,
    "partName": "VIDANIYA",
    "lat": 25.75,
    "lon": 78.5
  },
  {
    "partId": 62139,
    "stateCode": "S12",
    "stateName": "Madhya Pradesh",
    "districtCode": "S1205",
    "districtName": "DATIA",
    "acNumber": 22,
    "acName": "DATIA",
    "partNumber": 70,
    "partName": "KHERI",
    "lat": 25.8990843,
    "lon": 78.69368352641985
  },
  {
    "partId": 4534,
    "stateCode": "S12",
    "stateName": "Madhya Pradesh",
    "districtCode": "S1205",
    "districtName": "DATIA",
    "acNumber": 22,
    "acName": "DATIA",
    "partNumber": 71,
    "partName": "MAKONI",
    "lat": 25.75,
    "lon": 78.5
  },
  {
    "partId": 62161,
    "stateCode": "S12",
    "stateName": "Madhya Pradesh",
    "districtCode": "S1205",
    "districtName": "DATIA",
    "acNumber": 22,
    "acName": "DATIA",
    "partNumber": 72,
    "partName": "RAJAPUR",
    "lat": 26.19844055,
    "lon": 78.74425929503403
  },
  {
    "partId": 4533,
    "stateCode": "S12",
    "stateName": "Madhya Pradesh",
    "districtCode": "S1205",
    "districtName": "DATIA",
    "acNumber": 22,
    "acName": "DATIA",
    "partNumber": 73,
    "partName": "KHATOLA",
    "lat": 25.6391705,
    "lon": 78.54568277965473
  },
  {
    "partId": 43174,
    "stateCode": "S12",
    "stateName": "Madhya Pradesh",
    "districtCode": "S1205",
    "districtName": "DATIA",
    "acNumber": 22,
    "acName": "DATIA",
    "partNumber": 74,
    "partName": "LARAYATA",
    "lat": 25.75,
    "lon": 78.5
  },
  {
    "partId": 4403,
    "stateCode": "S12",
    "stateName": "Madhya Pradesh",
    "districtCode": "S1205",
    "districtName": "DATIA",
    "acNumber": 22,
    "acName": "DATIA",
    "partNumber": 75,
    "partName": "LARAYATA",
    "lat": 25.75,
    "lon": 78.5
  },
  {
    "partId": 4513,
    "stateCode": "S12",
    "stateName": "Madhya Pradesh",
    "districtCode": "S1205",
    "districtName": "DATIA",
    "acNumber": 22,
    "acName": "DATIA",
    "partNumber": 76,
    "partName": "PHULARA",
    "lat": 25.60558055,
    "lon": 78.5022181308579
  },
  {
    "partId": 43175,
    "stateCode": "S12",
    "stateName": "Madhya Pradesh",
    "districtCode": "S1205",
    "districtName": "DATIA",
    "acNumber": 22,
    "acName": "DATIA",
    "partNumber": 77,
    "partName": "DAGARAI",
    "lat": 25.75,
    "lon": 78.5
  },
  {
    "partId": 43176,
    "stateCode": "S12",
    "stateName": "Madhya Pradesh",
    "districtCode": "S1205",
    "districtName": "DATIA",
    "acNumber": 22,
    "acName": "DATIA",
    "partNumber": 78,
    "partName": "DATIYA",
    "lat": 25.480991099999997,
    "lon": 78.39527994098185
  },
  {
    "partId": 61337,
    "stateCode": "S12",
    "stateName": "Madhya Pradesh",
    "districtCode": "S1205",
    "districtName": "DATIA",
    "acNumber": 22,
    "acName": "DATIA",
    "partNumber": 79,
    "partName": "DATIYA",
    "lat": 25.480991099999997,
    "lon": 78.39527994098185
  },
  {
    "partId": 43177,
    "stateCode": "S12",
    "stateName": "Madhya Pradesh",
    "districtCode": "S1205",
    "districtName": "DATIA",
    "acNumber": 22,
    "acName": "DATIA",
    "partNumber": 80,
    "partName": "DATIYA",
    "lat": 25.480991099999997,
    "lon": 78.39527994098185
  },
  {
    "partId": 61336,
    "stateCode": "S12",
    "stateName": "Madhya Pradesh",
    "districtCode": "S1205",
    "districtName": "DATIA",
    "acNumber": 22,
    "acName": "DATIA",
    "partNumber": 81,
    "partName": "DATIYA",
    "lat": 25.480991099999997,
    "lon": 78.39527994098185
  },
  {
    "partId": 4507,
    "stateCode": "S12",
    "stateName": "Madhya Pradesh",
    "districtCode": "S1205",
    "districtName": "DATIA",
    "acNumber": 22,
    "acName": "DATIA",
    "partNumber": 82,
    "partName": "DATIYA",
    "lat": 25.480991099999997,
    "lon": 78.39527994098185
  },
  {
    "partId": 43178,
    "stateCode": "S12",
    "stateName": "Madhya Pradesh",
    "districtCode": "S1205",
    "districtName": "DATIA",
    "acNumber": 22,
    "acName": "DATIA",
    "partNumber": 83,
    "partName": "DATIYA",
    "lat": 25.480991099999997,
    "lon": 78.39527994098185
  },
  {
    "partId": 61335,
    "stateCode": "S12",
    "stateName": "Madhya Pradesh",
    "districtCode": "S1205",
    "districtName": "DATIA",
    "acNumber": 22,
    "acName": "DATIA",
    "partNumber": 84,
    "partName": "DATIYA",
    "lat": 25.480991099999997,
    "lon": 78.39527994098185
  },
  {
    "partId": 4506,
    "stateCode": "S12",
    "stateName": "Madhya Pradesh",
    "districtCode": "S1205",
    "districtName": "DATIA",
    "acNumber": 22,
    "acName": "DATIA",
    "partNumber": 85,
    "partName": "DATIYA",
    "lat": 25.480991099999997,
    "lon": 78.39527994098185
  },
  {
    "partId": 43179,
    "stateCode": "S12",
    "stateName": "Madhya Pradesh",
    "districtCode": "S1205",
    "districtName": "DATIA",
    "acNumber": 22,
    "acName": "DATIA",
    "partNumber": 86,
    "partName": "DATIYA",
    "lat": 25.480991099999997,
    "lon": 78.39527994098185
  },
  {
    "partId": 4402,
    "stateCode": "S12",
    "stateName": "Madhya Pradesh",
    "districtCode": "S1205",
    "districtName": "DATIA",
    "acNumber": 22,
    "acName": "DATIA",
    "partNumber": 87,
    "partName": "DATIYA",
    "lat": 25.480991099999997,
    "lon": 78.39527994098185
  },
  {
    "partId": 61334,
    "stateCode": "S12",
    "stateName": "Madhya Pradesh",
    "districtCode": "S1205",
    "districtName": "DATIA",
    "acNumber": 22,
    "acName": "DATIA",
    "partNumber": 88,
    "partName": "DATIYA",
    "lat": 25.480991099999997,
    "lon": 78.39527994098185
  },
  {
    "partId": 43180,
    "stateCode": "S12",
    "stateName": "Madhya Pradesh",
    "districtCode": "S1205",
    "districtName": "DATIA",
    "acNumber": 22,
    "acName": "DATIA",
    "partNumber": 89,
    "partName": "DATIYA",
    "lat": 25.480991099999997,
    "lon": 78.39527994098185
  },
  {
    "partId": 61333,
    "stateCode": "S12",
    "stateName": "Madhya Pradesh",
    "districtCode": "S1205",
    "districtName": "DATIA",
    "acNumber": 22,
    "acName": "DATIA",
    "partNumber": 90,
    "partName": "DATIYA",
    "lat": 25.480991099999997,
    "lon": 78.39527994098185
  },
  {
    "partId": 43181,
    "stateCode": "S12",
    "stateName": "Madhya Pradesh",
    "districtCode": "S1205",
    "districtName": "DATIA",
    "acNumber": 22,
    "acName": "DATIA",
    "partNumber": 91,
    "partName": "DATIYA",
    "lat": 25.480991099999997,
    "lon": 78.39527994098185
  },
  {
    "partId": 61332,
    "stateCode": "S12",
    "stateName": "Madhya Pradesh",
    "districtCode": "S1205",
    "districtName": "DATIA",
    "acNumber": 22,
    "acName": "DATIA",
    "partNumber": 92,
    "partName": "DATIYA",
    "lat": 25.63393438220339,
    "lon": 78.4515381021797
  },
  {
    "partId": 43182,
    "stateCode": "S12",
    "stateName": "Madhya Pradesh",
    "districtCode": "S1205",
    "districtName": "DATIA",
    "acNumber": 22,
    "acName": "DATIA",
    "partNumber": 93,
    "partName": "DATIYA",
    "lat": 25.75,
    "lon": 78.5
  },
  {
    "partId": 61331,
    "stateCode": "S12",
    "stateName": "Madhya Pradesh",
    "districtCode": "S1205",
    "districtName": "DATIA",
    "acNumber": 22,
    "acName": "DATIA",
    "partNumber": 94,
    "partName": "DATIYA",
    "lat": 25.480991099999997,
    "lon": 78.39527994098185
  },
  {
    "partId": 43183,
    "stateCode": "S12",
    "stateName": "Madhya Pradesh",
    "districtCode": "S1205",
    "districtName": "DATIA",
    "acNumber": 22,
    "acName": "DATIA",
    "partNumber": 95,
    "partName": "DATIYA",
    "lat": 25.480991099999997,
    "lon": 78.39527994098185
  },
  {
    "partId": 4505,
    "stateCode": "S12",
    "stateName": "Madhya Pradesh",
    "districtCode": "S1205",
    "districtName": "DATIA",
    "acNumber": 22,
    "acName": "DATIA",
    "partNumber": 96,
    "partName": "DATIYA",
    "lat": 25.480991099999997,
    "lon": 78.39527994098185
  },
  {
    "partId": 43184,
    "stateCode": "S12",
    "stateName": "Madhya Pradesh",
    "districtCode": "S1205",
    "districtName": "DATIA",
    "acNumber": 22,
    "acName": "DATIA",
    "partNumber": 97,
    "partName": "DATIYA",
    "lat": 25.480991099999997,
    "lon": 78.39527994098185
  },
  {
    "partId": 4401,
    "stateCode": "S12",
    "stateName": "Madhya Pradesh",
    "districtCode": "S1205",
    "districtName": "DATIA",
    "acNumber": 22,
    "acName": "DATIA",
    "partNumber": 98,
    "partName": "DATIYA",
    "lat": 25.480991099999997,
    "lon": 78.39527994098185
  },
  {
    "partId": 61330,
    "stateCode": "S12",
    "stateName": "Madhya Pradesh",
    "districtCode": "S1205",
    "districtName": "DATIA",
    "acNumber": 22,
    "acName": "DATIA",
    "partNumber": 99,
    "partName": "DATIYA",
    "lat": 25.480991099999997,
    "lon": 78.39527994098185
  },
  {
    "partId": 43185,
    "stateCode": "S12",
    "stateName": "Madhya Pradesh",
    "districtCode": "S1205",
    "districtName": "DATIA",
    "acNumber": 22,
    "acName": "DATIA",
    "partNumber": 100,
    "partName": "DATIYA",
    "lat": 25.480991099999997,
    "lon": 78.39527994098185
  },
  {
    "partId": 4400,
    "stateCode": "S12",
    "stateName": "Madhya Pradesh",
    "districtCode": "S1205",
    "districtName": "DATIA",
    "acNumber": 22,
    "acName": "DATIA",
    "partNumber": 101,
    "partName": "DATIYA",
    "lat": 25.480991099999997,
    "lon": 78.39527994098185
  },
  {
    "partId": 61329,
    "stateCode": "S12",
    "stateName": "Madhya Pradesh",
    "districtCode": "S1205",
    "districtName": "DATIA",
    "acNumber": 22,
    "acName": "DATIA",
    "partNumber": 102,
    "partName": "DATIYA",
    "lat": 25.480991099999997,
    "lon": 78.39527994098185
  },
  {
    "partId": 61346,
    "stateCode": "S12",
    "stateName": "Madhya Pradesh",
    "districtCode": "S1205",
    "districtName": "DATIA",
    "acNumber": 22,
    "acName": "DATIA",
    "partNumber": 103,
    "partName": "DATIYA",
    "lat": 25.480991099999997,
    "lon": 78.39527994098185
  },
  {
    "partId": 61328,
    "stateCode": "S12",
    "stateName": "Madhya Pradesh",
    "districtCode": "S1205",
    "districtName": "DATIA",
    "acNumber": 22,
    "acName": "DATIA",
    "partNumber": 104,
    "partName": "DATIYA",
    "lat": 25.480991099999997,
    "lon": 78.39527994098185
  },
  {
    "partId": 43186,
    "stateCode": "S12",
    "stateName": "Madhya Pradesh",
    "districtCode": "S1205",
    "districtName": "DATIA",
    "acNumber": 22,
    "acName": "DATIA",
    "partNumber": 105,
    "partName": "DATIYA",
    "lat": 25.480991099999997,
    "lon": 78.39527994098185
  },
  {
    "partId": 61327,
    "stateCode": "S12",
    "stateName": "Madhya Pradesh",
    "districtCode": "S1205",
    "districtName": "DATIA",
    "acNumber": 22,
    "acName": "DATIA",
    "partNumber": 106,
    "partName": "DATIYA",
    "lat": 25.480991099999997,
    "lon": 78.39527994098185
  },
  {
    "partId": 4504,
    "stateCode": "S12",
    "stateName": "Madhya Pradesh",
    "districtCode": "S1205",
    "districtName": "DATIA",
    "acNumber": 22,
    "acName": "DATIA",
    "partNumber": 107,
    "partName": "DATIYA",
    "lat": 25.480991099999997,
    "lon": 78.39527994098185
  },
  {
    "partId": 43187,
    "stateCode": "S12",
    "stateName": "Madhya Pradesh",
    "districtCode": "S1205",
    "districtName": "DATIA",
    "acNumber": 22,
    "acName": "DATIA",
    "partNumber": 108,
    "partName": "DATIYA",
    "lat": 25.480991099999997,
    "lon": 78.39527994098185
  },
  {
    "partId": 43188,
    "stateCode": "S12",
    "stateName": "Madhya Pradesh",
    "districtCode": "S1205",
    "districtName": "DATIA",
    "acNumber": 22,
    "acName": "DATIA",
    "partNumber": 109,
    "partName": "DATIYA",
    "lat": 25.75,
    "lon": 78.5
  },
  {
    "partId": 43189,
    "stateCode": "S12",
    "stateName": "Madhya Pradesh",
    "districtCode": "S1205",
    "districtName": "DATIA",
    "acNumber": 22,
    "acName": "DATIA",
    "partNumber": 110,
    "partName": "DATIYA",
    "lat": 25.480991099999997,
    "lon": 78.39527994098185
  },