[
  {
    "partId": 72989,
    "stateCode": "S12",
    "stateName": "Madhya Pradesh",
    "districtCode": "S1204",
    "districtName": "GWALIOR",
    "acNumber": 18,
    "acName": "BHITARWAR",
    "partNumber": 1,
    "partName": "SAMEDI",
    "lat": 25.7926629,
    "lon": 78.08891239868532
  },
  {
    "partId": 72990,
    "stateCode": "S12",
    "stateName": "Madhya Pradesh",
    "districtCode": "S1204",
    "districtName": "GWALIOR",
    "acNumber": 18,
    "acName": "BHITARWAR",
    "partNumber": 2,
    "partName": "BASOTA",
    "lat": 26.1912587,
    "lon": 77.77802740552076
  },
  {
    "partId": 72991,
    "stateCode": "S12",
    "stateName": "Madhya Pradesh",
    "districtCode": "S1204",
    "districtName": "GWALIOR",
    "acNumber": 18,
    "acName": "BHITARWAR",
    "partNumber": 3,
    "partName": "CHARAIDANG",
    "lat": 26.1132211,
    "lon": 77.8538418
  },
  {
    "partId": 72988,
    "stateCode": "S12",
    "stateName": "Madhya Pradesh",
    "districtCode": "S1204",
    "districtName": "GWALIOR",
    "acNumber": 18,
    "acName": "BHITARWAR",
    "partNumber": 4,
    "partName": "CHARAIDANG",
    "lat": 26.1132211,
    "lon": 77.8538418
  },
  {
    "partId": 72992,
    "stateCode": "S12",
    "stateName": "Madhya Pradesh",
    "districtCode": "S1204",
    "districtName": "GWALIOR",
    "acNumber": 18,
    "acName": "BHITARWAR",
    "partNumber": 5,
    "partName": "LAKHANAPURA",
    "lat": 25.7926629,
    "lon": 78.08891239868532
  },
  {
    "partId": 72927,
    "stateCode": "S12",
    "stateName": "Madhya Pradesh",
    "districtCode": "S1204",
    "districtName": "GWALIOR",
    "acNumber": 18,
    "acName": "BHITARWAR",
    "partNumber": 6,
    "partName": "CHHIKARI",
    "lat": 25.7926629,
    "lon": 78.08891239868532
  },
  {
    "partId": 72993,
    "stateCode": "S12",
    "stateName": "Madhya Pradesh",
    "districtCode": "S1204",
    "districtName": "GWALIOR",
    "acNumber": 18,
    "acName": "BHITARWAR",
    "partNumber": 7,
    "partName": "PAVA",
    "lat": 25.7926629,
    "lon": 78.08891239868532
  },
  {
    "partId": 72994,
    "stateCode": "S12",
    "stateName": "Madhya Pradesh",
    "districtCode": "S1204",
    "districtName": "GWALIOR",
    "acNumber": 18,
    "acName": "BHITARWAR",
    "partNumber": 8,
    "partName": "JADIDARAI",
    "lat": 25.7926629,
    "lon": 78.08891239868532
  },
  {
    "partId": 72973,
    "stateCode": "S12",
    "stateName": "Madhya Pradesh",
    "districtCode": "S1204",
    "districtName": "GWALIOR",
    "acNumber": 18,
    "acName": "BHITARWAR",
    "partNumber": 9,
    "partName": "BARAI",
    "lat": 26.1282828,
    "lon": 78.0240482963097
  },
  {
    "partId": 73028,
    "stateCode": "S12",
    "stateName": "Madhya Pradesh",
    "districtCode": "S1204",
    "districtName": "GWALIOR",
    "acNumber": 18,
    "acName": "BHITARWAR",
    "partNumber": 10,
    "partName": "BARAI",
    "lat": 26.1282828,
    "lon": 78.0240482963097
  },
  {
    "partId": 72852,
    "stateCode": "S12",
    "stateName": "Madhya Pradesh",
    "districtCode": "S1204",
    "districtName": "GWALIOR",
    "acNumber": 18,
    "acName": "BHITARWAR",
    "partNumber": 11,
    "partName": "BARAI",
    "lat": 26.1282828,
    "lon": 78.0240482963097
  },
  {
    "partId": 73029,
    "stateCode": "S12",
    "stateName": "Madhya Pradesh",
    "districtCode": "S1204",
    "districtName": "GWALIOR",
    "acNumber": 18,
    "acName": "BHITARWAR",
    "partNumber": 12,
    "partName": "BARAI",
    "lat": 26.1282828,
    "lon": 78.0240482963097
  },
  {
    "partId": 72965,
    "stateCode": "S12",
    "stateName": "Madhya Pradesh",
    "districtCode": "S1204",
    "districtName": "GWALIOR",
    "acNumber": 18,
    "acName": "BHITARWAR",
    "partNumber": 13,
    "partName": "BARAI",
    "lat": 26.1282828,
    "lon": 78.0240482963097
  },
  {
    "partId": 73030,
    "stateCode": "S12",
    "stateName": "Madhya Pradesh",
    "districtCode": "S1204",
    "districtName": "GWALIOR",
    "acNumber": 18,
    "acName": "BHITARWAR",
    "partNumber": 14,
    "partName": "BARAI",
    "lat": 26.1282828,
    "lon": 78.0240482963097
  },
  {
    "partId": 73031,
    "stateCode": "S12",
    "stateName": "Madhya Pradesh",
    "districtCode": "S1204",
    "districtName": "GWALIOR",
    "acNumber": 18,
    "acName": "BHITARWAR",
    "partNumber": 15,
    "partName": "RAYPUR",
    "lat": 25.7926629,
    "lon": 78.08891239868532
  },
  {
    "partId": 72926,
    "stateCode": "S12",
    "stateName": "Madhya Pradesh",
    "districtCode": "S1204",
    "districtName": "GWALIOR",
    "acNumber": 18,
    "acName": "BHITARWAR",
    "partNumber": 16,
    "partName": "RAYPUR",
    "lat": 25.7926629,
    "lon": 78.08891239868532
  },
  {
    "partId": 73032,
    "stateCode": "S12",
    "stateName": "Madhya Pradesh",
    "districtCode": "S1204",
    "districtName": "GWALIOR",
    "acNumber": 18,
    "acName": "BHITARWAR",
    "partNumber": 17,
    "partName": "RAYPUR",
    "lat": 25.7926629,
    "lon": 78.08891239868532
  },
  {
    "partId": 73033,
    "stateCode": "S12",
    "stateName": "Madhya Pradesh",
    "districtCode": "S1204",
    "districtName": "GWALIOR",
    "acNumber": 18,
    "acName": "BHITARWAR",
    "partNumber": 18,
    "partName": "NAYAGAON",
    "lat": 26.1666742,
    "lon": 77.89042132111261
  },
  {
    "partId": 72925,
    "stateCode": "S12",
    "stateName": "Madhya Pradesh",
    "districtCode": "S1204",
    "districtName": "GWALIOR",
    "acNumber": 18,
    "acName": "BHITARWAR",
    "partNumber": 19,
    "partName": "NAYAGAON",
    "lat": 26.1666742,
    "lon": 77.89042132111261
  },
  {
    "partId": 73034,
    "stateCode": "S12",
    "stateName": "Madhya Pradesh",
    "districtCode": "S1204",
    "districtName": "GWALIOR",
    "acNumber": 18,
    "acName": "BHITARWAR",
    "partNumber": 20,
    "partName": "PANIHAR",
    "lat": 26.0933525,
    "lon": 78.02914369327753
  },
  {
    "partId": 72851,
    "stateCode": "S12",
    "stateName": "Madhya Pradesh",
    "districtCode": "S1204",
    "districtName": "GWALIOR",
    "acNumber": 18,
    "acName": "BHITARWAR",
    "partNumber": 21,
    "partName": "PANIHAR",
    "lat": 26.0933525,
    "lon": 78.02914369327753
  },
  {
    "partId": 73035,
    "stateCode": "S12",
    "stateName": "Madhya Pradesh",
    "districtCode": "S1204",
    "districtName": "GWALIOR",
    "acNumber": 18,
    "acName": "BHITARWAR",
    "partNumber": 22,
    "partName": "PANIHAR",
    "lat": 26.0933525,
    "lon": 78.02914369327753
  },
  {
    "partId": 72924,
    "stateCode": "S12",
    "stateName": "Madhya Pradesh",
    "districtCode": "S1204",
    "districtName": "GWALIOR",
    "acNumber": 18,
    "acName": "BHITARWAR",
    "partNumber": 23,
    "partName": "PANIHAR",
    "lat": 26.0933525,
    "lon": 78.02914369327753
  },
  {
    "partId": 73036,
    "stateCode": "S12",
    "stateName": "Madhya Pradesh",
    "districtCode": "S1204",
    "districtName": "GWALIOR",
    "acNumber": 18,
    "acName": "BHITARWAR",
    "partNumber": 24,
    "partName": "PANIHAR",
    "lat": 26.0933525,
    "lon": 78.02914369327753
  },
  {
    "partId": 73037,
    "stateCode": "S12",
    "stateName": "Madhya Pradesh",
    "districtCode": "S1204",
    "districtName": "GWALIOR",
    "acNumber": 18,
    "acName": "BHITARWAR",
    "partNumber": 25,
    "partName": "PANIHAR",
    "lat": 26.0933525,
    "lon": 78.02914369327753
  },
  {
    "partId": 72974,
    "stateCode": "S12",
    "stateName": "Madhya Pradesh",
    "districtCode": "S1204",
    "districtName": "GWALIOR",
    "acNumber": 18,
    "acName": "BHITARWAR",
    "partNumber": 26,
    "partName": "GHATIGAON",
    "lat": 26.0557761,
    "lon": 77.93902546724266
  },
  {
    "partId": 72985,
    "stateCode": "S12",
    "stateName": "Madhya Pradesh",
    "districtCode": "S1204",
    "districtName": "GWALIOR",
    "acNumber": 18,
    "acName": "BHITARWAR",
    "partNumber": 27,
    "partName": "GHATIGAON",
    "lat": 26.0557761,
    "lon": 77.93902546724266
  },
  {
    "partId": 73038,
    "stateCode": "S12",
    "stateName": "Madhya Pradesh",
    "districtCode": "S1204",
    "districtName": "GWALIOR",
    "acNumber": 18,
    "acName": "BHITARWAR",
    "partNumber": 28,
    "partName": "GHATIGAON",
    "lat": 26.0557761,
    "lon": 77.93902546724266
  },
  {
    "partId": 72984,
    "stateCode": "S12",
    "stateName": "Madhya Pradesh",
    "districtCode": "S1204",
    "districtName": "GWALIOR",
    "acNumber": 18,
    "acName": "BHITARWAR",
    "partNumber": 29,
    "partName": "GHATIGAON",
    "lat": 26.0557761,
    "lon": 77.93902546724266
  },
  {
    "partId": 73091,
    "stateCode": "S12",
    "stateName": "Madhya Pradesh",
    "districtCode": "S1204",
    "districtName": "GWALIOR",
    "acNumber": 18,
    "acName": "BHITARWAR",
    "partNumber": 30,
    "partName": "GHATIGAON",
    "lat": 26.0557761,
    "lon": 77.93902546724266
  },
  {
    "partId": 73039,
    "stateCode": "S12",
    "stateName": "Madhya Pradesh",
    "districtCode": "S1204",
    "districtName": "GWALIOR",
    "acNumber": 18,
    "acName": "BHITARWAR",
    "partNumber": 31,
    "partName": "DHUAN",
    "lat": 25.7926629,
    "lon": 78.08891239868532
  },
  {
    "partId": 73040,
    "stateCode": "S12",
    "stateName": "Madhya Pradesh",
    "districtCode": "S1204",
    "districtName": "GWALIOR",
    "acNumber": 18,
    "acName": "BHITARWAR",
    "partNumber": 32,
    "partName": "SIRASA",
    "lat": 25.7926629,
    "lon": 78.08891239868532
  },
  {
    "partId": 73041,
    "stateCode": "S12",
    "stateName": "Madhya Pradesh",
    "districtCode": "S1204",
    "districtName": "GWALIOR",
    "acNumber": 18,
    "acName": "BHITARWAR",
    "partNumber": 33,
    "partName": "KHUDAVALI",
    "lat": 25.7926629,
    "lon": 78.08891239868532
  },
  {
    "partId": 73042,
    "stateCode": "S12",
    "stateName": "Madhya Pradesh",
    "districtCode": "S1204",
    "districtName": "GWALIOR",
    "acNumber": 18,
    "acName": "BHITARWAR",
    "partNumber": 34,
    "partName": "JAKHAUDA",
    "lat": 25.7926629,
    "lon": 78.08891239868532
  },
  {
    "partId": 72873,
    "stateCode": "S12",
    "stateName": "Madhya Pradesh",
    "districtCode": "S1204",
    "districtName": "GWALIOR",
    "acNumber": 18,
    "acName": "BHITARWAR",
    "partNumber": 35,
    "partName": "BANJARA KHIRAK",
    "lat": 25.7926629,
    "lon": 78.08891239868532
  },
  {
    "partId": 73043,
    "stateCode": "S12",
    "stateName": "Madhya Pradesh",
    "districtCode": "S1204",
    "districtName": "GWALIOR",
    "acNumber": 18,
    "acName": "BHITARWAR",
    "partNumber": 36,
    "partName": "DANDAKHIRAK",
    "lat": 25.7926629,
    "lon": 78.08891239868532
  },
  {
    "partId": 72872,
    "stateCode": "S12",
    "stateName": "Madhya Pradesh",
    "districtCode": "S1204",
    "districtName": "GWALIOR",
    "acNumber": 18,
    "acName": "BHITARWAR",
    "partNumber": 37,
    "partName": "RAMPUR",
    "lat": 26.0548295,
    "lon": 78.04080334107802
  },
  {
    "partId": 73044,
    "stateCode": "S12",
    "stateName": "Madhya Pradesh",
    "districtCode": "S1204",
    "districtName": "GWALIOR",
    "acNumber": 18,
    "acName": "BHITARWAR",
    "partNumber": 38,
    "partName": "KAINT",
    "lat": 26.032807,
    "lon": 77.87965228644842
  },
  {
    "partId": 72971,
    "stateCode": "S12",
    "stateName": "Madhya Pradesh",
    "districtCode": "S1204",
    "districtName": "GWALIOR",
    "acNumber": 18,
    "acName": "BHITARWAR",
    "partNumber": 39,
    "partName": "MAHARAMAPURA",
    "lat": 25.7926629,
    "lon": 78.08891239868532
  },
  {
    "partId": 73045,
    "stateCode": "S12",
    "stateName": "Madhya Pradesh",
    "districtCode": "S1204",
    "districtName": "GWALIOR",
    "acNumber": 18,
    "acName": "BHITARWAR",
    "partNumber": 40,
    "partName": "CHARAI SHYAMAPUR",
    "lat": 25.7926629,
    "lon": 78.08891239868532
  },
  {
    "partId": 73046,
    "stateCode": "S12",
    "stateName": "Madhya Pradesh",
    "districtCode": "S1204",
    "districtName": "GWALIOR",
    "acNumber": 18,
    "acName": "BHITARWAR",
    "partNumber": 41,
    "partName": "REHANT",
    "lat": 25.7926629,
    "lon": 78.08891239868532
  },
  {
    "partId": 72923,
    "stateCode": "S12",
    "stateName": "Madhya Pradesh",
    "districtCode": "S1204",
    "districtName": "GWALIOR",
    "acNumber": 18,
    "acName": "BHITARWAR",
    "partNumber": 42,
    "partName": "REHANT",
    "lat": 25.7926629,
    "lon": 78.08891239868532
  },
  {
    "partId": 73047,
    "stateCode": "S12",
    "stateName": "Madhya Pradesh",
    "districtCode": "S1204",
    "districtName": "GWALIOR",
    "acNumber": 18,
    "acName": "BHITARWAR",
    "partNumber": 43,
    "partName": "REHANT",
    "lat": 25.7926629,
    "lon": 78.08891239868532
  },
  {
    "partId": 73048,
    "stateCode": "S12",
    "stateName": "Madhya Pradesh",
    "districtCode": "S1204",
    "districtName": "GWALIOR",
    "acNumber": 18,
    "acName": "BHITARWAR",
    "partNumber": 44,
    "partName": "BAGAVALA GAON",
    "lat": 25.7926629,
    "lon": 78.08891239868532
  },
  {
    "partId": 73075,
    "stateCode": "S12",
    "stateName": "Madhya Pradesh",
    "districtCode": "S1204",
    "districtName": "GWALIOR",
    "acNumber": 18,
    "acName": "BHITARWAR",
    "partNumber": 45,
    "partName": "DAURAR",
    "lat": 25.7926629,
    "lon": 78.08891239868532
  },
  {
    "partId": 72922,
    "stateCode": "S12",
    "stateName": "Madhya Pradesh",
    "districtCode": "S1204",
    "districtName": "GWALIOR",
    "acNumber": 18,
    "acName": "BHITARWAR",
    "partNumber": 46,
    "partName": "DAURAR",
    "lat": 25.7926629,
    "lon": 78.08891239868532
  },
  {
    "partId": 73049,
    "stateCode": "S12",
    "stateName": "Madhya Pradesh",
    "districtCode": "S1204",
    "districtName": "GWALIOR",
    "acNumber": 18,
    "acName": "BHITARWAR",
    "partNumber": 47,
    "partName": "DAURAR",
    "lat": 25.7926629,
    "lon": 78.08891239868532
  },
  {
    "partId": 73010,
    "stateCode": "S12",
    "stateName": "Madhya Pradesh",
    "districtCode": "S1204",
    "districtName": "GWALIOR",
    "acNumber": 18,
    "acName": "BHITARWAR",
    "partNumber": 48,
    "partName": "SEHSARI",
    "lat": 25.9562208,
    "lon": 77.75760821082181
  },
  {
    "partId": 72921,
    "stateCode": "S12",
    "stateName": "Madhya Pradesh",
    "districtCode": "S1204",
    "districtName": "GWALIOR",
    "acNumber": 18,
    "acName": "BHITARWAR",
    "partNumber": 49,
    "partName": "SEHSARI",
    "lat": 25.9562208,
    "lon": 77.75760821082181
  },
  {
    "partId": 73011,
    "stateCode": "S12",
    "stateName": "Madhya Pradesh",
    "districtCode": "S1204",
    "districtName": "GWALIOR",
    "acNumber": 18,
    "acName": "BHITARWAR",
    "partNumber": 50,
    "partName": "BADAGAON",
    "lat": 26.22565,
    "lon": 78.2596385
  },
  {
    "partId": 73012,
    "stateCode": "S12",
    "stateName": "Madhya Pradesh",
    "districtCode": "S1204",
    "districtName": "GWALIOR",
    "acNumber": 18,
    "acName": "BHITARWAR",
    "partNumber": 51,
    "partName": "BADAGAON",
    "lat": 26.22565,
    "lon": 78.2596385
  },
  {
    "partId": 73090,
    "stateCode": "S12",
    "stateName": "Madhya Pradesh",
    "districtCode": "S1204",
    "districtName": "GWALIOR",
    "acNumber": 18,
    "acName": "BHITARWAR",
    "partNumber": 52,
    "partName": "BADAGAON",
    "lat": 26.22565,
    "lon": 78.2596385
  },
  {
    "partId": 73013,
    "stateCode": "S12",
    "stateName": "Madhya Pradesh",
    "districtCode": "S1204",
    "districtName": "GWALIOR",
    "acNumber": 18,
    "acName": "BHITARWAR",
    "partNumber": 53,
    "partName": "MOHANA",
    "lat": 25.8915446,
    "lon": 77.76148019824385
  },
  {
    "partId": 73014,
    "stateCode": "S12",
    "stateName": "Madhya Pradesh",
    "districtCode": "S1204",
    "districtName": "GWALIOR",
    "acNumber": 18,
    "acName": "BHITARWAR",
    "partNumber": 54,
    "partName": "MOHANA",
    "lat": 25.8915446,
    "lon": 77.76148019824385
  },
  {
    "partId": 73015,
    "stateCode": "S12",
    "stateName": "Madhya Pradesh",
    "districtCode": "S1204",
    "districtName": "GWALIOR",
    "acNumber": 18,
    "acName": "BHITARWAR",
    "partNumber": 55,
    "partName": "MOHANA",
    "lat": 25.8915446,
    "lon": 77.76148019824385
  },
  {
    "partId": 73016,
    "stateCode": "S12",
    "stateName": "Madhya Pradesh",
    "districtCode": "S1204",
    "districtName": "GWALIOR",
    "acNumber": 18,
    "acName": "BHITARWAR",
    "partNumber": 56,
    "partName": "MOHANA",
    "lat": 25.8915446,
    "lon": 77.76148019824385
  },
  {
    "partId": 72987,
    "stateCode": "S12",
    "stateName": "Madhya Pradesh",
    "districtCode": "S1204",
    "districtName": "GWALIOR",
    "acNumber": 18,
    "acName": "BHITARWAR",
    "partNumber": 57,
    "partName": "MOHANA",
    "lat": 25.8915446,
    "lon": 77.76148019824385
  },
  {
    "partId": 72975,
    "stateCode": "S12",
    "stateName": "Madhya Pradesh",
    "districtCode": "S1204",
    "districtName": "GWALIOR",
    "acNumber": 18,
    "acName": "BHITARWAR",
    "partNumber": 58,
    "partName": "MOHANA",
    "lat": 25.8915446,
    "lon": 77.76148019824385
  },
  {
    "partId": 72920,
    "stateCode": "S12",
    "stateName": "Madhya Pradesh",
    "districtCode": "S1204",
    "districtName": "GWALIOR",
    "acNumber": 18,
    "acName": "BHITARWAR",
    "partNumber": 59,
    "partName": "MOHANA",
    "lat": 25.8915446,
    "lon": 77.76148019824385
  },
  {
    "partId": 73017,
    "stateCode": "S12",
    "stateName": "Madhya Pradesh",
    "districtCode": "S1204",
    "districtName": "GWALIOR",
    "acNumber": 18,
    "acName": "BHITARWAR",
    "partNumber": 60,
    "partName": "MOHANA",
    "lat": 25.8915446,
    "lon": 77.76148019824385
  },
  {
    "partId": 72919,
    "stateCode": "S12",
    "stateName": "Madhya Pradesh",
    "districtCode": "S1204",
    "districtName": "GWALIOR",
    "acNumber": 18,
    "acName": "BHITARWAR",
    "partNumber": 61,
    "partName": "MOHANA",
    "lat": 25.8915446,
    "lon": 77.76148019824385
  },
  {
    "partId": 73018,
    "stateCode": "S12",
    "stateName": "Madhya Pradesh",
    "districtCode": "S1204",
    "districtName": "GWALIOR",
    "acNumber": 18,
    "acName": "BHITARWAR",
    "partNumber": 62,
    "partName": "MOHANA",
    "lat": 25.8915446,
    "lon": 77.76148019824385
  },
  {
    "partId": 72935,
    "stateCode": "S12",
    "stateName": "Madhya Pradesh",
    "districtCode": "S1204",
    "districtName": "GWALIOR",
    "acNumber": 18,
    "acName": "BHITARWAR",
    "partNumber": 63,
    "partName": "MOHANA",
    "lat": 25.8915446,
    "lon": 77.76148019824385
  },
  {
    "partId": 73019,
    "stateCode": "S12",
    "stateName": "Madhya Pradesh",
    "districtCode": "S1204",
    "districtName": "GWALIOR",
    "acNumber": 18,
    "acName": "BHITARWAR",
    "partNumber": 64,
    "partName": "MOHANA",
    "lat": 25.8915446,
    "lon": 77.76148019824385
  },
  {
    "partId": 72918,
    "stateCode": "S12",
    "stateName": "Madhya Pradesh",
    "districtCode": "S1204",
    "districtName": "GWALIOR",
    "acNumber": 18,
    "acName": "BHITARWAR",
    "partNumber": 65,
    "partName": "MOHANA",
    "lat": 25.8915446,
    "lon": 77.76148019824385
  },
  {
    "partId": 73020,
    "stateCode": "S12",
    "stateName": "Madhya Pradesh",
    "districtCode": "S1204",
    "districtName": "GWALIOR",
    "acNumber": 18,
    "acName": "BHITARWAR",
    "partNumber": 66,
    "partName": "UMMEDGARH",
    "lat": 25.7926629,
    "lon": 78.08891239868532
  },
  {
    "partId": 72917,
    "stateCode": "S12",
    "stateName": "Madhya Pradesh",
    "districtCode": "S1204",
    "districtName": "GWALIOR",
    "acNumber": 18,
    "acName": "BHITARWAR",
    "partNumber": 67,
    "partName": "UMMEDAGADH",
    "lat": 25.7926629,
    "lon": 78.08891239868532
  },
  {
    "partId": 73021,
    "stateCode": "S12",
    "stateName": "Madhya Pradesh",
    "districtCode": "S1204",
    "districtName": "GWALIOR",
    "acNumber": 18,
    "acName": "BHITARWAR",
    "partNumber": 68,
    "partName": "KARAHI",
    "lat": 25.8839318,
    "lon": 77.8936297
  },
  {
    "partId": 72871,
    "stateCode": "S12",
    "stateName": "Madhya Pradesh",
    "districtCode": "S1204",
    "districtName": "GWALIOR",
    "acNumber": 18,
    "acName": "BHITARWAR",
    "partNumber": 69,
    "partName": "KARAHI",
    "lat": 25.8839318,
    "lon": 77.8936297
  },
  {
    "partId": 73022,
    "stateCode": "S12",
    "stateName": "Madhya Pradesh",
    "districtCode": "S1204",
    "districtName": "GWALIOR",
    "acNumber": 18,
    "acName": "BHITARWAR",
    "partNumber": 70,
    "partName": "PATAI",
    "lat": 25.8988966,
    "lon": 77.92269568194357
  },
  {
    "partId": 73023,
    "stateCode": "S12",
    "stateName": "Madhya Pradesh",
    "districtCode": "S1204",
    "districtName": "GWALIOR",
    "acNumber": 18,
    "acName": "BHITARWAR",
    "partNumber": 71,
    "partName": "PATAI",
    "lat": 25.8988966,
    "lon": 77.92269568194357
  },
  {
    "partId": 72983,
    "stateCode": "S12",
    "stateName": "Madhya Pradesh",
    "districtCode": "S1204",
    "districtName": "GWALIOR",
    "acNumber": 18,
    "acName": "BHITARWAR",
    "partNumber": 72,
    "partName": "PATAI",
    "lat": 25.8988966,
    "lon": 77.92269568194357
  },
  {
    "partId": 73024,
    "stateCode": "S12",
    "stateName": "Madhya Pradesh",
    "districtCode": "S1204",
    "districtName": "GWALIOR",
    "acNumber": 18,
    "acName": "BHITARWAR",
    "partNumber": 73,
    "partName": "SABHARAI",
    "lat": 25.7926629,
    "lon": 78.08891239868532
  },
  {
    "partId": 73025,
    "stateCode": "S12",
    "stateName": "Madhya Pradesh",
    "districtCode": "S1204",
    "districtName": "GWALIOR",
    "acNumber": 18,
    "acName": "BHITARWAR",
    "partNumber": 74,
    "partName": "ARON",
    "lat": 25.94563285,
    "lon": 77.92686022678123
  },
  {
    "partId": 72916,
    "stateCode": "S12",
    "stateName": "Madhya Pradesh",
    "districtCode": "S1204",
    "districtName": "GWALIOR",
    "acNumber": 18,
    "acName": "BHITARWAR",
    "partNumber": 75,
    "partName": "ARON",
    "lat": 25.94563285,
    "lon": 77.92686022678123
  },
  {
    "partId": 72976,
    "stateCode": "S12",
    "stateName": "Madhya Pradesh",
    "districtCode": "S1204",
    "districtName": "GWALIOR",
    "acNumber": 18,
    "acName": "BHITARWAR",
    "partNumber": 76,
    "partName": "ARON",
    "lat": 25.94563285,
    "lon": 77.92686022678123
  },
  {
    "partId": 72986,
    "stateCode": "S12",
    "stateName": "Madhya Pradesh",
    "districtCode": "S1204",
    "districtName": "GWALIOR",
    "acNumber": 18,
    "acName": "BHITARWAR",
    "partNumber": 77,
    "partName": "ARON",
    "lat": 25.94563285,
    "lon": 77.92686022678123
  },
  {
    "partId": 72966,
    "stateCode": "S12",
    "stateName": "Madhya Pradesh",
    "districtCode": "S1204",
    "districtName": "GWALIOR",
    "acNumber": 18,
    "acName": "BHITARWAR",
    "partNumber": 78,
    "partName": "DURASENDI",
    "lat": 25.7926629,
    "lon": 78.08891239868532
  },
  {
    "partId": 73092,
    "stateCode": "S12",
    "stateName": "Madhya Pradesh",
    "districtCode": "S1204",
    "districtName": "GWALIOR",
    "acNumber": 18,
    "acName": "BHITARWAR",
    "partNumber": 79,
    "partName": "SIMIRIYA TANKA",
    "lat": 26.0216362,
    "lon": 77.9823089
  },
  {
    "partId": 72915,
    "stateCode": "S12",
    "stateName": "Madhya Pradesh",
    "districtCode": "S1204",
    "districtName": "GWALIOR",
    "acNumber": 18,
    "acName": "BHITARWAR",
    "partNumber": 80,
    "partName": "SIMIRIYA TANKA",
    "lat": 26.0216362,
    "lon": 77.9823089
  },
  {
    "partId": 73093,
    "stateCode": "S12",
    "stateName": "Madhya Pradesh",
    "districtCode": "S1204",
    "districtName": "GWALIOR",
    "acNumber": 18,
    "acName": "BHITARWAR",
    "partNumber": 81,
    "partName": "SIMIRIYATANKA",
    "lat": 25.7926629,
    "lon": 78.08891239868532
  },
  {
    "partId": 72982,
    "stateCode": "S12",
    "stateName": "Madhya Pradesh",
    "districtCode": "S1204",
    "districtName": "GWALIOR",
    "acNumber": 18,
    "acName": "BHITARWAR",
    "partNumber": 82,
    "partName": "SIMARIYATANKA",
    "lat": 25.7926629,
    "lon": 78.08891239868532
  },
  {
    "partId": 73094,
    "stateCode": "S12",
    "stateName": "Madhya Pradesh",
    "districtCode": "S1204",
    "districtName": "GWALIOR",
    "acNumber": 18,
    "acName": "BHITARWAR",
    "partNumber": 83,
    "partName": "SIMARIYATANKA",
    "lat": 25.7926629,
    "lon": 78.08891239868532
  },
  {
    "partId": 72914,
    "stateCode": "S12",
    "stateName": "Madhya Pradesh",
    "districtCode": "S1204",
    "districtName": "GWALIOR",
    "acNumber": 18,
    "acName": "BHITARWAR",
    "partNumber": 84,
    "partName": "SIMIRIYATANKA",
    "lat": 25.7926629,
    "lon": 78.08891239868532
  },
  {
    "partId": 73095,
    "stateCode": "S12",
    "stateName": "Madhya Pradesh",
    "districtCode": "S1204",
    "districtName": "GWALIOR",
    "acNumber": 18,
    "acName": "BHITARWAR",
    "partNumber": 85,
    "partName": "PARI",
    "lat": 25.7926629,
    "lon": 78.08891239868532
  },
  {
    "partId": 72913,
    "stateCode": "S12",
    "stateName": "Madhya Pradesh",
    "districtCode": "S1204",
    "districtName": "GWALIOR",
    "acNumber": 18,
    "acName": "BHITARWAR",
    "partNumber": 86,
    "partName": "PARI",
    "lat": 25.7926629,
    "lon": 78.08891239868532
  },
  {
    "partId": 73096,
    "stateCode": "S12",
    "stateName": "Madhya Pradesh",
    "districtCode": "S1204",
    "districtName": "GWALIOR",
    "acNumber": 18,
    "acName": "BHITARWAR",
    "partNumber": 87,
    "partName": "SULTAN KA CHAK PAR",
    "lat": 25.7926629,
    "lon": 78.08891239868532
  },
  {
    "partId": 73097,
    "stateCode": "S12",
    "stateName": "Madhya Pradesh",
    "districtCode": "S1204",
    "districtName": "GWALIOR",
    "acNumber": 18,
    "acName": "BHITARWAR",
    "partNumber": 88,
    "partName": "RAMPUR",
    "lat": 26.0548295,
    "lon": 78.04080334107802
  },
  {
    "partId": 73098,
    "stateCode": "S12",
    "stateName": "Madhya Pradesh",
    "districtCode": "S1204",
    "districtName": "GWALIOR",
    "acNumber": 18,
    "acName": "BHITARWAR",
    "partNumber": 89,
    "partName": "HIMMATAGARH",
    "lat": 25.7926629,
    "lon": 78.08891239868532
  },
  {
    "partId": 73099,
    "stateCode": "S12",
    "stateName": "Madhya Pradesh",
    "districtCode": "S1204",
    "districtName": "GWALIOR",
    "acNumber": 18,
    "acName": "BHITARWAR",
    "partNumber": 90,
    "partName": "MAUCHH",
    "lat": 26.0518046,
    "lon": 78.0862498
  },
  {
    "partId": 73100,
    "stateCode": "S12",
    "stateName": "Madhya Pradesh",
    "districtCode": "S1204",
    "districtName": "GWALIOR",
    "acNumber": 18,
    "acName": "BHITARWAR",
    "partNumber": 91,
    "partName": "DHIROLI",
    "lat": 26.05751745,
    "lon": 78.10796280274002
  },
  {
    "partId": 73089,
    "stateCode": "S12",
    "stateName": "Madhya Pradesh",
    "districtCode": "S1204",
    "districtName": "GWALIOR",
    "acNumber": 18,
    "acName": "BHITARWAR",
    "partNumber": 92,
    "partName": "DHIROLI",
    "lat": 26.05751745,
    "lon": 78.10796280274002
  },
  {
    "partId": 72977,
    "stateCode": "S12",
    "stateName": "Madhya Pradesh",
    "districtCode": "S1204",
    "districtName": "GWALIOR",
    "acNumber": 18,
    "acName": "BHITARWAR",
    "partNumber": 93,
    "partName": "AMROL",
    "lat": 26.00294095,
    "lon": 78.1390848971549
  },
  {
    "partId": 73101,
    "stateCode": "S12",
    "stateName": "Madhya Pradesh",
    "districtCode": "S1204",
    "districtName": "GWALIOR",
    "acNumber": 18,
    "acName": "BHITARWAR",
    "partNumber": 94,
    "partName": "AMROL",
    "lat": 26.00294095,
    "lon": 78.1390848971549
  },
  {
    "partId": 72911,
    "stateCode": "S12",
    "stateName": "Madhya Pradesh",
    "districtCode": "S1204",
    "districtName": "GWALIOR",
    "acNumber": 18,
    "acName": "BHITARWAR",
    "partNumber": 95,
    "partName": "BANWAR",
    "lat": 26.003939600000002,
    "lon": 78.07637676745247
  },
  {
    "partId": 72874,
    "stateCode": "S12",
    "stateName": "Madhya Pradesh",
    "districtCode": "S1204",
    "districtName": "GWALIOR",
    "acNumber": 18,
    "acName": "BHITARWAR",
    "partNumber": 96,
    "partName": "BANWAR",
    "lat": 25.893063715076334,
    "lon": 78.06418270623632
  },
  {
    "partId": 72875,
    "stateCode": "S12",
    "stateName": "Madhya Pradesh",
    "districtCode": "S1204",
    "districtName": "GWALIOR",
    "acNumber": 18,
    "acName": "BHITARWAR",
    "partNumber": 97,
    "partName": "BANWAR",
    "lat": 25.7926629,
    "lon": 78.08891239868532
  },
  {
    "partId": 72876,
    "stateCode": "S12",
    "stateName": "Madhya Pradesh",
    "districtCode": "S1204",
    "districtName": "GWALIOR",
    "acNumber": 18,
    "acName": "BHITARWAR",
    "partNumber": 98,
    "partName": "PURABANWAR",
    "lat": 26.0287495,
    "lon": 78.15706538653372
  },
  {
    "partId": 72877,
    "stateCode": "S12",
    "stateName": "Madhya Pradesh",
    "districtCode": "S1204",
    "districtName": "GWALIOR",
    "acNumber": 18,
    "acName": "BHITARWAR",
    "partNumber": 99,
    "partName": "BERNI",
    "lat": 25.893063715076334,
    "lon": 78.06418270623632
  },
  {
    "partId": 72978,
    "stateCode": "S12",
    "stateName": "Madhya Pradesh",
    "districtCode": "S1204",
    "districtName": "GWALIOR",
    "acNumber": 18,
    "acName": "BHITARWAR",
    "partNumber": 100,
    "partName": "URVA",
    "lat": 25.893063715076334,
    "lon": 78.06418270623632
  },
  {
    "partId": 72972,
    "stateCode": "S12",
    "stateName": "Madhya Pradesh",
    "districtCode": "S1204",
    "districtName": "GWALIOR",
    "acNumber": 18,
    "acName": "BHITARWAR",
    "partNumber": 101,
    "partName": "HUKUMAGARH",
    "lat": 25.7926629,
    "lon": 78.08891239868532
  },
  {
    "partId": 72878,
    "stateCode": "S12",
    "stateName": "Madhya Pradesh",
    "districtCode": "S1204",
    "districtName": "GWALIOR",
    "acNumber": 18,
    "acName": "BHITARWAR",
    "partNumber": 102,
    "partName": "SURAJPUR",
    "lat": 25.96482925,
    "lon": 78.05582532433039
  },
  {
    "partId": 72879,
    "stateCode": "S12",
    "stateName": "Madhya Pradesh",
    "districtCode": "S1204",
    "districtName": "GWALIOR",
    "acNumber": 18,
    "acName": "BHITARWAR",
    "partNumber": 103,
    "partName": "DEVRI TANKA",
    "lat": 25.893063715076334,
    "lon": 78.06418270623632
  },
  {
    "partId": 72880,
    "stateCode": "S12",
    "stateName": "Madhya Pradesh",
    "districtCode": "S1204",
    "districtName": "GWALIOR",
    "acNumber": 18,
    "acName": "BHITARWAR",
    "partNumber": 104,
    "partName": "CHAIT",
    "lat": 25.958568900000003,
    "lon": 77.99824723181213
  },
  {
    "partId": 72881,
    "stateCode": "S12",
    "stateName": "Madhya Pradesh",
    "districtCode": "S1204",
    "districtName": "GWALIOR",
    "acNumber": 18,
    "acName": "BHITARWAR",
    "partNumber": 105,
    "partName": "DUBAHI",
    "lat": 25.893063715076334,
    "lon": 78.06418270623632
  },
  {
    "partId": 72882,
    "stateCode": "S12",
    "stateName": "Madhya Pradesh",
    "districtCode": "S1204",
    "districtName": "GWALIOR",
    "acNumber": 18,
    "acName": "BHITARWAR",
    "partNumber": 106,
    "partName": "DANGORA",
    "lat": 26.0287495,
    "lon": 78.15706538653372
  },
  {
    "partId": 72883,
    "stateCode": "S12",
    "stateName": "Madhya Pradesh",
    "districtCode": "S1204",
    "districtName": "GWALIOR",
    "acNumber": 18,
    "acName": "BHITARWAR",
    "partNumber": 107,
    "partName": "BADAKAGAON",
    "lat": 26.0287495,
    "lon": 78.15706538653372
  },
  {
    "partId": 72884,
    "stateCode": "S12",
    "stateName": "Madhya Pradesh",
    "districtCode": "S1204",
    "districtName": "GWALIOR",
    "acNumber": 18,
    "acName": "BHITARWAR",
    "partNumber": 108,
    "partName": "BARAHANA",
    "lat": 26.0287495,
    "lon": 78.15706538653372
  },
  {
    "partId": 72885,
    "stateCode": "S12",
    "stateName": "Madhya Pradesh",
    "districtCode": "S1204",
    "districtName": "GWALIOR",
    "acNumber": 18,
    "acName": "BHITARWAR",
    "partNumber": 109,
    "partName": "SEKARA",
    "lat": 25.7926629,
    "lon": 78.08891239868532
  },
  {
    "partId": 72886,
    "stateCode": "S12",
    "stateName": "Madhya Pradesh",
    "districtCode": "S1204",
    "districtName": "GWALIOR",
    "acNumber": 18,
    "acName": "BHITARWAR",
    "partNumber": 110,
    "partName": "BANHERI",
    "lat": 25.85807875,
    "lon": 77.8926388040087
  },
  {
    "partId": 72979,
    "stateCode": "S12",
    "stateName": "Madhya Pradesh",
    "districtCode": "S1204",
    "districtName": "GWALIOR",
    "acNumber": 18,
    "acName": "BHITARWAR",
    "partNumber": 111,
    "partName": "HARSI",
    "lat": 25.75798885,
    "lon": 77.95610686098112
  },
  {
    "partId": 73112,
    "stateCode": "S12",
    "stateName": "Madhya Pradesh",
    "districtCode": "S1204",
    "districtName": "GWALIOR",
    "acNumber": 18,
    "acName": "BHITARWAR",
    "partNumber": 112,
    "partName": "HARSI",
    "lat": 25.75798885,
    "lon": 77.95610686098112
  },
  {
    "partId": 72887,
    "stateCode": "S12",
    "stateName": "Madhya Pradesh",
    "districtCode": "S1204",
    "districtName": "GWALIOR",
    "acNumber": 18,
    "acName": "BHITARWAR",
    "partNumber": 113,
    "partName": "BELAGADHA",
    "lat": 25.7926629,
    "lon": 78.08891239868532
  },
  {
    "partId": 72888,
    "stateCode": "S12",
    "stateName": "Madhya Pradesh",
    "districtCode": "S1204",
    "districtName": "GWALIOR",
    "acNumber": 18,
    "acName": "BHITARWAR",
    "partNumber": 114,
    "partName": "DEVRIKALA",
    "lat": 25.7926629,
    "lon": 78.08891239868532
  },
  {
    "partId": 72889,
    "stateCode": "S12",
    "stateName": "Madhya Pradesh",
    "districtCode": "S1204",
    "districtName": "GWALIOR",
    "acNumber": 18,
    "acName": "BHITARWAR",
    "partNumber": 115,
    "partName": "DEVRIKALA",
    "lat": 25.7926629,
    "lon": 78.08891239868532
  },
  {
    "partId": 72890,
    "stateCode": "S12",
    "stateName": "Madhya Pradesh",
    "districtCode": "S1204",
    "districtName": "GWALIOR",
    "acNumber": 18,
    "acName": "BHITARWAR",
    "partNumber": 116,
    "partName": "CHITAULI",
    "lat": 25.7926629,
    "lon": 78.08891239868532
  },
  {
    "partId": 72891,
    "stateCode": "S12",
    "stateName": "Madhya Pradesh",
    "districtCode": "S1204",
    "districtName": "GWALIOR",
    "acNumber": 18,
    "acName": "BHITARWAR",
    "partNumber": 117,
    "partName": "DONGARPUR",
    "lat": 25.8227624,
    "lon": 77.9614305
  },
  {
    "partId": 72892,
    "stateCode": "S12",
    "stateName": "Madhya Pradesh",
    "districtCode": "S1204",
    "districtName": "GWALIOR",
    "acNumber": 18,
    "acName": "BHITARWAR",
    "partNumber": 118,
    "partName": "GAJNA",
    "lat": 25.83272805,
    "lon": 77.95529766945351
  },
  {
    "partId": 72967,
    "stateCode": "S12",
    "stateName": "Madhya Pradesh",
    "districtCode": "S1204",
    "districtName": "GWALIOR",
    "acNumber": 18,
    "acName": "BHITARWAR",
    "partNumber": 119,
    "partName": "BAJNA",
    "lat": 25.8384066,
    "lon": 77.9608297
  },
  {
    "partId": 72893,
    "stateCode": "S12",
    "stateName": "Madhya Pradesh",
    "districtCode": "S1204",
    "districtName": "GWALIOR",
    "acNumber": 18,
    "acName": "BHITARWAR",
    "partNumber": 120,
    "partName": "SYAU",
    "lat": 25.85488405,
    "lon": 77.97762912313434
  },
  {
    "partId": 72894,
    "stateCode": "S12",
    "stateName": "Madhya Pradesh",
    "districtCode": "S1204",
    "districtName": "GWALIOR",
    "acNumber": 18,
    "acName": "BHITARWAR",
    "partNumber": 121,
    "partName": "RITHONDAN",
    "lat": 25.8676034,
    "lon": 77.9950332
  },
  {
    "partId": 72981,
    "stateCode": "S12",
    "stateName": "Madhya Pradesh",
    "districtCode": "S1204",
    "districtName": "GWALIOR",
    "acNumber": 18,
    "acName": "BHITARWAR",
    "partNumber": 122,
    "partName": "RITHONDAN",
    "lat": 25.8676034,
    "lon": 77.9950332
  },
  {
    "partId": 72895,
    "stateCode": "S12",
    "stateName": "Madhya Pradesh",
    "districtCode": "S1204",
    "districtName": "GWALIOR",
    "acNumber": 18,
    "acName": "BHITARWAR",
    "partNumber": 123,
    "partName": "KARHIYA",
    "lat": 25.8946698,
    "lon": 78.0120277
  },
  {
    "partId": 72980,
    "stateCode": "S12",
    "stateName": "Madhya Pradesh",
    "districtCode": "S1204",
    "districtName": "GWALIOR",
    "acNumber": 18,
    "acName": "BHITARWAR",
    "partNumber": 124,
    "partName": "KARHIYA",
    "lat": 25.8946698,
    "lon": 78.0120277
  },
  {
    "partId": 72853,
    "stateCode": "S12",
    "stateName": "Madhya Pradesh",
    "districtCode": "S1204",
    "districtName": "GWALIOR",
    "acNumber": 18,
    "acName": "BHITARWAR",
    "partNumber": 125,
    "partName": "KARHIYA",
    "lat": 25.8946698,
    "lon": 78.0120277
  },
  {
    "partId": 72896,
    "stateCode": "S12",
    "stateName": "Madhya Pradesh",
    "districtCode": "S1204",
    "districtName": "GWALIOR",
    "acNumber": 18,
    "acName": "BHITARWAR",
    "partNumber": 126,
    "partName": "KARHIYA",
    "lat": 25.8946698,
    "lon": 78.0120277
  },
  {
    "partId": 72897,
    "stateCode": "S12",
    "stateName": "Madhya Pradesh",
    "districtCode": "S1204",
    "districtName": "GWALIOR",
    "acNumber": 18,
    "acName": "BHITARWAR",
    "partNumber": 127,
    "partName": "KARHIYA",
    "lat": 25.8946698,
    "lon": 78.0120277
  },
  {
    "partId": 72898,
    "stateCode": "S12",
    "stateName": "Madhya Pradesh",
    "districtCode": "S1204",
    "districtName": "GWALIOR",
    "acNumber": 18,
    "acName": "BHITARWAR",
    "partNumber": 128,
    "partName": "MEHGAON",
    "lat": 26.06506375,
    "lon": 78.49658072157419
  },
  {
    "partId": 72899,
    "stateCode": "S12",
    "stateName": "Madhya Pradesh",
    "districtCode": "S1204",
    "districtName": "GWALIOR",
    "acNumber": 18,
    "acName": "BHITARWAR",
    "partNumber": 129,
    "partName": "MEHAGAON",
    "lat": 26.0614863,
    "lon": 78.4913921
  },
  {
    "partId": 72900,
    "stateCode": "S12",
    "stateName": "Madhya Pradesh",
    "districtCode": "S1204",
    "districtName": "GWALIOR",
    "acNumber": 18,
    "acName": "BHITARWAR",
    "partNumber": 130,
    "partName": "DUBAHA TANKA",
    "lat": 25.9371872,
    "lon": 78.0199671
  },
  {
    "partId": 72933,
    "stateCode": "S12",
    "stateName": "Madhya Pradesh",
    "districtCode": "S1204",
    "districtName": "GWALIOR",
    "acNumber": 18,
    "acName": "BHITARWAR",
    "partNumber": 131,
    "partName": "DUBHATANKA",
    "lat": 25.7926629,
    "lon": 78.08891239868532
  },
  {
    "partId": 72901,
    "stateCode": "S12",
    "stateName": "Madhya Pradesh",
    "districtCode": "S1204",
    "districtName": "GWALIOR",
    "acNumber": 18,
    "acName": "BHITARWAR",
    "partNumber": 132,
    "partName": "GADHISALAMPUR",
    "lat": 25.7926629,
    "lon": 78.08891239868532
  },
  {
    "partId": 72902,
    "stateCode": "S12",
    "stateName": "Madhya Pradesh",
    "districtCode": "S1204",
    "districtName": "GWALIOR",
    "acNumber": 18,
    "acName": "BHITARWAR",
    "partNumber": 133,
    "partName": "KISHORGARH",
    "lat": 25.95278245,
    "lon": 78.07839718598717
  },
  {
    "partId": 72903,
    "stateCode": "S12",
    "stateName": "Madhya Pradesh",
    "districtCode": "S1204",
    "districtName": "GWALIOR",
    "acNumber": 18,
    "acName": "BHITARWAR",
    "partNumber": 134,
    "partName": "KAKARADHA",
    "lat": 25.7926629,
    "lon": 78.08891239868532
  },
  {
    "partId": 72904,
    "stateCode": "S12",
    "stateName": "Madhya Pradesh",
    "districtCode": "S1204",
    "districtName": "GWALIOR",
    "acNumber": 18,
    "acName": "BHITARWAR",
    "partNumber": 135,
    "partName": "PIPARAUA",
    "lat": 25.7926629,
    "lon": 78.08891239868532
  },
  {
    "partId": 72905,
    "stateCode": "S12",
    "stateName": "Madhya Pradesh",
    "districtCode": "S1204",
    "districtName": "GWALIOR",
    "acNumber": 18,
    "acName": "BHITARWAR",
    "partNumber": 136,
    "partName": "JHANKRI",
    "lat": 26.002114249999998,
    "lon": 78.1001301204872
  },
  {
    "partId": 72854,
    "stateCode": "S12",
    "stateName": "Madhya Pradesh",
    "districtCode": "S1204",
    "districtName": "GWALIOR",
    "acNumber": 18,
    "acName": "BHITARWAR",
    "partNumber": 137,
    "partName": "BHAURI",
    "lat": 25.7926629,
    "lon": 78.08891239868532
  },
  {
    "partId": 72906,
    "stateCode": "S12",
    "stateName": "Madhya Pradesh",
    "districtCode": "S1204",
    "districtName": "GWALIOR",
    "acNumber": 18,
    "acName": "BHITARWAR",
    "partNumber": 138,
    "partName": "BHAURI",
    "lat": 25.7926629,
    "lon": 78.08891239868532
  },
  {
    "partId": 72968,
    "stateCode": "S12",
    "stateName": "Madhya Pradesh",
    "districtCode": "S1204",
    "districtName": "GWALIOR",
    "acNumber": 18,
    "acName": "BHITARWAR",
    "partNumber": 139,
    "partName": "SIKRODA",
    "lat": 26.2203716,
    "lon": 78.44329635911703
  },
  {
    "partId": 72907,
    "stateCode": "S12",
    "stateName": "Madhya Pradesh",
    "districtCode": "S1204",
    "districtName": "GWALIOR",
    "acNumber": 18,
    "acName": "BHITARWAR",
    "partNumber": 140,
    "partName": "RAJAUA",
    "lat": 26.0160635,
    "lon": 78.133564
  },
  {
    "partId": 72908,
    "stateCode": "S12",
    "stateName": "Madhya Pradesh",
    "districtCode": "S1204",
    "districtName": "GWALIOR",
    "acNumber": 18,
    "acName": "BHITARWAR",
    "partNumber": 141,
    "partName": "TODA",
    "lat": 26.0513275,
    "lon": 78.143456
  },
  {
    "partId": 72996,
    "stateCode": "S12",
    "stateName": "Madhya Pradesh",
    "districtCode": "S1204",
    "districtName": "GWALIOR",
    "acNumber": 18,
    "acName": "BHITARWAR",
    "partNumber": 142,
    "partName": "BADERA BHARAS",
    "lat": 26.0298213,
    "lon": 78.1712866
  },
  {
    "partId": 72997,
    "stateCode": "S12",
    "stateName": "Madhya Pradesh",
    "districtCode": "S1204",
    "districtName": "GWALIOR",
    "acNumber": 18,
    "acName": "BHITARWAR",
    "partNumber": 143,
    "partName": "NIHAUNA",
    "lat": 25.7926629,
    "lon": 78.08891239868532
  },
  {
    "partId": 72998,
    "stateCode": "S12",
    "stateName": "Madhya Pradesh",
    "districtCode": "S1204",
    "districtName": "GWALIOR",
    "acNumber": 18,
    "acName": "BHITARWAR",
    "partNumber": 144,
    "partName": "ANTRI SANDALPUR",
    "lat": 25.7926629,
    "lon": 78.08891239868532
  },
  {
    "partId": 73055,
    "stateCode": "S12",
    "stateName": "Madhya Pradesh",
    "districtCode": "S1204",
    "districtName": "GWALIOR",
    "acNumber": 18,
    "acName": "BHITARWAR",
    "partNumber": 145,
    "partName": "ANTRI SANDALPUR",
    "lat": 25.7926629,
    "lon": 78.08891239868532
  },
  {
    "partId": 73113,
    "stateCode": "S12",
    "stateName": "Madhya Pradesh",
    "districtCode": "S1204",
    "districtName": "GWALIOR",
    "acNumber": 18,
    "acName": "BHITARWAR",
    "partNumber": 146,
    "partName": "ANTRI",
    "lat": 26.04662505,
    "lon": 78.22086156347893
  },
  {
    "partId": 73111,
    "stateCode": "S12",
    "stateName": "Madhya Pradesh",
    "districtCode": "S1204",
    "districtName": "GWALIOR",
    "acNumber": 18,
    "acName": "BHITARWAR",
    "partNumber": 147,
    "partName": "ANTRI",
    "lat": 26.04662505,
    "lon": 78.22086156347893
  },
  {
    "partId": 73114,
    "stateCode": "S12",
    "stateName": "Madhya Pradesh",
    "districtCode": "S1204",
    "districtName": "GWALIOR",
    "acNumber": 18,
    "acName": "BHITARWAR",
    "partNumber": 148,
    "partName": "ANTRI",
    "lat": 26.04662505,
    "lon": 78.22086156347893
  },
  {
    "partId": 73115,
    "stateCode": "S12",
    "stateName": "Madhya Pradesh",
    "districtCode": "S1204",
    "districtName": "GWALIOR",
    "acNumber": 18,
    "acName": "BHITARWAR",
    "partNumber": 149,
    "partName": "ANTRI",
    "lat": 26.04662505,
    "lon": 78.22086156347893
  },
  {
    "partId": 72855,
    "stateCode": "S12",
    "stateName": "Madhya Pradesh",
    "districtCode": "S1204",
    "districtName": "GWALIOR",
    "acNumber": 18,
    "acName": "BHITARWAR",
    "partNumber": 150,
    "partName": "ANTRI",
    "lat": 26.04662505,
    "lon": 78.22086156347893
  },
  {
    "partId": 73116,
    "stateCode": "S12",
    "stateName": "Madhya Pradesh",
    "districtCode": "S1204",
    "districtName": "GWALIOR",
    "acNumber": 18,
    "acName": "BHITARWAR",
    "partNumber": 151,
    "partName": "ANTRI",
    "lat": 26.04662505,
    "lon": 78.22086156347893
  },
  {
    "partId": 72928,
    "stateCode": "S12",
    "stateName": "Madhya Pradesh",
    "districtCode": "S1204",
    "districtName": "GWALIOR",
    "acNumber": 18,
    "acName": "BHITARWAR",
    "partNumber": 152,
    "partName": "EARAYA",
    "lat": 25.7926629,
    "lon": 78.08891239868532
  },
  {
    "partId": 72929,
    "stateCode": "S12",
    "stateName": "Madhya Pradesh",
    "districtCode": "S1204",
    "districtName": "GWALIOR",
    "acNumber": 18,
    "acName": "BHITARWAR",
    "partNumber": 153,
    "partName": "KACHHAUA",
    "lat": 26.0039608,
    "lon": 78.17718958281142
  },
  {
    "partId": 72930,
    "stateCode": "S12",
    "stateName": "Madhya Pradesh",
    "districtCode": "S1204",
    "districtName": "GWALIOR",
    "acNumber": 18,
    "acName": "BHITARWAR",
    "partNumber": 154,
    "partName": "KACHHAUA",
    "lat": 26.0039608,
    "lon": 78.17718958281142
  },
  {
    "partId": 72931,
    "stateCode": "S12",
    "stateName": "Madhya Pradesh",
    "districtCode": "S1204",
    "districtName": "GWALIOR",
    "acNumber": 18,
    "acName": "BHITARWAR",
    "partNumber": 155,
    "partName": "KIRATPURA",
    "lat": 25.997454949999998,
    "lon": 78.21625443984017
  },
  {
    "partId": 72858,
    "stateCode": "S12",
    "stateName": "Madhya Pradesh",
    "districtCode": "S1204",
    "districtName": "GWALIOR",
    "acNumber": 18,
    "acName": "BHITARWAR",
    "partNumber": 156,
    "partName": "LADAVAYA",
    "lat": 25.7926629,
    "lon": 78.08891239868532
  },
  {
    "partId": 73076,
    "stateCode": "S12",
    "stateName": "Madhya Pradesh",
    "districtCode": "S1204",
    "districtName": "GWALIOR",
    "acNumber": 18,
    "acName": "BHITARWAR",
    "partNumber": 157,
    "partName": "BAJHERA",
    "lat": 25.7926629,
    "lon": 78.08891239868532
  },
  {
    "partId": 72859,
    "stateCode": "S12",
    "stateName": "Madhya Pradesh",
    "districtCode": "S1204",
    "districtName": "GWALIOR",
    "acNumber": 18,
    "acName": "BHITARWAR",
    "partNumber": 158,
    "partName": "BHARTHARI",
    "lat": 25.98301845,
    "lon": 78.2476636994792
  },
  {
    "partId": 73084,
    "stateCode": "S12",
    "stateName": "Madhya Pradesh",
    "districtCode": "S1204",
    "districtName": "GWALIOR",
    "acNumber": 18,
    "acName": "BHITARWAR",
    "partNumber": 159,
    "partName": "KHERVAYA",
    "lat": 25.7926629,
    "lon": 78.08891239868532
  },
  {
    "partId": 73085,
    "stateCode": "S12",
    "stateName": "Madhya Pradesh",
    "districtCode": "S1204",
    "districtName": "GWALIOR",
    "acNumber": 18,
    "acName": "BHITARWAR",
    "partNumber": 160,
    "partName": "FATEHPUR",
    "lat": 25.97117585,
    "lon": 78.22940433724537
  },
  {
    "partId": 73086,
    "stateCode": "S12",
    "stateName": "Madhya Pradesh",
    "districtCode": "S1204",
    "districtName": "GWALIOR",
    "acNumber": 18,
    "acName": "BHITARWAR",
    "partNumber": 161,
    "partName": "PURI",
    "lat": 25.97434655,
    "lon": 78.2097410777472
  },
  {
    "partId": 73087,
    "stateCode": "S12",
    "stateName": "Madhya Pradesh",
    "districtCode": "S1204",
    "districtName": "GWALIOR",
    "acNumber": 18,
    "acName": "BHITARWAR",
    "partNumber": 162,
    "partName": "BADKI SARAY",
    "lat": 25.9787827,
    "lon": 78.1736469
  },
  {
    "partId": 72856,
    "stateCode": "S12",
    "stateName": "Madhya Pradesh",
    "districtCode": "S1204",
    "districtName": "GWALIOR",
    "acNumber": 18,
    "acName": "BHITARWAR",
    "partNumber": 163,
    "partName": "BADKI SARAY",
    "lat": 25.9787827,
    "lon": 78.1736469
  },
  {
    "partId": 73088,
    "stateCode": "S12",
    "stateName": "Madhya Pradesh",
    "districtCode": "S1204",
    "districtName": "GWALIOR",
    "acNumber": 18,
    "acName": "BHITARWAR",
    "partNumber": 164,
    "partName": "KHEDIDABRIYA",
    "lat": 25.7926629,
    "lon": 78.08891239868532
  },
  {
    "partId": 73050,
    "stateCode": "S12",
    "stateName": "Madhya Pradesh",
    "districtCode": "S1204",
    "districtName": "GWALIOR",
    "acNumber": 18,
    "acName": "BHITARWAR",
    "partNumber": 165,
    "partName": "PIPRAU",
    "lat": 25.931130449999998,
    "lon": 78.18937870509174
  },
  {
    "partId": 72940,
    "stateCode": "S12",
    "stateName": "Madhya Pradesh",
    "districtCode": "S1204",
    "districtName": "GWALIOR",
    "acNumber": 18,
    "acName": "BHITARWAR",
    "partNumber": 166,
    "partName": "SAMAYA",
    "lat": 25.93514855,
    "lon": 78.21494410275625
  },
  {
    "partId": 72941,
    "stateCode": "S12",
    "stateName": "Madhya Pradesh",
    "districtCode": "S1204",
    "districtName": "GWALIOR",
    "acNumber": 18,
    "acName": "BHITARWAR",
    "partNumber": 167,
    "partName": "BHENGANA",
    "lat": 25.9372065,
    "lon": 78.1729603
  },
  {
    "partId": 72942,
    "stateCode": "S12",
    "stateName": "Madhya Pradesh",
    "districtCode": "S1204",
    "districtName": "GWALIOR",
    "acNumber": 18,
    "acName": "BHITARWAR",
    "partNumber": 168,
    "partName": "KAITHI",
    "lat": 25.9427216,
    "lon": 78.15679853188735
  },
  {
    "partId": 73110,
    "stateCode": "S12",
    "stateName": "Madhya Pradesh",
    "districtCode": "S1204",
    "districtName": "GWALIOR",
    "acNumber": 18,
    "acName": "BHITARWAR",
    "partNumber": 169,
    "partName": "PAIRA",
    "lat": 25.9168478,
    "lon": 78.16119900929098
  },
  {
    "partId": 72943,
    "stateCode": "S12",
    "stateName": "Madhya Pradesh",
    "districtCode": "S1204",
    "districtName": "GWALIOR",
    "acNumber": 18,
    "acName": "BHITARWAR",
    "partNumber": 170,
    "partName": "KISHANPUR",
    "lat": 25.9551604,
    "lon": 78.1646132
  },
  {
    "partId": 72944,
    "stateCode": "S12",
    "stateName": "Madhya Pradesh",
    "districtCode": "S1204",
    "districtName": "GWALIOR",
    "acNumber": 18,
    "acName": "BHITARWAR",
    "partNumber": 171,
    "partName": "RARUA",
    "lat": 25.94906335,
    "lon": 78.13422294193516
  },
  {
    "partId": 72945,
    "stateCode": "S12",
    "stateName": "Madhya Pradesh",
    "districtCode": "S1204",
    "districtName": "GWALIOR",
    "acNumber": 18,
    "acName": "BHITARWAR",
    "partNumber": 172,
    "partName": "GHARSONDI",
    "lat": 25.926072,
    "lon": 78.1437778
  },
  {
    "partId": 73109,
    "stateCode": "S12",
    "stateName": "Madhya Pradesh",
    "districtCode": "S1204",
    "districtName": "GWALIOR",
    "acNumber": 18,
    "acName": "BHITARWAR",
    "partNumber": 173,
    "partName": "GHARSONDI",
    "lat": 26.0287495,
    "lon": 78.15706538653372
  },
  {
    "partId": 72946,
    "stateCode": "S12",
    "stateName": "Madhya Pradesh",
    "districtCode": "S1204",
    "districtName": "GWALIOR",
    "acNumber": 18,
    "acName": "BHITARWAR",
    "partNumber": 174,
    "partName": "CHINOR",
    "lat": 25.7926629,
    "lon": 78.08891239868532
  },
  {
    "partId": 72947,
    "stateCode": "S12",
    "stateName": "Madhya Pradesh",
    "districtCode": "S1204",
    "districtName": "GWALIOR",
    "acNumber": 18,
    "acName": "BHITARWAR",
    "partNumber": 175,
    "partName": "CHINOR",
    "lat": 26.0287495,
    "lon": 78.15706538653372
  },
  {
    "partId": 72932,
    "stateCode": "S12",
    "stateName": "Madhya Pradesh",
    "districtCode": "S1204",
    "districtName": "GWALIOR",
    "acNumber": 18,
    "acName": "BHITARWAR",
    "partNumber": 176,
    "partName": "CHINOR",
    "lat": 25.7926629,
    "lon": 78.08891239868532
  },
  {
    "partId": 73054,
    "stateCode": "S12",
    "stateName": "Madhya Pradesh",
    "districtCode": "S1204",
    "districtName": "GWALIOR",
    "acNumber": 18,
    "acName": "BHITARWAR",
    "partNumber": 177,
    "partName": "CHINOR",
    "lat": 25.7926629,
    "lon": 78.08891239868532
  },
  {
    "partId": 72948,
    "stateCode": "S12",
    "stateName": "Madhya Pradesh",
    "districtCode": "S1204",
    "districtName": "GWALIOR",
    "acNumber": 18,
    "acName": "BHITARWAR",
    "partNumber": 178,
    "partName": "CHINOR",
    "lat": 25.7926629,
    "lon": 78.08891239868532
  },
  {
    "partId": 73108,
    "stateCode": "S12",
    "stateName": "Madhya Pradesh",
    "districtCode": "S1204",
    "districtName": "GWALIOR",
    "acNumber": 18,
    "acName": "BHITARWAR",
    "partNumber": 179,
    "partName": "CHINOR",
    "lat": 25.7926629,
    "lon": 78.08891239868532
  },
  {
    "partId": 72949,
    "stateCode": "S12",
    "stateName": "Madhya Pradesh",
    "districtCode": "S1204",
    "districtName": "GWALIOR",
    "acNumber": 18,
    "acName": "BHITARWAR",
    "partNumber": 180,
    "partName": "DAULATPUR",
    "lat": 25.9087475,
    "lon": 78.09551107352293
  },
  {
    "partId": 72910,
    "stateCode": "S12",
    "stateName": "Madhya Pradesh",
    "districtCode": "S1204",
    "districtName": "GWALIOR",
    "acNumber": 18,
    "acName": "BHITARWAR",
    "partNumber": 181,
    "partName": "DAULATPUR",
    "lat": 25.9087475,
    "lon": 78.09551107352293
  },
  {
    "partId": 72950,
    "stateCode": "S12",
    "stateName": "Madhya Pradesh",
    "districtCode": "S1204",
    "districtName": "GWALIOR",
    "acNumber": 18,
    "acName": "BHITARWAR",
    "partNumber": 182,
    "partName": "SIRSULA",
    "lat": 25.9193946,
    "lon": 78.072297
  },
  {
    "partId": 72857,
    "stateCode": "S12",
    "stateName": "Madhya Pradesh",
    "districtCode": "S1204",
    "districtName": "GWALIOR",
    "acNumber": 18,
    "acName": "BHITARWAR",
    "partNumber": 183,
    "partName": "ITMA",
    "lat": 25.897191,
    "lon": 78.0651844484469
  },
  {
    "partId": 72951,
    "stateCode": "S12",
    "stateName": "Madhya Pradesh",
    "districtCode": "S1204",
    "districtName": "GWALIOR",
    "acNumber": 18,
    "acName": "BHITARWAR",
    "partNumber": 184,
    "partName": "ITMA",
    "lat": 25.897191,
    "lon": 78.0651844484469
  },
  {
    "partId": 72952,
    "stateCode": "S12",
    "stateName": "Madhya Pradesh",
    "districtCode": "S1204",
    "districtName": "GWALIOR",
    "acNumber": 18,
    "acName": "BHITARWAR",
    "partNumber": 185,
    "partName": "BELA",
    "lat": 26.11608655,
    "lon": 78.11281742535925
  },
  {
    "partId": 72953,
    "stateCode": "S12",
    "stateName": "Madhya Pradesh",
    "districtCode": "S1204",
    "districtName": "GWALIOR",
    "acNumber": 18,
    "acName": "BHITARWAR",
    "partNumber": 186,
    "partName": "KHEDATANKA",
    "lat": 25.7926629,
    "lon": 78.08891239868532
  },
  {
    "partId": 72954,
    "stateCode": "S12",
    "stateName": "Madhya Pradesh",
    "districtCode": "S1204",
    "districtName": "GWALIOR",
    "acNumber": 18,
    "acName": "BHITARWAR",
    "partNumber": 187,
    "partName": "RICHHARIKALAN",
    "lat": 25.7926629,
    "lon": 78.08891239868532
  },
  {
    "partId": 72955,
    "stateCode": "S12",
    "stateName": "Madhya Pradesh",
    "districtCode": "S1204",
    "districtName": "GWALIOR",
    "acNumber": 18,
    "acName": "BHITARWAR",
    "partNumber": 188,
    "partName": "SAHABAI",
    "lat": 25.7926629,
    "lon": 78.08891239868532
  },
  {
    "partId": 72956,
    "stateCode": "S12",
    "stateName": "Madhya Pradesh",
    "districtCode": "S1204",
    "districtName": "GWALIOR",
    "acNumber": 18,
    "acName": "BHITARWAR",
    "partNumber": 189,
    "partName": "RICHHARIKHURD",
    "lat": 25.7926629,
    "lon": 78.08891239868532
  },
  {
    "partId": 72957,
    "stateCode": "S12",
    "stateName": "Madhya Pradesh",
    "districtCode": "S1204",
    "districtName": "GWALIOR",
    "acNumber": 18,
    "acName": "BHITARWAR",
    "partNumber": 190,
    "partName": "MUSAHARI",
    "lat": 25.7981332,
    "lon": 77.9901409
  },
  {
    "partId": 72958,
    "stateCode": "S12",
    "stateName": "Madhya Pradesh",
    "districtCode": "S1204",
    "districtName": "GWALIOR",
    "acNumber": 18,
    "acName": "BHITARWAR",
    "partNumber": 191,
    "partName": "MAVATHA",
    "lat": 25.7926629,
    "lon": 78.08891239868532
  },
  {
    "partId": 72969,
    "stateCode": "S12",
    "stateName": "Madhya Pradesh",
    "districtCode": "S1204",
    "districtName": "GWALIOR",
    "acNumber": 18,
    "acName": "BHITARWAR",
    "partNumber": 192,
    "partName": "GADHAUTA",
    "lat": 25.7926629,
    "lon": 78.08891239868532
  },
  {
    "partId": 72959,
    "stateCode": "S12",
    "stateName": "Madhya Pradesh",
    "districtCode": "S1204",
    "districtName": "GWALIOR",
    "acNumber": 18,
    "acName": "BHITARWAR",
    "partNumber": 193,
    "partName": "DHOBAT",
    "lat": 25.774375550000002,
    "lon": 77.99483118512921
  },
  {
    "partId": 72960,
    "stateCode": "S12",
    "stateName": "Madhya Pradesh",
    "districtCode": "S1204",
    "districtName": "GWALIOR",
    "acNumber": 18,
    "acName": "BHITARWAR",
    "partNumber": 194,
    "partName": "PALAYACHHA",
    "lat": 25.7737307,
    "lon": 78.0349874
  },
  {
    "partId": 72912,
    "stateCode": "S12",
    "stateName": "Madhya Pradesh",
    "districtCode": "S1204",
    "districtName": "GWALIOR",
    "acNumber": 18,
    "acName": "BHITARWAR",
    "partNumber": 195,
    "partName": "NAJARPUR",
    "lat": 26.0287495,
    "lon": 78.15706538653372
  },
  {
    "partId": 72961,
    "stateCode": "S12",
    "stateName": "Madhya Pradesh",
    "districtCode": "S1204",
    "districtName": "GWALIOR",
    "acNumber": 18,
    "acName": "BHITARWAR",
    "partNumber": 196,
    "partName": "SILHA",
    "lat": 26.0287495,
    "lon": 78.15706538653372
  },
  {
    "partId": 72962,
    "stateCode": "S12",
    "stateName": "Madhya Pradesh",
    "districtCode": "S1204",
    "districtName": "GWALIOR",
    "acNumber": 18,
    "acName": "BHITARWAR",
    "partNumber": 197,
    "partName": "BANIYATOR",
    "lat": 25.7926629,
    "lon": 78.08891239868532
  },
  {
    "partId": 73056,
    "stateCode": "S12",
    "stateName": "Madhya Pradesh",
    "districtCode": "S1204",
    "districtName": "GWALIOR",
    "acNumber": 18,
    "acName": "BHITARWAR",
    "partNumber": 198,
    "partName": "MASTOORA",
    "lat": 25.7926629,
    "lon": 78.08891239868532
  },
  {
    "partId": 73057,
    "stateCode": "S12",
    "stateName": "Madhya Pradesh",
    "districtCode": "S1204",
    "districtName": "GWALIOR",
    "acNumber": 18,
    "acName": "BHITARWAR",
    "partNumber": 199,
    "partName": "MASTOORA",
    "lat": 25.7926629,
    "lon": 78.08891239868532
  },
  {
    "partId": 73058,
    "stateCode": "S12",
    "stateName": "Madhya Pradesh",
    "districtCode": "S1204",
    "districtName": "GWALIOR",
    "acNumber": 18,
    "acName": "BHITARWAR",
    "partNumber": 200,
    "partName": "RAHI",
    "lat": 25.8391597,
    "lon": 78.0348801
  },
  {
    "partId": 73059,
    "stateCode": "S12",
    "stateName": "Madhya Pradesh",
    "districtCode": "S1204",
    "districtName": "GWALIOR",
    "acNumber": 18,
    "acName": "BHITARWAR",
    "partNumber": 201,
    "partName": "SHYAMPUR",
    "lat": 25.962164350000002,
    "lon": 77.82731254760799
  },
  {
    "partId": 73060,
    "stateCode": "S12",
    "stateName": "Madhya Pradesh",
    "districtCode": "S1204",
    "districtName": "GWALIOR",
    "acNumber": 18,
    "acName": "BHITARWAR",
    "partNumber": 202,
    "partName": "MARAGPUR",
    "lat": 25.8394398,
    "lon": 78.0536878
  },
  {
    "partId": 72860,
    "stateCode": "S12",
    "stateName": "Madhya Pradesh",
    "districtCode": "S1204",
    "districtName": "GWALIOR",
    "acNumber": 18,
    "acName": "BHITARWAR",
    "partNumber": 203,
    "partName": "SINGHARAN",
    "lat": 25.84377185,
    "lon": 78.07044822657946
  },
  {
    "partId": 72861,
    "stateCode": "S12",
    "stateName": "Madhya Pradesh",
    "districtCode": "S1204",
    "districtName": "GWALIOR",
    "acNumber": 18,
    "acName": "BHITARWAR",
    "partNumber": 204,
    "partName": "PACHOURA",
    "lat": 25.7926629,
    "lon": 78.08891239868532
  },
  {
    "partId": 72870,
    "stateCode": "S12",
    "stateName": "Madhya Pradesh",
    "districtCode": "S1204",
    "districtName": "GWALIOR",
    "acNumber": 18,
    "acName": "BHITARWAR",
    "partNumber": 205,
    "partName": "PACHOURA",
    "lat": 25.7926629,
    "lon": 78.08891239868532
  },
  {
    "partId": 72862,
    "stateCode": "S12",
    "stateName": "Madhya Pradesh",
    "districtCode": "S1204",
    "districtName": "GWALIOR",
    "acNumber": 18,
    "acName": "BHITARWAR",
    "partNumber": 206,
    "partName": "DAUNI",
    "lat": 25.7926629,
    "lon": 78.08891239868532
  },
  {
    "partId": 72863,
    "stateCode": "S12",
    "stateName": "Madhya Pradesh",
    "districtCode": "S1204",
    "districtName": "GWALIOR",
    "acNumber": 18,
    "acName": "BHITARWAR",
    "partNumber": 207,
    "partName": "MAINA",
    "lat": 25.908787699999998,
    "lon": 78.1186580318001
  },
  {
    "partId": 72909,
    "stateCode": "S12",
    "stateName": "Madhya Pradesh",
    "districtCode": "S1204",
    "districtName": "GWALIOR",
    "acNumber": 18,
    "acName": "BHITARWAR",
    "partNumber": 208,
    "partName": "MAINA",
    "lat": 25.908787699999998,
    "lon": 78.1186580318001
  },
  {
    "partId": 72864,
    "stateCode": "S12",
    "stateName": "Madhya Pradesh",
    "districtCode": "S1204",
    "districtName": "GWALIOR",
    "acNumber": 18,
    "acName": "BHITARWAR",
    "partNumber": 209,
    "partName": "SHEKHUPUR",
    "lat": 25.907205949999998,
    "lon": 78.14709554401608
  },
  {
    "partId": 73026,
    "stateCode": "S12",
    "stateName": "Madhya Pradesh",
    "districtCode": "S1204",
    "districtName": "GWALIOR",
    "acNumber": 18,
    "acName": "BHITARWAR",
    "partNumber": 210,
    "partName": "NONKISARAY",
    "lat": 25.7926629,
    "lon": 78.08891239868532
  },
  {
    "partId": 72970,
    "stateCode": "S12",
    "stateName": "Madhya Pradesh",
    "districtCode": "S1204",
    "districtName": "GWALIOR",
    "acNumber": 18,
    "acName": "BHITARWAR",
    "partNumber": 211,
    "partName": "BERKHEDA",
    "lat": 25.8932799,
    "lon": 78.1256246
  },
  {
    "partId": 72865,
    "stateCode": "S12",
    "stateName": "Madhya Pradesh",
    "districtCode": "S1204",
    "districtName": "GWALIOR",
    "acNumber": 18,
    "acName": "BHITARWAR",
    "partNumber": 212,
    "partName": "EKAHARA",
    "lat": 25.7926629,
    "lon": 78.08891239868532
  },
  {
    "partId": 72866,
    "stateCode": "S12",
    "stateName": "Madhya Pradesh",
    "districtCode": "S1204",
    "districtName": "GWALIOR",
    "acNumber": 18,
    "acName": "BHITARWAR",
    "partNumber": 213,
    "partName": "GADAJAR",
    "lat": 25.8519631,
    "lon": 78.1019997
  },
  {
    "partId": 73107,
    "stateCode": "S12",
    "stateName": "Madhya Pradesh",
    "districtCode": "S1204",
    "districtName": "GWALIOR",
    "acNumber": 18,
    "acName": "BHITARWAR",
    "partNumber": 214,
    "partName": "GADAJAR",
    "lat": 25.8519631,
    "lon": 78.1019997
  },
  {
    "partId": 72867,
    "stateCode": "S12",
    "stateName": "Madhya Pradesh",
    "districtCode": "S1204",
    "districtName": "GWALIOR",
    "acNumber": 18,
    "acName": "BHITARWAR",
    "partNumber": 215,
    "partName": "CHARAKHA",
    "lat": 25.7926629,
    "lon": 78.08891239868532
  },
  {
    "partId": 72868,
    "stateCode": "S12",
    "stateName": "Madhya Pradesh",
    "districtCode": "S1204",
    "districtName": "GWALIOR",
    "acNumber": 18,
    "acName": "BHITARWAR",
    "partNumber": 216,
    "partName": "KITHONDA",
    "lat": 25.7926629,
    "lon": 78.08891239868532
  },
  {
    "partId": 73053,
    "stateCode": "S12",
    "stateName": "Madhya Pradesh",
    "districtCode": "S1204",
    "districtName": "GWALIOR",
    "acNumber": 18,
    "acName": "BHITARWAR",
    "partNumber": 217,
    "partName": "KITHONDA",
    "lat": 25.7926629,
    "lon": 78.08891239868532
  },
  {
    "partId": 73077,
    "stateCode": "S12",
    "stateName": "Madhya Pradesh",
    "districtCode": "S1204",
    "districtName": "GWALIOR",
    "acNumber": 18,
    "acName": "BHITARWAR",
    "partNumber": 218,
    "partName": "BHITARWAR",
    "lat": 25.7926629,
    "lon": 78.08891239868532
  },
  {
    "partId": 73052,
    "stateCode": "S12",
    "stateName": "Madhya Pradesh",
    "districtCode": "S1204",
    "districtName": "GWALIOR",
    "acNumber": 18,
    "acName": "BHITARWAR",
    "partNumber": 219,
    "partName": "BHITARWAR",
    "lat": 25.7926629,
    "lon": 78.08891239868532
  },
  {
    "partId": 73078,
    "stateCode": "S12",
    "stateName": "Madhya Pradesh",
    "districtCode": "S1204",
    "districtName": "GWALIOR",
    "acNumber": 18,
    "acName": "BHITARWAR",
    "partNumber": 220,
    "partName": "BHITARWAR",
    "lat": 25.7926629,
    "lon": 78.08891239868532
  },
  {
    "partId": 73106,
    "stateCode": "S12",
    "stateName": "Madhya Pradesh",
    "districtCode": "S1204",
    "districtName": "GWALIOR",
    "acNumber": 18,
    "acName": "BHITARWAR",
    "partNumber": 221,
    "partName": "BHITARWAR",
    "lat": 25.7926629,
    "lon": 78.08891239868532
  },
  {
    "partId": 73079,
    "stateCode": "S12",
    "stateName": "Madhya Pradesh",
    "districtCode": "S1204",
    "districtName": "GWALIOR",
    "acNumber": 18,
    "acName": "BHITARWAR",
    "partNumber": 222,
    "partName": "BHITARWAR",
    "lat": 26.0287495,
    "lon": 78.15706538653372
  },
  {
    "partId": 73080,
    "stateCode": "S12",
    "stateName": "Madhya Pradesh",
    "districtCode": "S1204",
    "districtName": "GWALIOR",
    "acNumber": 18,
    "acName": "BHITARWAR",
    "partNumber": 223,
    "partName": "BHITARWAR",
    "lat": 25.7926629,
    "lon": 78.08891239868532
  },
  {
    "partId": 73081,
    "stateCode": "S12",
    "stateName": "Madhya Pradesh",
    "districtCode": "S1204",
    "districtName": "GWALIOR",
    "acNumber": 18,
    "acName": "BHITARWAR",
    "partNumber": 224,
    "partName": "BHITARWAR",
    "lat": 25.7926629,
    "lon": 78.08891239868532
  },
  {
    "partId": 73051,
    "stateCode": "S12",
    "stateName": "Madhya Pradesh",
    "districtCode": "S1204",
    "districtName": "GWALIOR",
    "acNumber": 18,
    "acName": "BHITARWAR",
    "partNumber": 225,
    "partName": "BHITARWAR",
    "lat": 25.7926629,
    "lon": 78.08891239868532
  },
  {
    "partId": 73082,
    "stateCode": "S12",
    "stateName": "Madhya Pradesh",
    "districtCode": "S1204",
    "districtName": "GWALIOR",
    "acNumber": 18,
    "acName": "BHITARWAR",
    "partNumber": 226,
    "partName": "BHITARWAR",
    "lat": 25.7926629,
    "lon": 78.08891239868532
  },
  {
    "partId": 73105,
    "stateCode": "S12",
    "stateName": "Madhya Pradesh",
    "districtCode": "S1204",
    "districtName": "GWALIOR",
    "acNumber": 18,
    "acName": "BHITARWAR",
    "partNumber": 227,
    "partName": "BHITARWAR",
    "lat": 25.7926629,
    "lon": 78.08891239868532
  },
  {
    "partId": 73027,
    "stateCode": "S12",
    "stateName": "Madhya Pradesh",
    "districtCode": "S1204",
    "districtName": "GWALIOR",
    "acNumber": 18,
    "acName": "BHITARWAR",
    "partNumber": 228,
    "partName": "BHITARWAR",
    "lat": 25.7926629,
    "lon": 78.08891239868532
  },
  {
    "partId": 72939,
    "stateCode": "S12",
    "stateName": "Madhya Pradesh",
    "districtCode": "S1204",
    "districtName": "GWALIOR",
    "acNumber": 18,
    "acName": "BHITARWAR",
    "partNumber": 229,
    "partName": "BHITARWAR",
    "lat": 25.7926629,
    "lon": 78.08891239868532
  },
  {
    "partId": 73083,
    "stateCode": "S12",
    "stateName": "Madhya Pradesh",
    "districtCode": "S1204",
    "districtName": "GWALIOR",
    "acNumber": 18,
    "acName": "BHITARWAR",
    "partNumber": 230,
    "partName": "JAURA",
    "lat": 25.8050492,
    "lon": 78.0645776
  },
  {
    "partId": 72999,
    "stateCode": "S12",
    "stateName": "Madhya Pradesh",
    "districtCode": "S1204",
    "districtName": "GWALIOR",
    "acNumber": 18,
    "acName": "BHITARWAR",
    "partNumber": 231,
    "partName": "ADAMPUR",
    "lat": 25.7754767,
    "lon": 78.05029832849581
  },
  {
    "partId": 73000,
    "stateCode": "S12",
    "stateName": "Madhya Pradesh",
    "districtCode": "S1204",
    "districtName": "GWALIOR",
    "acNumber": 18,
    "acName": "BHITARWAR",
    "partNumber": 232,
    "partName": "SAHARAN",
    "lat": 25.7770735,
    "lon": 78.0818081
  },
  {
    "partId": 72963,
    "stateCode": "S12",
    "stateName": "Madhya Pradesh",
    "districtCode": "S1204",
    "districtName": "GWALIOR",
    "acNumber": 18,
    "acName": "BHITARWAR",
    "partNumber": 233,
    "partName": "DEVAGARH",
    "lat": 25.7926629,
    "lon": 78.08891239868532
  },
  {
    "partId": 72869,
    "stateCode": "S12",
    "stateName": "Madhya Pradesh",
    "districtCode": "S1204",
    "districtName": "GWALIOR",
    "acNumber": 18,
    "acName": "BHITARWAR",
    "partNumber": 234,
    "partName": "DEVGARH",
    "lat": 26.06544085,
    "lon": 78.59028976489172
  },
  {
    "partId": 73001,
    "stateCode": "S12",
    "stateName": "Madhya Pradesh",
    "districtCode": "S1204",
    "districtName": "GWALIOR",
    "acNumber": 18,
    "acName": "BHITARWAR",
    "partNumber": 235,
    "partName": "KHEDA BHITARWAR",
    "lat": 25.760687,
    "lon": 78.0426693
  },
  {
    "partId": 73002,
    "stateCode": "S12",
    "stateName": "Madhya Pradesh",
    "districtCode": "S1204",
    "districtName": "GWALIOR",
    "acNumber": 18,
    "acName": "BHITARWAR",
    "partNumber": 236,
    "partName": "KUDPAR",
    "lat": 25.7369726,
    "lon": 78.0138516
  },
  {
    "partId": 73003,
    "stateCode": "S12",
    "stateName": "Madhya Pradesh",
    "districtCode": "S1204",
    "districtName": "GWALIOR",
    "acNumber": 18,
    "acName": "BHITARWAR",
    "partNumber": 237,
    "partName": "MOHANGARH",
    "lat": 25.748771849999997,
    "lon": 78.05644933786064
  },
  {
    "partId": 72938,
    "stateCode": "S12",
    "stateName": "Madhya Pradesh",
    "districtCode": "S1204",
    "districtName": "GWALIOR",
    "acNumber": 18,
    "acName": "BHITARWAR",
    "partNumber": 238,
    "partName": "MOHANGARH",
    "lat": 25.748771849999997,
    "lon": 78.05644933786064
  },
  {
    "partId": 73004,
    "stateCode": "S12",
    "stateName": "Madhya Pradesh",
    "districtCode": "S1204",
    "districtName": "GWALIOR",
    "acNumber": 18,
    "acName": "BHITARWAR",
    "partNumber": 239,
    "partName": "KHADAUA",
    "lat": 25.7170041,
    "lon": 78.0453729
  },
  {
    "partId": 73005,
    "stateCode": "S12",
    "stateName": "Madhya Pradesh",
    "districtCode": "S1204",
    "districtName": "GWALIOR",
    "acNumber": 18,
    "acName": "BHITARWAR",
    "partNumber": 240,
    "partName": "KAIRAUA",
    "lat": 25.7926629,
    "lon": 78.08891239868532
  },
  {
    "partId": 73006,
    "stateCode": "S12",
    "stateName": "Madhya Pradesh",
    "districtCode": "S1204",
    "districtName": "GWALIOR",
    "acNumber": 18,
    "acName": "BHITARWAR",
    "partNumber": 241,
    "partName": "KAIRAUA",
    "lat": 26.0287495,
    "lon": 78.15706538653372
  },
  {
    "partId": 73102,
    "stateCode": "S12",
    "stateName": "Madhya Pradesh",
    "districtCode": "S1204",
    "districtName": "GWALIOR",
    "acNumber": 18,
    "acName": "BHITARWAR",
    "partNumber": 242,
    "partName": "GOHINDA",
    "lat": 25.76120985,
    "lon": 78.1252517111862
  },
  {
    "partId": 72937,
    "stateCode": "S12",
    "stateName": "Madhya Pradesh",
    "districtCode": "S1204",
    "districtName": "GWALIOR",
    "acNumber": 18,
    "acName": "BHITARWAR",
    "partNumber": 243,
    "partName": "GOHINDA",
    "lat": 25.76120985,
    "lon": 78.1252517111862
  },
  {
    "partId": 73007,
    "stateCode": "S12",
    "stateName": "Madhya Pradesh",
    "districtCode": "S1204",
    "districtName": "GWALIOR",
    "acNumber": 18,
    "acName": "BHITARWAR",
    "partNumber": 244,
    "partName": "GOHINDA",
    "lat": 25.76120985,
    "lon": 78.1252517111862
  },
  {
    "partId": 73008,
    "stateCode": "S12",
    "stateName": "Madhya Pradesh",
    "districtCode": "S1204",
    "districtName": "GWALIOR",
    "acNumber": 18,
    "acName": "BHITARWAR",
    "partNumber": 245,
    "partName": "SANSAN",
    "lat": 25.7926629,
    "lon": 78.08891239868532
  },
  {
    "partId": 73104,
    "stateCode": "S12",
    "stateName": "Madhya Pradesh",
    "districtCode": "S1204",
    "districtName": "GWALIOR",
    "acNumber": 18,
    "acName": "BHITARWAR",
    "partNumber": 246,
    "partName": "SANSAN",
    "lat": 26.0287495,
    "lon": 78.15706538653372
  },
  {
    "partId": 73009,
    "stateCode": "S12",
    "stateName": "Madhya Pradesh",
    "districtCode": "S1204",
    "districtName": "GWALIOR",
    "acNumber": 18,
    "acName": "BHITARWAR",
    "partNumber": 247,
    "partName": "GHATAMPUR",
    "lat": 25.8063665,
    "lon": 78.12480335727591
  },
  {
    "partId": 73061,
    "stateCode": "S12",
    "stateName": "Madhya Pradesh",
    "districtCode": "S1204",
    "districtName": "GWALIOR",
    "acNumber": 18,
    "acName": "BHITARWAR",
    "partNumber": 248,
    "partName": "SUKHANAKHIRIYA",
    "lat": 25.7926629,
    "lon": 78.08891239868532
  },
  {
    "partId": 72995,
    "stateCode": "S12",
    "stateName": "Madhya Pradesh",
    "districtCode": "S1204",
    "districtName": "GWALIOR",
    "acNumber": 18,
    "acName": "BHITARWAR",
    "partNumber": 249,
    "partName": "SANJAYNAGAR",
    "lat": 25.7926629,
    "lon": 78.08891239868532
  },
  {
    "partId": 73062,
    "stateCode": "S12",
    "stateName": "Madhya Pradesh",
    "districtCode": "S1204",
    "districtName": "GWALIOR",
    "acNumber": 18,
    "acName": "BHITARWAR",
    "partNumber": 250,
    "partName": "BARAUA",
    "lat": 26.1433031,
    "lon": 78.17612319685222
  },
  {
    "partId": 73063,
    "stateCode": "S12",
    "stateName": "Madhya Pradesh",
    "districtCode": "S1204",
    "districtName": "GWALIOR",
    "acNumber": 18,
    "acName": "BHITARWAR",
    "partNumber": 251,
    "partName": "CHHIRENTA",
    "lat": 25.7926629,
    "lon": 78.08891239868532
  },
  {
    "partId": 73064,
    "stateCode": "S12",
    "stateName": "Madhya Pradesh",
    "districtCode": "S1204",
    "districtName": "GWALIOR",
    "acNumber": 18,
    "acName": "BHITARWAR",
    "partNumber": 252,
    "partName": "SONTAKHAIRIYA",
    "lat": 25.7926629,
    "lon": 78.08891239868532
  },
  {
    "partId": 72964,
    "stateCode": "S12",
    "stateName": "Madhya Pradesh",
    "districtCode": "S1204",
    "districtName": "GWALIOR",
    "acNumber": 18,
    "acName": "BHITARWAR",
    "partNumber": 253,
    "partName": "BHANGARH",
    "lat": 25.85233,
    "lon": 78.1675744
  },
  {
    "partId": 73065,
    "stateCode": "S12",
    "stateName": "Madhya Pradesh",
    "districtCode": "S1204",
    "districtName": "GWALIOR",
    "acNumber": 18,
    "acName": "BHITARWAR",
    "partNumber": 254,
    "partName": "NIVI",
    "lat": 25.7926629,
    "lon": 78.08891239868532
  },
  {
    "partId": 73066,
    "stateCode": "S12",
    "stateName": "Madhya Pradesh",
    "districtCode": "S1204",
    "districtName": "GWALIOR",
    "acNumber": 18,
    "acName": "BHITARWAR",
    "partNumber": 255,
    "partName": "BANHAIRI",
    "lat": 25.7926629,
    "lon": 78.08891239868532
  },
  {
    "partId": 73067,
    "stateCode": "S12",
    "stateName": "Madhya Pradesh",
    "districtCode": "S1204",
    "districtName": "GWALIOR",
    "acNumber": 18,
    "acName": "BHITARWAR",
    "partNumber": 256,
    "partName": "BAGAWAI",
    "lat": 25.7926629,
    "lon": 78.08891239868532
  },
  {
    "partId": 73103,
    "stateCode": "S12",
    "stateName": "Madhya Pradesh",
    "districtCode": "S1204",
    "districtName": "GWALIOR",
    "acNumber": 18,
    "acName": "BHITARWAR",
    "partNumber": 257,
    "partName": "BAGAWAI",
    "lat": 25.7926629,
    "lon": 78.08891239868532
  },
  {
    "partId": 72934,
    "stateCode": "S12",
    "stateName": "Madhya Pradesh",
    "districtCode": "S1204",
    "districtName": "GWALIOR",
    "acNumber": 18,
    "acName": "BHITARWAR",
    "partNumber": 258,
    "partName": "BANSODI",
    "lat": 25.7926629,
    "lon": 78.08891239868532
  },
  {
    "partId": 73117,
    "stateCode": "S12",
    "stateName": "Madhya Pradesh",
    "districtCode": "S1204",
    "districtName": "GWALIOR",
    "acNumber": 18,
    "acName": "BHITARWAR",
    "partNumber": 259,
    "partName": "MACHHARIYA",
    "lat": 25.7905212,
    "lon": 78.1597638
  },
  {
    "partId": 73068,
    "stateCode": "S12",
    "stateName": "Madhya Pradesh",
    "districtCode": "S1204",
    "districtName": "GWALIOR",
    "acNumber": 18,
    "acName": "BHITARWAR",
    "partNumber": 260,
    "partName": "BAMRAUL",
    "lat": 25.7926629,
    "lon": 78.08891239868532
  },
  {
    "partId": 73069,
    "stateCode": "S12",
    "stateName": "Madhya Pradesh",
    "districtCode": "S1204",
    "districtName": "GWALIOR",
    "acNumber": 18,
    "acName": "BHITARWAR",
    "partNumber": 261,
    "partName": "BASAI",
    "lat": 26.2430466,
    "lon": 77.8232141682656
  },
  {
    "partId": 73070,
    "stateCode": "S12",
    "stateName": "Madhya Pradesh",
    "districtCode": "S1204",
    "districtName": "GWALIOR",
    "acNumber": 18,
    "acName": "BHITARWAR",
    "partNumber": 262,
    "partName": "LUHARI",
    "lat": 25.7926629,
    "lon": 78.08891239868532
  },
  {
    "partId": 73071,
    "stateCode": "S12",
    "stateName": "Madhya Pradesh",
    "districtCode": "S1204",
    "districtName": "GWALIOR",
    "acNumber": 18,
    "acName": "BHITARWAR",
    "partNumber": 263,
    "partName": "SANKHANI",
    "lat": 25.7926629,
    "lon": 78.08891239868532
  },
  {
    "partId": 73072,
    "stateCode": "S12",
    "stateName": "Madhya Pradesh",
    "districtCode": "S1204",
    "districtName": "GWALIOR",
    "acNumber": 18,
    "acName": "BHITARWAR",
    "partNumber": 264,
    "partName": "SANKHANI",
    "lat": 25.7926629,
    "lon": 78.08891239868532
  },
  {
    "partId": 72936,
    "stateCode": "S12",
    "stateName": "Madhya Pradesh",
    "districtCode": "S1204",
    "districtName": "GWALIOR",
    "acNumber": 18,
    "acName": "BHITARWAR",
    "partNumber": 265,
    "partName": "SANKHANI",
    "lat": 25.7926629,
    "lon": 78.08891239868532
  },
  {
    "partId": 73073,
    "stateCode": "S12",
    "stateName": "Madhya Pradesh",
    "districtCode": "S1204",
    "districtName": "GWALIOR",
    "acNumber": 18,
    "acName": "BHITARWAR",
    "partNumber": 266,
    "partName": "JHAOO",
    "lat": 25.7926629,
    "lon": 78.08891239868532
  },
  {
    "partId": 73074,
    "stateCode": "S12",
    "stateName": "Madhya Pradesh",
    "districtCode": "S1204",
    "districtName": "GWALIOR",
    "acNumber": 18,
    "acName": "BHITARWAR",
    "partNumber": 267,
    "partName": "PAVAYA",
    "lat": 25.7926629,
    "lon": 78.08891239868532
  },
  {
    "partId": 74001,
    "stateCode": "S12",
    "stateName": "Madhya Pradesh",
    "districtCode": "S1204",
    "districtName": "GWALIOR",
    "acNumber": 19,
    "acName": "DABRA",
    "partNumber": 1,
    "partName": "JAURASI",
    "lat": 25.89589875,
    "lon": 78.3284978727909
  },
  {
    "partId": 74208,
    "stateCode": "S12",
    "stateName": "Madhya Pradesh",
    "districtCode": "S1204",
    "districtName": "GWALIOR",
    "acNumber": 19,
    "acName": "DABRA",
    "partNumber": 2,
    "partName": "JAURASI",
    "lat": 25.89589875,
    "lon": 78.3284978727909
  },
  {
    "partId": 74002,
    "stateCode": "S12",
    "stateName": "Madhya Pradesh",
    "districtCode": "S1204",
    "districtName": "GWALIOR",
    "acNumber": 19,
    "acName": "DABRA",
    "partNumber": 3,
    "partName": "MAKODA",
    "lat": 26.0360008,
    "lon": 78.2526969
  },
  {
    "partId": 74239,
    "stateCode": "S12",
    "stateName": "Madhya Pradesh",
    "districtCode": "S1204",
    "districtName": "GWALIOR",
    "acNumber": 19,
    "acName": "DABRA",
    "partNumber": 4,
    "partName": "MAKODA",
    "lat": 26.0360008,
    "lon": 78.2526969
  },
  {
    "partId": 74003,
    "stateCode": "S12",
    "stateName": "Madhya Pradesh",
    "districtCode": "S1204",
    "districtName": "GWALIOR",
    "acNumber": 19,
    "acName": "DABRA",
    "partNumber": 5,
    "partName": "KALYANI",
    "lat": 26.01969565,
    "lon": 78.23318605877262
  },
  {
    "partId": 74004,
    "stateCode": "S12",
    "stateName": "Madhya Pradesh",
    "districtCode": "S1204",
    "districtName": "GWALIOR",
    "acNumber": 19,
    "acName": "DABRA",
    "partNumber": 6,
    "partName": "KALYANI",
    "lat": 26.01969565,
    "lon": 78.23318605877262
  },
  {
    "partId": 74005,
    "stateCode": "S12",
    "stateName": "Madhya Pradesh",
    "districtCode": "S1204",
    "districtName": "GWALIOR",
    "acNumber": 19,
    "acName": "DABRA",
    "partNumber": 7,
    "partName": "BAIRAGARH",
    "lat": 25.89589875,
    "lon": 78.3284978727909
  },
  {
    "partId": 74238,
    "stateCode": "S12",
    "stateName": "Madhya Pradesh",
    "districtCode": "S1204",
    "districtName": "GWALIOR",
    "acNumber": 19,
    "acName": "DABRA",
    "partNumber": 8,
    "partName": "BAIRAGARH",
    "lat": 25.89589875,
    "lon": 78.3284978727909
  },
  {
    "partId": 74006,
    "stateCode": "S12",
    "stateName": "Madhya Pradesh",
    "districtCode": "S1204",
    "districtName": "GWALIOR",
    "acNumber": 19,
    "acName": "DABRA",
    "partNumber": 9,
    "partName": "BILLOWA",
    "lat": 25.89589875,
    "lon": 78.3284978727909
  },
  {
    "partId": 74207,
    "stateCode": "S12",
    "stateName": "Madhya Pradesh",
    "districtCode": "S1204",
    "districtName": "GWALIOR",
    "acNumber": 19,
    "acName": "DABRA",
    "partNumber": 10,
    "partName": "BILLOWA",
    "lat": 25.89589875,
    "lon": 78.3284978727909
  },
  {
    "partId": 74007,
    "stateCode": "S12",
    "stateName": "Madhya Pradesh",
    "districtCode": "S1204",
    "districtName": "GWALIOR",
    "acNumber": 19,
    "acName": "DABRA",
    "partNumber": 11,
    "partName": "BILLOWA",
    "lat": 25.89589875,
    "lon": 78.3284978727909
  },
  {
    "partId": 74008,
    "stateCode": "S12",
    "stateName": "Madhya Pradesh",
    "districtCode": "S1204",
    "districtName": "GWALIOR",
    "acNumber": 19,
    "acName": "DABRA",
    "partNumber": 12,
    "partName": "BILLOWA",
    "lat": 25.89589875,
    "lon": 78.3284978727909
  },
  {
    "partId": 74206,
    "stateCode": "S12",
    "stateName": "Madhya Pradesh",
    "districtCode": "S1204",
    "districtName": "GWALIOR",
    "acNumber": 19,
    "acName": "DABRA",
    "partNumber": 13,
    "partName": "BILLOWA",
    "lat": 25.89589875,
    "lon": 78.3284978727909
  },
  {
    "partId": 74192,
    "stateCode": "S12",
    "stateName": "Madhya Pradesh",
    "districtCode": "S1204",
    "districtName": "GWALIOR",
    "acNumber": 19,
    "acName": "DABRA",
    "partNumber": 14,
    "partName": "BILLOWA",
    "lat": 25.89589875,
    "lon": 78.3284978727909
  },
  {
    "partId": 74009,
    "stateCode": "S12",
    "stateName": "Madhya Pradesh",
    "districtCode": "S1204",
    "districtName": "GWALIOR",
    "acNumber": 19,
    "acName": "DABRA",
    "partNumber": 15,
    "partName": "BILLOWA",
    "lat": 25.89589875,
    "lon": 78.3284978727909
  },
  {
    "partId": 74205,
    "stateCode": "S12",
    "stateName": "Madhya Pradesh",
    "districtCode": "S1204",
    "districtName": "GWALIOR",
    "acNumber": 19,
    "acName": "DABRA",
    "partNumber": 16,
    "partName": "BILLOWA",
    "lat": 25.89589875,
    "lon": 78.3284978727909
  },
  {
    "partId": 74237,
    "stateCode": "S12",
    "stateName": "Madhya Pradesh",
    "districtCode": "S1204",
    "districtName": "GWALIOR",
    "acNumber": 19,
    "acName": "DABRA",
    "partNumber": 17,
    "partName": "BILLOWA",
    "lat": 25.89589875,
    "lon": 78.3284978727909
  },
  {
    "partId": 74010,
    "stateCode": "S12",
    "stateName": "Madhya Pradesh",
    "districtCode": "S1204",
    "districtName": "GWALIOR",
    "acNumber": 19,
    "acName": "DABRA",
    "partNumber": 18,
    "partName": "BILLOWA",
    "lat": 26.0287495,
    "lon": 78.15706538653372
  },
  {
    "partId": 74236,
    "stateCode": "S12",
    "stateName": "Madhya Pradesh",
    "districtCode": "S1204",
    "districtName": "GWALIOR",
    "acNumber": 19,
    "acName": "DABRA",
    "partNumber": 19,
    "partName": "BILLOWA",
    "lat": 25.89589875,
    "lon": 78.3284978727909
  },
  {
    "partId": 74011,
    "stateCode": "S12",
    "stateName": "Madhya Pradesh",
    "districtCode": "S1204",
    "districtName": "GWALIOR",
    "acNumber": 19,
    "acName": "DABRA",
    "partNumber": 20,
    "partName": "CHIRULI",
    "lat": 25.99664455,
    "lon": 78.30554740481315
  },
  {
    "partId": 74204,
    "stateCode": "S12",
    "stateName": "Madhya Pradesh",
    "districtCode": "S1204",
    "districtName": "GWALIOR",
    "acNumber": 19,
    "acName": "DABRA",
    "partNumber": 21,
    "partName": "CHIRULI",
    "lat": 25.99664455,
    "lon": 78.30554740481315
  },
  {
    "partId": 74012,
    "stateCode": "S12",
    "stateName": "Madhya Pradesh",
    "districtCode": "S1204",
    "districtName": "GWALIOR",
    "acNumber": 19,
    "acName": "DABRA",
    "partNumber": 22,
    "partName": "UDALAPADA",
    "lat": 25.89589875,
    "lon": 78.3284978727909
  },
  {
    "partId": 74013,
    "stateCode": "S12",
    "stateName": "Madhya Pradesh",
    "districtCode": "S1204",
    "districtName": "GWALIOR",
    "acNumber": 19,
    "acName": "DABRA",
    "partNumber": 23,
    "partName": "MASUDPUR",
    "lat": 25.995381899999998,
    "lon": 78.32444094270399
  },
  {
    "partId": 74014,
    "stateCode": "S12",
    "stateName": "Madhya Pradesh",
    "districtCode": "S1204",
    "districtName": "GWALIOR",
    "acNumber": 19,
    "acName": "DABRA",
    "partNumber": 24,
    "partName": "SALAIYA",
    "lat": 25.9974728,
    "lon": 78.3460807
  },
  {
    "partId": 74015,
    "stateCode": "S12",
    "stateName": "Madhya Pradesh",
    "districtCode": "S1204",
    "districtName": "GWALIOR",
    "acNumber": 19,
    "acName": "DABRA",
    "partNumber": 25,
    "partName": "VIRAMADHANA",
    "lat": 25.89589875,
    "lon": 78.3284978727909
  },
  {
    "partId": 74016,
    "stateCode": "S12",
    "stateName": "Madhya Pradesh",
    "districtCode": "S1204",
    "districtName": "GWALIOR",
    "acNumber": 19,
    "acName": "DABRA",
    "partNumber": 26,
    "partName": "GADHI",
    "lat": 26.0052643,
    "lon": 78.367238
  },
  {
    "partId": 74203,
    "stateCode": "S12",
    "stateName": "Madhya Pradesh",
    "districtCode": "S1204",
    "districtName": "GWALIOR",
    "acNumber": 19,
    "acName": "DABRA",
    "partNumber": 27,
    "partName": "GADHI",
    "lat": 26.0052643,
    "lon": 78.367238
  },
  {
    "partId": 74017,
    "stateCode": "S12",
    "stateName": "Madhya Pradesh",
    "districtCode": "S1204",
    "districtName": "GWALIOR",
    "acNumber": 19,
    "acName": "DABRA",
    "partNumber": 28,
    "partName": "CHIRPURA",
    "lat": 26.024032599999998,
    "lon": 78.32700548639671
  },
  {
    "partId": 74018,
    "stateCode": "S12",
    "stateName": "Madhya Pradesh",
    "districtCode": "S1204",
    "districtName": "GWALIOR",
    "acNumber": 19,
    "acName": "DABRA",
    "partNumber": 29,
    "partName": "LAKHANAPURA",
    "lat": 25.89589875,
    "lon": 78.3284978727909
  },
  {
    "partId": 74019,
    "stateCode": "S12",
    "stateName": "Madhya Pradesh",
    "districtCode": "S1204",
    "districtName": "GWALIOR",
    "acNumber": 19,
    "acName": "DABRA",
    "partNumber": 30,
    "partName": "LADERA",
    "lat": 26.0504687,
    "lon": 78.33419899145821
  },
  {
    "partId": 74020,
    "stateCode": "S12",
    "stateName": "Madhya Pradesh",
    "districtCode": "S1204",
    "districtName": "GWALIOR",
    "acNumber": 19,
    "acName": "DABRA",
    "partNumber": 31,
    "partName": "IKONA",
    "lat": 26.04167795,
    "lon": 78.3828506792064
  },
  {
    "partId": 74193,
    "stateCode": "S12",
    "stateName": "Madhya Pradesh",
    "districtCode": "S1204",
    "districtName": "GWALIOR",
    "acNumber": 19,
    "acName": "DABRA",
    "partNumber": 32,
    "partName": "SUKHAPATHA",
    "lat": 25.89589875,
    "lon": 78.3284978727909
  },
  {
    "partId": 74202,
    "stateCode": "S12",
    "stateName": "Madhya Pradesh",
    "districtCode": "S1204",
    "districtName": "GWALIOR",
    "acNumber": 19,
    "acName": "DABRA",
    "partNumber": 33,
    "partName": "SUKHAPATHA",
    "lat": 25.89589875,
    "lon": 78.3284978727909
  },
  {
    "partId": 74021,
    "stateCode": "S12",
    "stateName": "Madhya Pradesh",
    "districtCode": "S1204",
    "districtName": "GWALIOR",
    "acNumber": 19,
    "acName": "DABRA",
    "partNumber": 34,
    "partName": "JANGIPUR",
    "lat": 25.9988903,
    "lon": 78.4118163
  },
  {
    "partId": 74235,
    "stateCode": "S12",
    "stateName": "Madhya Pradesh",
    "districtCode": "S1204",
    "districtName": "GWALIOR",
    "acNumber": 19,
    "acName": "DABRA",
    "partNumber": 35,
    "partName": "JANGIPUR",
    "lat": 25.9988903,
    "lon": 78.4118163
  },
  {
    "partId": 74022,
    "stateCode": "S12",
    "stateName": "Madhya Pradesh",
    "districtCode": "S1204",
    "districtName": "GWALIOR",
    "acNumber": 19,
    "acName": "DABRA",
    "partNumber": 36,
    "partName": "SAKATAPURA",
    "lat": 25.89589875,
    "lon": 78.3284978727909
  },
  {
    "partId": 74023,
    "stateCode": "S12",
    "stateName": "Madhya Pradesh",
    "districtCode": "S1204",
    "districtName": "GWALIOR",
    "acNumber": 19,
    "acName": "DABRA",
    "partNumber": 37,
    "partName": "BHAGEH",
    "lat": 26.0327617,
    "lon": 78.4314823
  },
  {
    "partId": 74024,
    "stateCode": "S12",
    "stateName": "Madhya Pradesh",
    "districtCode": "S1204",
    "districtName": "GWALIOR",
    "acNumber": 19,
    "acName": "DABRA",
    "partNumber": 38,
    "partName": "BHAGEH",
    "lat": 26.0327617,
    "lon": 78.4314823
  },
  {
    "partId": 74025,
    "stateCode": "S12",
    "stateName": "Madhya Pradesh",
    "districtCode": "S1204",
    "districtName": "GWALIOR",
    "acNumber": 19,
    "acName": "DABRA",
    "partNumber": 39,
    "partName": "LAKHANOTI",
    "lat": 25.89589875,
    "lon": 78.3284978727909
  },
  {
    "partId": 74026,
    "stateCode": "S12",
    "stateName": "Madhya Pradesh",
    "districtCode": "S1204",
    "districtName": "GWALIOR",
    "acNumber": 19,
    "acName": "DABRA",
    "partNumber": 40,
    "partName": "DHAMANIKA",
    "lat": 25.89589875,
    "lon": 78.3284978727909
  },
  {
    "partId": 74177,
    "stateCode": "S12",
    "stateName": "Madhya Pradesh",
    "districtCode": "S1204",
    "districtName": "GWALIOR",
    "acNumber": 19,
    "acName": "DABRA",
    "partNumber": 41,
    "partName": "GIJORRA",
    "lat": 25.89589875,
    "lon": 78.3284978727909
  },
  {
    "partId": 74234,
    "stateCode": "S12",
    "stateName": "Madhya Pradesh",
    "districtCode": "S1204",
    "districtName": "GWALIOR",
    "acNumber": 19,
    "acName": "DABRA",
    "partNumber": 42,
    "partName": "Gijorra",
    "lat": 25.89589875,
    "lon": 78.3284978727909
  },
  {
    "partId": 74027,
    "stateCode": "S12",
    "stateName": "Madhya Pradesh",
    "districtCode": "S1204",
    "districtName": "GWALIOR",
    "acNumber": 19,
    "acName": "DABRA",
    "partNumber": 43,
    "partName": "IKAHARA",
    "lat": 25.862701899999998,
    "lon": 78.12839814424916
  },
  {
    "partId": 74028,
    "stateCode": "S12",
    "stateName": "Madhya Pradesh",
    "districtCode": "S1204",
    "districtName": "GWALIOR",
    "acNumber": 19,
    "acName": "DABRA",
    "partNumber": 44,
    "partName": "JARAGAON",
    "lat": 25.89589875,
    "lon": 78.3284978727909
  },
  {
    "partId": 74029,
    "stateCode": "S12",
    "stateName": "Madhya Pradesh",
    "districtCode": "S1204",
    "districtName": "GWALIOR",
    "acNumber": 19,
    "acName": "DABRA",
    "partNumber": 45,
    "partName": "SHUKLAHARI",
    "lat": 26.0184208,
    "lon": 78.4921418
  },
  {
    "partId": 74233,
    "stateCode": "S12",
    "stateName": "Madhya Pradesh",
    "districtCode": "S1204",
    "districtName": "GWALIOR",
    "acNumber": 19,
    "acName": "DABRA",
    "partNumber": 46,
    "partName": "SHUKLAHARI",
    "lat": 26.0184208,
    "lon": 78.4921418
  },
  {
    "partId": 74030,
    "stateCode": "S12",
    "stateName": "Madhya Pradesh",
    "districtCode": "S1204",
    "districtName": "GWALIOR",
    "acNumber": 19,
    "acName": "DABRA",
    "partNumber": 47,
    "partName": "SEMRA",
    "lat": 26.038070249999997,
    "lon": 78.49669484234069
  },
  {
    "partId": 74194,
    "stateCode": "S12",
    "stateName": "Madhya Pradesh",
    "districtCode": "S1204",
    "districtName": "GWALIOR",
    "acNumber": 19,
    "acName": "DABRA",
    "partNumber": 48,
    "partName": "MEHAGAON",
    "lat": 26.0614863,
    "lon": 78.4913921
  },
  {
    "partId": 74201,
    "stateCode": "S12",
    "stateName": "Madhya Pradesh",
    "districtCode": "S1204",
    "districtName": "GWALIOR",
    "acNumber": 19,
    "acName": "DABRA",
    "partNumber": 49,
    "partName": "MEHAGAON",
    "lat": 25.89589875,
    "lon": 78.3284978727909
  },
  {
    "partId": 74031,
    "stateCode": "S12",
    "stateName": "Madhya Pradesh",
    "districtCode": "S1204",
    "districtName": "GWALIOR",
    "acNumber": 19,
    "acName": "DABRA",
    "partNumber": 50,
    "partName": "MEHAGAON",
    "lat": 26.0614863,
    "lon": 78.4913921
  },
  {
    "partId": 74032,
    "stateCode": "S12",
    "stateName": "Madhya Pradesh",
    "districtCode": "S1204",
    "districtName": "GWALIOR",
    "acNumber": 19,
    "acName": "DABRA",
    "partNumber": 51,
    "partName": "KITORA",
    "lat": 26.0589997,
    "lon": 78.5232353
  },
  {
    "partId": 74033,
    "stateCode": "S12",
    "stateName": "Madhya Pradesh",
    "districtCode": "S1204",
    "districtName": "GWALIOR",
    "acNumber": 19,
    "acName": "DABRA",
    "partNumber": 52,
    "partName": "KITORA",
    "lat": 26.0589997,
    "lon": 78.5232353
  },
  {
    "partId": 74034,
    "stateCode": "S12",
    "stateName": "Madhya Pradesh",
    "districtCode": "S1204",
    "districtName": "GWALIOR",
    "acNumber": 19,
    "acName": "DABRA",
    "partNumber": 53,
    "partName": "KIROL",
    "lat": 25.89589875,
    "lon": 78.3284978727909
  },
  {
    "partId": 74035,
    "stateCode": "S12",
    "stateName": "Madhya Pradesh",
    "districtCode": "S1204",
    "districtName": "GWALIOR",
    "acNumber": 19,
    "acName": "DABRA",
    "partNumber": 54,
    "partName": "DEVGARH",
    "lat": 26.06544085,
    "lon": 78.59028976489172
  },
  {
    "partId": 74232,
    "stateCode": "S12",
    "stateName": "Madhya Pradesh",
    "districtCode": "S1204",
    "districtName": "GWALIOR",
    "acNumber": 19,
    "acName": "DABRA",
    "partNumber": 55,
    "partName": "DEVGARH",
    "lat": 26.06544085,
    "lon": 78.59028976489172
  },
  {
    "partId": 74036,
    "stateCode": "S12",
    "stateName": "Madhya Pradesh",
    "districtCode": "S1204",
    "districtName": "GWALIOR",
    "acNumber": 19,
    "acName": "DABRA",
    "partNumber": 56,
    "partName": "HATHANORA",
    "lat": 25.89589875,
    "lon": 78.3284978727909
  },
  {
    "partId": 74231,
    "stateCode": "S12",
    "stateName": "Madhya Pradesh",
    "districtCode": "S1204",
    "districtName": "GWALIOR",
    "acNumber": 19,
    "acName": "DABRA",
    "partNumber": 57,
    "partName": "HATHANORA",
    "lat": 25.89589875,
    "lon": 78.3284978727909
  },
  {
    "partId": 74037,
    "stateCode": "S12",
    "stateName": "Madhya Pradesh",
    "districtCode": "S1204",
    "districtName": "GWALIOR",
    "acNumber": 19,
    "acName": "DABRA",
    "partNumber": 58,
    "partName": "SISGAON",
    "lat": 26.0219883,
    "lon": 78.53009490104955
  },
  {
    "partId": 74230,
    "stateCode": "S12",
    "stateName": "Madhya Pradesh",
    "districtCode": "S1204",
    "districtName": "GWALIOR",
    "acNumber": 19,
    "acName": "DABRA",
    "partNumber": 59,
    "partName": "SISGAON",
    "lat": 26.0287495,
    "lon": 78.15706538653372
  },
  {
    "partId": 74038,
    "stateCode": "S12",
    "stateName": "Madhya Pradesh",
    "districtCode": "S1204",
    "districtName": "GWALIOR",
    "acNumber": 19,
    "acName": "DABRA",
    "partNumber": 60,
    "partName": "SEMARI",
    "lat": 25.9919182,
    "lon": 78.5432768
  },
  {
    "partId": 74039,
    "stateCode": "S12",
    "stateName": "Madhya Pradesh",
    "districtCode": "S1204",
    "districtName": "GWALIOR",
    "acNumber": 19,
    "acName": "DABRA",
    "partNumber": 61,
    "partName": "KUMHARRA",
    "lat": 25.9968749,
    "lon": 78.5177636
  },
  {
    "partId": 74040,
    "stateCode": "S12",
    "stateName": "Madhya Pradesh",
    "districtCode": "S1204",
    "districtName": "GWALIOR",
    "acNumber": 19,
    "acName": "DABRA",
    "partNumber": 62,
    "partName": "NAHATOLI",
    "lat": 26.0016386,
    "lon": 78.4988165
  },
  {
    "partId": 74195,
    "stateCode": "S12",
    "stateName": "Madhya Pradesh",
    "districtCode": "S1204",
    "districtName": "GWALIOR",
    "acNumber": 19,
    "acName": "DABRA",
    "partNumber": 63,
    "partName": "PUTTI",
    "lat": 25.992769250000002,
    "lon": 78.46804185942645
  },
  {
    "partId": 74041,
    "stateCode": "S12",
    "stateName": "Madhya Pradesh",
    "districtCode": "S1204",
    "districtName": "GWALIOR",
    "acNumber": 19,
    "acName": "DABRA",
    "partNumber": 64,
    "partName": "KAITHODA",
    "lat": 26.0287495,
    "lon": 78.15706538653372
  },
  {
    "partId": 74042,
    "stateCode": "S12",
    "stateName": "Madhya Pradesh",
    "districtCode": "S1204",
    "districtName": "GWALIOR",
    "acNumber": 19,
    "acName": "DABRA",
    "partNumber": 65,
    "partName": "BABUPUR",
    "lat": 26.0287495,
    "lon": 78.15706538653372
  },
  {
    "partId": 74043,
    "stateCode": "S12",
    "stateName": "Madhya Pradesh",
    "districtCode": "S1204",
    "districtName": "GWALIOR",
    "acNumber": 19,
    "acName": "DABRA",
    "partNumber": 66,
    "partName": "VIRRAT",
    "lat": 25.89589875,
    "lon": 78.3284978727909
  },
  {
    "partId": 74044,
    "stateCode": "S12",
    "stateName": "Madhya Pradesh",
    "districtCode": "S1204",
    "districtName": "GWALIOR",
    "acNumber": 19,
    "acName": "DABRA",
    "partNumber": 67,
    "partName": "GATARI",
    "lat": 25.9453564,
    "lon": 78.44708309727827
  },
  {
    "partId": 74045,
    "stateCode": "S12",
    "stateName": "Madhya Pradesh",
    "districtCode": "S1204",
    "districtName": "GWALIOR",
    "acNumber": 19,
    "acName": "DABRA",
    "partNumber": 68,
    "partName": "CHHAPRA",
    "lat": 25.93710535,
    "lon": 78.46059105710623
  },
  {
    "partId": 74046,
    "stateCode": "S12",
    "stateName": "Madhya Pradesh",
    "districtCode": "S1204",
    "districtName": "GWALIOR",
    "acNumber": 19,
    "acName": "DABRA",
    "partNumber": 69,
    "partName": "SAHONA",
    "lat": 25.9665999,
    "lon": 78.42841761217053
  },
  {
    "partId": 74200,
    "stateCode": "S12",
    "stateName": "Madhya Pradesh",
    "districtCode": "S1204",
    "districtName": "GWALIOR",
    "acNumber": 19,
    "acName": "DABRA",
    "partNumber": 70,
    "partName": "SAHONA",
    "lat": 25.9665999,
    "lon": 78.42841761217053
  },