[
  {
    "partId": 32551,
    "stateCode": "S12",
    "stateName": "Madhya Pradesh",
    "districtCode": "S1222",
    "districtName": "JABALPUR",
    "acNumber": 96,
    "acName": "BARGI",
    "partNumber": 1,
    "partName": "PATHARIYA",
    "lat": 23.257006750000002,
    "lon": 79.55771498364649
  },
  {
    "partId": 32552,
    "stateCode": "S12",
    "stateName": "Madhya Pradesh",
    "districtCode": "S1222",
    "districtName": "JABALPUR",
    "acNumber": 96,
    "acName": "BARGI",
    "partNumber": 2,
    "partName": "BHAIRONGHAT",
    "lat": 23.2417508,
    "lon": 79.53462169563605
  },
  {
    "partId": 32553,
    "stateCode": "S12",
    "stateName": "Madhya Pradesh",
    "districtCode": "S1222",
    "districtName": "JABALPUR",
    "acNumber": 96,
    "acName": "BARGI",
    "partNumber": 3,
    "partName": "SAMADAPURA",
    "lat": 23.1787384,
    "lon": 79.63673335388366
  },
  {
    "partId": 47286,
    "stateCode": "S12",
    "stateName": "Madhya Pradesh",
    "districtCode": "S1222",
    "districtName": "JABALPUR",
    "acNumber": 96,
    "acName": "BARGI",
    "partNumber": 4,
    "partName": "KHAIRI",
    "lat": 23.3097788,
    "lon": 80.55396705249416
  },
  {
    "partId": 47291,
    "stateCode": "S12",
    "stateName": "Madhya Pradesh",
    "districtCode": "S1222",
    "districtName": "JABALPUR",
    "acNumber": 96,
    "acName": "BARGI",
    "partNumber": 5,
    "partName": "BAMHOURI",
    "lat": 23.1787384,
    "lon": 79.63673335388366
  },
  {
    "partId": 22683,
    "stateCode": "S12",
    "stateName": "Madhya Pradesh",
    "districtCode": "S1222",
    "districtName": "JABALPUR",
    "acNumber": 96,
    "acName": "BARGI",
    "partNumber": 6,
    "partName": "PIPARIYA KALA",
    "lat": 23.1787384,
    "lon": 79.63673335388366
  },
  {
    "partId": 48668,
    "stateCode": "S12",
    "stateName": "Madhya Pradesh",
    "districtCode": "S1222",
    "districtName": "JABALPUR",
    "acNumber": 96,
    "acName": "BARGI",
    "partNumber": 7,
    "partName": "PIPARIYA KALA",
    "lat": 23.1787384,
    "lon": 79.63673335388366
  },
  {
    "partId": 47320,
    "stateCode": "S12",
    "stateName": "Madhya Pradesh",
    "districtCode": "S1222",
    "districtName": "JABALPUR",
    "acNumber": 96,
    "acName": "BARGI",
    "partNumber": 8,
    "partName": "PIPARIYA KALA",
    "lat": 23.1787384,
    "lon": 79.63673335388366
  },
  {
    "partId": 47323,
    "stateCode": "S12",
    "stateName": "Madhya Pradesh",
    "districtCode": "S1222",
    "districtName": "JABALPUR",
    "acNumber": 96,
    "acName": "BARGI",
    "partNumber": 9,
    "partName": "HINOUTIYA",
    "lat": 23.1787384,
    "lon": 79.63673335388366
  },
  {
    "partId": 47332,
    "stateCode": "S12",
    "stateName": "Madhya Pradesh",
    "districtCode": "S1222",
    "districtName": "JABALPUR",
    "acNumber": 96,
    "acName": "BARGI",
    "partNumber": 10,
    "partName": "KUAKHEDA",
    "lat": 23.1787384,
    "lon": 79.63673335388366
  },
  {
    "partId": 52532,
    "stateCode": "S12",
    "stateName": "Madhya Pradesh",
    "districtCode": "S1222",
    "districtName": "JABALPUR",
    "acNumber": 96,
    "acName": "BARGI",
    "partNumber": 11,
    "partName": "GUDANRAI",
    "lat": 23.1787384,
    "lon": 79.63673335388366
  },
  {
    "partId": 52533,
    "stateCode": "S12",
    "stateName": "Madhya Pradesh",
    "districtCode": "S1222",
    "districtName": "JABALPUR",
    "acNumber": 96,
    "acName": "BARGI",
    "partNumber": 12,
    "partName": "JAMAKHAR",
    "lat": 23.1787384,
    "lon": 79.63673335388366
  },
  {
    "partId": 52534,
    "stateCode": "S12",
    "stateName": "Madhya Pradesh",
    "districtCode": "S1222",
    "districtName": "JABALPUR",
    "acNumber": 96,
    "acName": "BARGI",
    "partNumber": 13,
    "partName": "SALIBADA",
    "lat": 23.1787384,
    "lon": 79.63673335388366
  },
  {
    "partId": 52535,
    "stateCode": "S12",
    "stateName": "Madhya Pradesh",
    "districtCode": "S1222",
    "districtName": "JABALPUR",
    "acNumber": 96,
    "acName": "BARGI",
    "partNumber": 14,
    "partName": "GUBARAKALA",
    "lat": 23.1787384,
    "lon": 79.63673335388366
  },
  {
    "partId": 17160,
    "stateCode": "S12",
    "stateName": "Madhya Pradesh",
    "districtCode": "S1222",
    "districtName": "JABALPUR",
    "acNumber": 96,
    "acName": "BARGI",
    "partNumber": 15,
    "partName": "GUBARAKALA",
    "lat": 23.1787384,
    "lon": 79.63673335388366
  },
  {
    "partId": 52552,
    "stateCode": "S12",
    "stateName": "Madhya Pradesh",
    "districtCode": "S1222",
    "districtName": "JABALPUR",
    "acNumber": 96,
    "acName": "BARGI",
    "partNumber": 16,
    "partName": "MAILI",
    "lat": 23.21767585,
    "lon": 79.50391693493776
  },
  {
    "partId": 52556,
    "stateCode": "S12",
    "stateName": "Madhya Pradesh",
    "districtCode": "S1222",
    "districtName": "JABALPUR",
    "acNumber": 96,
    "acName": "BARGI",
    "partNumber": 17,
    "partName": "JAMUNIYA",
    "lat": 23.5054589,
    "lon": 79.82253130090504
  },
  {
    "partId": 16529,
    "stateCode": "S12",
    "stateName": "Madhya Pradesh",
    "districtCode": "S1222",
    "districtName": "JABALPUR",
    "acNumber": 96,
    "acName": "BARGI",
    "partNumber": 18,
    "partName": "BARAMHAN",
    "lat": 23.1787384,
    "lon": 79.63673335388366
  },
  {
    "partId": 17159,
    "stateCode": "S12",
    "stateName": "Madhya Pradesh",
    "districtCode": "S1222",
    "districtName": "JABALPUR",
    "acNumber": 96,
    "acName": "BARGI",
    "partNumber": 19,
    "partName": "IMLIYA",
    "lat": 23.1787384,
    "lon": 79.63673335388366
  },
  {
    "partId": 22684,
    "stateCode": "S12",
    "stateName": "Madhya Pradesh",
    "districtCode": "S1222",
    "districtName": "JABALPUR",
    "acNumber": 96,
    "acName": "BARGI",
    "partNumber": 20,
    "partName": "KUTAREE",
    "lat": 23.1787384,
    "lon": 79.63673335388366
  },
  {
    "partId": 16530,
    "stateCode": "S12",
    "stateName": "Madhya Pradesh",
    "districtCode": "S1222",
    "districtName": "JABALPUR",
    "acNumber": 96,
    "acName": "BARGI",
    "partNumber": 21,
    "partName": "BELAKHEDA",
    "lat": 23.1787384,
    "lon": 79.63673335388366
  },
  {
    "partId": 17158,
    "stateCode": "S12",
    "stateName": "Madhya Pradesh",
    "districtCode": "S1222",
    "districtName": "JABALPUR",
    "acNumber": 96,
    "acName": "BARGI",
    "partNumber": 22,
    "partName": "BELAKHEDA",
    "lat": 23.1787384,
    "lon": 79.63673335388366
  },
  {
    "partId": 16531,
    "stateCode": "S12",
    "stateName": "Madhya Pradesh",
    "districtCode": "S1222",
    "districtName": "JABALPUR",
    "acNumber": 96,
    "acName": "BARGI",
    "partNumber": 23,
    "partName": "BELAKHEDA",
    "lat": 23.1787384,
    "lon": 79.63673335388366
  },
  {
    "partId": 17157,
    "stateCode": "S12",
    "stateName": "Madhya Pradesh",
    "districtCode": "S1222",
    "districtName": "JABALPUR",
    "acNumber": 96,
    "acName": "BARGI",
    "partNumber": 24,
    "partName": "RAJOULA",
    "lat": 23.1787384,
    "lon": 79.63673335388366
  },
  {
    "partId": 16532,
    "stateCode": "S12",
    "stateName": "Madhya Pradesh",
    "districtCode": "S1222",
    "districtName": "JABALPUR",
    "acNumber": 96,
    "acName": "BARGI",
    "partNumber": 25,
    "partName": "BELAKHEDA",
    "lat": 23.1787384,
    "lon": 79.63673335388366
  },
  {
    "partId": 16533,
    "stateCode": "S12",
    "stateName": "Madhya Pradesh",
    "districtCode": "S1222",
    "districtName": "JABALPUR",
    "acNumber": 96,
    "acName": "BARGI",
    "partNumber": 26,
    "partName": "BELAKHEDA",
    "lat": 23.1787384,
    "lon": 79.63673335388366
  },
  {
    "partId": 16534,
    "stateCode": "S12",
    "stateName": "Madhya Pradesh",
    "districtCode": "S1222",
    "districtName": "JABALPUR",
    "acNumber": 96,
    "acName": "BARGI",
    "partNumber": 27,
    "partName": "BASEDI",
    "lat": 23.1787384,
    "lon": 79.63673335388366
  },
  {
    "partId": 16535,
    "stateCode": "S12",
    "stateName": "Madhya Pradesh",
    "districtCode": "S1222",
    "districtName": "JABALPUR",
    "acNumber": 96,
    "acName": "BARGI",
    "partNumber": 28,
    "partName": "MEREGANV",
    "lat": 23.1787384,
    "lon": 79.63673335388366
  },
  {
    "partId": 16536,
    "stateCode": "S12",
    "stateName": "Madhya Pradesh",
    "districtCode": "S1222",
    "districtName": "JABALPUR",
    "acNumber": 96,
    "acName": "BARGI",
    "partNumber": 29,
    "partName": "PAVALA",
    "lat": 23.1787384,
    "lon": 79.63673335388366
  },
  {
    "partId": 16537,
    "stateCode": "S12",
    "stateName": "Madhya Pradesh",
    "districtCode": "S1222",
    "districtName": "JABALPUR",
    "acNumber": 96,
    "acName": "BARGI",
    "partNumber": 30,
    "partName": "JUGAPURA",
    "lat": 23.1787384,
    "lon": 79.63673335388366
  },
  {
    "partId": 31303,
    "stateCode": "S12",
    "stateName": "Madhya Pradesh",
    "districtCode": "S1222",
    "districtName": "JABALPUR",
    "acNumber": 96,
    "acName": "BARGI",
    "partNumber": 31,
    "partName": "BELAKHEDI",
    "lat": 23.1787384,
    "lon": 79.63673335388366
  },
  {
    "partId": 31304,
    "stateCode": "S12",
    "stateName": "Madhya Pradesh",
    "districtCode": "S1222",
    "districtName": "JABALPUR",
    "acNumber": 96,
    "acName": "BARGI",
    "partNumber": 32,
    "partName": "SUNDARADEHI",
    "lat": 23.1787384,
    "lon": 79.63673335388366
  },
  {
    "partId": 7524,
    "stateCode": "S12",
    "stateName": "Madhya Pradesh",
    "districtCode": "S1222",
    "districtName": "JABALPUR",
    "acNumber": 96,
    "acName": "BARGI",
    "partNumber": 33,
    "partName": "SUNDARADEHI",
    "lat": 23.1787384,
    "lon": 79.63673335388366
  },
  {
    "partId": 7525,
    "stateCode": "S12",
    "stateName": "Madhya Pradesh",
    "districtCode": "S1222",
    "districtName": "JABALPUR",
    "acNumber": 96,
    "acName": "BARGI",
    "partNumber": 34,
    "partName": "BARABATI",
    "lat": 23.1787384,
    "lon": 79.63673335388366
  },
  {
    "partId": 7526,
    "stateCode": "S12",
    "stateName": "Madhya Pradesh",
    "districtCode": "S1222",
    "districtName": "JABALPUR",
    "acNumber": 96,
    "acName": "BARGI",
    "partNumber": 35,
    "partName": "KUDAKALA",
    "lat": 23.1787384,
    "lon": 79.63673335388366
  },
  {
    "partId": 17156,
    "stateCode": "S12",
    "stateName": "Madhya Pradesh",
    "districtCode": "S1222",
    "districtName": "JABALPUR",
    "acNumber": 96,
    "acName": "BARGI",
    "partNumber": 36,
    "partName": "KUDAKALA",
    "lat": 23.1787384,
    "lon": 79.63673335388366
  },
  {
    "partId": 7527,
    "stateCode": "S12",
    "stateName": "Madhya Pradesh",
    "districtCode": "S1222",
    "districtName": "JABALPUR",
    "acNumber": 96,
    "acName": "BARGI",
    "partNumber": 37,
    "partName": "JHALAUN",
    "lat": 23.1787384,
    "lon": 79.63673335388366
  },
  {
    "partId": 7528,
    "stateCode": "S12",
    "stateName": "Madhya Pradesh",
    "districtCode": "S1222",
    "districtName": "JABALPUR",
    "acNumber": 96,
    "acName": "BARGI",
    "partNumber": 38,
    "partName": "GOKALA",
    "lat": 23.1787384,
    "lon": 79.63673335388366
  },
  {
    "partId": 7529,
    "stateCode": "S12",
    "stateName": "Madhya Pradesh",
    "districtCode": "S1222",
    "districtName": "JABALPUR",
    "acNumber": 96,
    "acName": "BARGI",
    "partNumber": 39,
    "partName": "MATANAPUR",
    "lat": 23.1787384,
    "lon": 79.63673335388366
  },
  {
    "partId": 7530,
    "stateCode": "S12",
    "stateName": "Madhya Pradesh",
    "districtCode": "S1222",
    "districtName": "JABALPUR",
    "acNumber": 96,
    "acName": "BARGI",
    "partNumber": 40,
    "partName": "SUNACHAR",
    "lat": 23.14497515,
    "lon": 79.49495623268571
  },
  {
    "partId": 7531,
    "stateCode": "S12",
    "stateName": "Madhya Pradesh",
    "districtCode": "S1222",
    "districtName": "JABALPUR",
    "acNumber": 96,
    "acName": "BARGI",
    "partNumber": 41,
    "partName": "SUNACHAR",
    "lat": 23.14497515,
    "lon": 79.49495623268571
  },
  {
    "partId": 22685,
    "stateCode": "S12",
    "stateName": "Madhya Pradesh",
    "districtCode": "S1222",
    "districtName": "JABALPUR",
    "acNumber": 96,
    "acName": "BARGI",
    "partNumber": 42,
    "partName": "MANAKEDI",
    "lat": 23.1787384,
    "lon": 79.63673335388366
  },
  {
    "partId": 17126,
    "stateCode": "S12",
    "stateName": "Madhya Pradesh",
    "districtCode": "S1222",
    "districtName": "JABALPUR",
    "acNumber": 96,
    "acName": "BARGI",
    "partNumber": 43,
    "partName": "MANAKEDI",
    "lat": 23.1787384,
    "lon": 79.63673335388366
  },
  {
    "partId": 7532,
    "stateCode": "S12",
    "stateName": "Madhya Pradesh",
    "districtCode": "S1222",
    "districtName": "JABALPUR",
    "acNumber": 96,
    "acName": "BARGI",
    "partNumber": 44,
    "partName": "MANAKEDI",
    "lat": 23.1787384,
    "lon": 79.63673335388366
  },
  {
    "partId": 7533,
    "stateCode": "S12",
    "stateName": "Madhya Pradesh",
    "districtCode": "S1222",
    "districtName": "JABALPUR",
    "acNumber": 96,
    "acName": "BARGI",
    "partNumber": 45,
    "partName": "KUSHALI",
    "lat": 23.1787384,
    "lon": 79.63673335388366
  },
  {
    "partId": 17125,
    "stateCode": "S12",
    "stateName": "Madhya Pradesh",
    "districtCode": "S1222",
    "districtName": "JABALPUR",
    "acNumber": 96,
    "acName": "BARGI",
    "partNumber": 46,
    "partName": "KUSHALI",
    "lat": 23.1787384,
    "lon": 79.63673335388366
  },
  {
    "partId": 7534,
    "stateCode": "S12",
    "stateName": "Madhya Pradesh",
    "districtCode": "S1222",
    "districtName": "JABALPUR",
    "acNumber": 96,
    "acName": "BARGI",
    "partNumber": 47,
    "partName": "KARAHAIYA",
    "lat": 23.1787384,
    "lon": 79.63673335388366
  },
  {
    "partId": 7535,
    "stateCode": "S12",
    "stateName": "Madhya Pradesh",
    "districtCode": "S1222",
    "districtName": "JABALPUR",
    "acNumber": 96,
    "acName": "BARGI",
    "partNumber": 48,
    "partName": "CHARAGANVA (NAVINA)",
    "lat": 23.1787384,
    "lon": 79.63673335388366
  },
  {
    "partId": 7536,
    "stateCode": "S12",
    "stateName": "Madhya Pradesh",
    "districtCode": "S1222",
    "districtName": "JABALPUR",
    "acNumber": 96,
    "acName": "BARGI",
    "partNumber": 49,
    "partName": "IMALIYA",
    "lat": 23.16664505,
    "lon": 79.56729308639913
  },
  {
    "partId": 7537,
    "stateCode": "S12",
    "stateName": "Madhya Pradesh",
    "districtCode": "S1222",
    "districtName": "JABALPUR",
    "acNumber": 96,
    "acName": "BARGI",
    "partNumber": 50,
    "partName": "JHURAI PIPARIYA",
    "lat": 23.1787384,
    "lon": 79.63673335388366
  },
  {
    "partId": 7538,
    "stateCode": "S12",
    "stateName": "Madhya Pradesh",
    "districtCode": "S1222",
    "districtName": "JABALPUR",
    "acNumber": 96,
    "acName": "BARGI",
    "partNumber": 51,
    "partName": "MATAVARA",
    "lat": 23.1787384,
    "lon": 79.63673335388366
  },
  {
    "partId": 7539,
    "stateCode": "S12",
    "stateName": "Madhya Pradesh",
    "districtCode": "S1222",
    "districtName": "JABALPUR",
    "acNumber": 96,
    "acName": "BARGI",
    "partNumber": 52,
    "partName": "UMARIYA",
    "lat": 23.2224526,
    "lon": 79.74714572622719
  },
  {
    "partId": 7540,
    "stateCode": "S12",
    "stateName": "Madhya Pradesh",
    "districtCode": "S1222",
    "districtName": "JABALPUR",
    "acNumber": 96,
    "acName": "BARGI",
    "partNumber": 53,
    "partName": "RAINI",
    "lat": 23.18691045,
    "lon": 79.58641433259533
  },
  {
    "partId": 7541,
    "stateCode": "S12",
    "stateName": "Madhya Pradesh",
    "districtCode": "S1222",
    "districtName": "JABALPUR",
    "acNumber": 96,
    "acName": "BARGI",
    "partNumber": 54,
    "partName": "PHULAR",
    "lat": 23.202483899999997,
    "lon": 79.59563326212039
  },
  {
    "partId": 23517,
    "stateCode": "S12",
    "stateName": "Madhya Pradesh",
    "districtCode": "S1222",
    "districtName": "JABALPUR",
    "acNumber": 96,
    "acName": "BARGI",
    "partNumber": 55,
    "partName": "PHULAR",
    "lat": 23.202483899999997,
    "lon": 79.59563326212039
  },
  {
    "partId": 7542,
    "stateCode": "S12",
    "stateName": "Madhya Pradesh",
    "districtCode": "S1222",
    "districtName": "JABALPUR",
    "acNumber": 96,
    "acName": "BARGI",
    "partNumber": 56,
    "partName": "BHITA",
    "lat": 23.32386925,
    "lon": 79.8129651744859
  },
  {
    "partId": 7543,
    "stateCode": "S12",
    "stateName": "Madhya Pradesh",
    "districtCode": "S1222",
    "districtName": "JABALPUR",
    "acNumber": 96,
    "acName": "BARGI",
    "partNumber": 57,
    "partName": "BHITA",
    "lat": 23.32386925,
    "lon": 79.8129651744859
  },
  {
    "partId": 7544,
    "stateCode": "S12",
    "stateName": "Madhya Pradesh",
    "districtCode": "S1222",
    "districtName": "JABALPUR",
    "acNumber": 96,
    "acName": "BARGI",
    "partNumber": 58,
    "partName": "DOBHI",
    "lat": 23.195445550000002,
    "lon": 79.63719746975242
  },
  {
    "partId": 7545,
    "stateCode": "S12",
    "stateName": "Madhya Pradesh",
    "districtCode": "S1222",
    "districtName": "JABALPUR",
    "acNumber": 96,
    "acName": "BARGI",
    "partNumber": 59,
    "partName": "SURAI",
    "lat": 23.17055295,
    "lon": 79.61828266135569
  },
  {
    "partId": 23466,
    "stateCode": "S12",
    "stateName": "Madhya Pradesh",
    "districtCode": "S1222",
    "districtName": "JABALPUR",
    "acNumber": 96,
    "acName": "BARGI",
    "partNumber": 60,
    "partName": "PIPARIYA KANAVAS",
    "lat": 23.1787384,
    "lon": 79.63673335388366
  },
  {
    "partId": 17124,
    "stateCode": "S12",
    "stateName": "Madhya Pradesh",
    "districtCode": "S1222",
    "districtName": "JABALPUR",
    "acNumber": 96,
    "acName": "BARGI",
    "partNumber": 61,
    "partName": "PIPARIYA KANAVAS",
    "lat": 23.1787384,
    "lon": 79.63673335388366
  },
  {
    "partId": 17127,
    "stateCode": "S12",
    "stateName": "Madhya Pradesh",
    "districtCode": "S1222",
    "districtName": "JABALPUR",
    "acNumber": 96,
    "acName": "BARGI",
    "partNumber": 62,
    "partName": "NOUNI",
    "lat": 23.1787384,
    "lon": 79.63673335388366
  },
  {
    "partId": 17128,
    "stateCode": "S12",
    "stateName": "Madhya Pradesh",
    "districtCode": "S1222",
    "districtName": "JABALPUR",
    "acNumber": 96,
    "acName": "BARGI",
    "partNumber": 63,
    "partName": "NATAVARA",
    "lat": 23.1787384,
    "lon": 79.63673335388366
  },
  {
    "partId": 17129,
    "stateCode": "S12",
    "stateName": "Madhya Pradesh",
    "districtCode": "S1222",
    "districtName": "JABALPUR",
    "acNumber": 96,
    "acName": "BARGI",
    "partNumber": 64,
    "partName": "NATAVARA",
    "lat": 23.1787384,
    "lon": 79.63673335388366
  },
  {
    "partId": 17123,
    "stateCode": "S12",
    "stateName": "Madhya Pradesh",
    "districtCode": "S1222",
    "districtName": "JABALPUR",
    "acNumber": 96,
    "acName": "BARGI",
    "partNumber": 65,
    "partName": "NATAVARA",
    "lat": 23.1787384,
    "lon": 79.63673335388366
  },
  {
    "partId": 48674,
    "stateCode": "S12",
    "stateName": "Madhya Pradesh",
    "districtCode": "S1222",
    "districtName": "JABALPUR",
    "acNumber": 96,
    "acName": "BARGI",
    "partNumber": 66,
    "partName": "SAGADA MIHAGAVAN",
    "lat": 23.1787384,
    "lon": 79.63673335388366
  },
  {
    "partId": 47214,
    "stateCode": "S12",
    "stateName": "Madhya Pradesh",
    "districtCode": "S1222",
    "districtName": "JABALPUR",
    "acNumber": 96,
    "acName": "BARGI",
    "partNumber": 67,
    "partName": "RAMAKHIRIYA THUTHA",
    "lat": 23.1787384,
    "lon": 79.63673335388366
  },
  {
    "partId": 17122,
    "stateCode": "S12",
    "stateName": "Madhya Pradesh",
    "districtCode": "S1222",
    "districtName": "JABALPUR",
    "acNumber": 96,
    "acName": "BARGI",
    "partNumber": 68,
    "partName": "JHANSIGHAT",
    "lat": 23.1787384,
    "lon": 79.63673335388366
  },
  {
    "partId": 47215,
    "stateCode": "S12",
    "stateName": "Madhya Pradesh",
    "districtCode": "S1222",
    "districtName": "JABALPUR",
    "acNumber": 96,
    "acName": "BARGI",
    "partNumber": 69,
    "partName": "RAMAKHIRIYA",
    "lat": 23.1787384,
    "lon": 79.63673335388366
  },
  {
    "partId": 47216,
    "stateCode": "S12",
    "stateName": "Madhya Pradesh",
    "districtCode": "S1222",
    "districtName": "JABALPUR",
    "acNumber": 96,
    "acName": "BARGI",
    "partNumber": 70,
    "partName": "BILAPATHAR",
    "lat": 23.1787384,
    "lon": 79.63673335388366
  },
  {
    "partId": 47218,
    "stateCode": "S12",
    "stateName": "Madhya Pradesh",
    "districtCode": "S1222",
    "districtName": "JABALPUR",
    "acNumber": 96,
    "acName": "BARGI",
    "partNumber": 71,
    "partName": "JHOJHI",
    "lat": 23.11829525,
    "lon": 79.61578161537639
  },
  {
    "partId": 53484,
    "stateCode": "S12",
    "stateName": "Madhya Pradesh",
    "districtCode": "S1222",
    "districtName": "JABALPUR",
    "acNumber": 96,
    "acName": "BARGI",
    "partNumber": 72,
    "partName": "NIMAKHEDA",
    "lat": 23.1787384,
    "lon": 79.63673335388366
  },
  {
    "partId": 53485,
    "stateCode": "S12",
    "stateName": "Madhya Pradesh",
    "districtCode": "S1222",
    "districtName": "JABALPUR",
    "acNumber": 96,
    "acName": "BARGI",
    "partNumber": 73,
    "partName": "SHAHPURA",
    "lat": 23.1415955,
    "lon": 79.6637661783698
  },
  {
    "partId": 17121,
    "stateCode": "S12",
    "stateName": "Madhya Pradesh",
    "districtCode": "S1222",
    "districtName": "JABALPUR",
    "acNumber": 96,
    "acName": "BARGI",
    "partNumber": 74,
    "partName": "SHAHPURA",
    "lat": 23.1415955,
    "lon": 79.6637661783698
  },
  {
    "partId": 37959,
    "stateCode": "S12",
    "stateName": "Madhya Pradesh",
    "districtCode": "S1222",
    "districtName": "JABALPUR",
    "acNumber": 96,
    "acName": "BARGI",
    "partNumber": 75,
    "partName": "SHAHPURA",
    "lat": 23.1415955,
    "lon": 79.6637661783698
  },
  {
    "partId": 23515,
    "stateCode": "S12",
    "stateName": "Madhya Pradesh",
    "districtCode": "S1222",
    "districtName": "JABALPUR",
    "acNumber": 96,
    "acName": "BARGI",
    "partNumber": 76,
    "partName": "SHAHPURA",
    "lat": 23.1415955,
    "lon": 79.6637661783698
  },
  {
    "partId": 37960,
    "stateCode": "S12",
    "stateName": "Madhya Pradesh",
    "districtCode": "S1222",
    "districtName": "JABALPUR",
    "acNumber": 96,
    "acName": "BARGI",
    "partNumber": 77,
    "partName": "KAITHARA(SHAHAPURA)",
    "lat": 23.1787384,
    "lon": 79.63673335388366
  },
  {
    "partId": 53486,
    "stateCode": "S12",
    "stateName": "Madhya Pradesh",
    "districtCode": "S1222",
    "districtName": "JABALPUR",
    "acNumber": 96,
    "acName": "BARGI",
    "partNumber": 78,
    "partName": "KAITHARA(SHAHAPURA)",
    "lat": 23.1787384,
    "lon": 79.63673335388366
  },
  {
    "partId": 31314,
    "stateCode": "S12",
    "stateName": "Madhya Pradesh",
    "districtCode": "S1222",
    "districtName": "JABALPUR",
    "acNumber": 96,
    "acName": "BARGI",
    "partNumber": 79,
    "partName": "KAITHARA(SHAHAPURA)",
    "lat": 23.1787384,
    "lon": 79.63673335388366
  },
  {
    "partId": 37961,
    "stateCode": "S12",
    "stateName": "Madhya Pradesh",
    "districtCode": "S1222",
    "districtName": "JABALPUR",
    "acNumber": 96,
    "acName": "BARGI",
    "partNumber": 80,
    "partName": "BHITOUNI",
    "lat": 23.1787384,
    "lon": 79.63673335388366
  },
  {
    "partId": 17120,
    "stateCode": "S12",
    "stateName": "Madhya Pradesh",
    "districtCode": "S1222",
    "districtName": "JABALPUR",
    "acNumber": 96,
    "acName": "BARGI",
    "partNumber": 81,
    "partName": "BHITOUNI",
    "lat": 23.1787384,
    "lon": 79.63673335388366
  },
  {
    "partId": 37962,
    "stateCode": "S12",
    "stateName": "Madhya Pradesh",
    "districtCode": "S1222",
    "districtName": "JABALPUR",
    "acNumber": 96,
    "acName": "BARGI",
    "partNumber": 82,
    "partName": "VILAKHARAVA",
    "lat": 23.1787384,
    "lon": 79.63673335388366
  },
  {
    "partId": 37963,
    "stateCode": "S12",
    "stateName": "Madhya Pradesh",
    "districtCode": "S1222",
    "districtName": "JABALPUR",
    "acNumber": 96,
    "acName": "BARGI",
    "partNumber": 83,
    "partName": "SHAHPURA",
    "lat": 23.1415955,
    "lon": 79.6637661783698
  },
  {
    "partId": 52576,
    "stateCode": "S12",
    "stateName": "Madhya Pradesh",
    "districtCode": "S1222",
    "districtName": "JABALPUR",
    "acNumber": 96,
    "acName": "BARGI",
    "partNumber": 84,
    "partName": "SHAHPURA",
    "lat": 23.1415955,
    "lon": 79.6637661783698
  },
  {
    "partId": 17114,
    "stateCode": "S12",
    "stateName": "Madhya Pradesh",
    "districtCode": "S1222",
    "districtName": "JABALPUR",
    "acNumber": 96,
    "acName": "BARGI",
    "partNumber": 85,
    "partName": "SHAHPURA",
    "lat": 23.1415955,
    "lon": 79.6637661783698
  },
  {
    "partId": 17136,
    "stateCode": "S12",
    "stateName": "Madhya Pradesh",
    "districtCode": "S1222",
    "districtName": "JABALPUR",
    "acNumber": 96,
    "acName": "BARGI",
    "partNumber": 86,
    "partName": "SHAHPURA",
    "lat": 23.1415955,
    "lon": 79.6637661783698
  },
  {
    "partId": 23516,
    "stateCode": "S12",
    "stateName": "Madhya Pradesh",
    "districtCode": "S1222",
    "districtName": "JABALPUR",
    "acNumber": 96,
    "acName": "BARGI",
    "partNumber": 87,
    "partName": "SHAHPURA",
    "lat": 23.1415955,
    "lon": 79.6637661783698
  },
  {
    "partId": 17137,
    "stateCode": "S12",
    "stateName": "Madhya Pradesh",
    "districtCode": "S1222",
    "districtName": "JABALPUR",
    "acNumber": 96,
    "acName": "BARGI",
    "partNumber": 88,
    "partName": "GHUNSOUR",
    "lat": 23.1787384,
    "lon": 79.63673335388366
  },
  {
    "partId": 17113,
    "stateCode": "S12",
    "stateName": "Madhya Pradesh",
    "districtCode": "S1222",
    "districtName": "JABALPUR",
    "acNumber": 96,
    "acName": "BARGI",
    "partNumber": 89,
    "partName": "GHUNSOUR",
    "lat": 23.1787384,
    "lon": 79.63673335388366
  },
  {
    "partId": 16493,
    "stateCode": "S12",
    "stateName": "Madhya Pradesh",
    "districtCode": "S1222",
    "districtName": "JABALPUR",
    "acNumber": 96,
    "acName": "BARGI",
    "partNumber": 90,
    "partName": "DIGHORI",
    "lat": 23.1669318,
    "lon": 79.70771159541351
  },
  {
    "partId": 17138,
    "stateCode": "S12",
    "stateName": "Madhya Pradesh",
    "districtCode": "S1222",
    "districtName": "JABALPUR",
    "acNumber": 96,
    "acName": "BARGI",
    "partNumber": 91,
    "partName": "JAMUNIYA",
    "lat": 23.5054589,
    "lon": 79.82253130090504
  },
  {
    "partId": 17139,
    "stateCode": "S12",
    "stateName": "Madhya Pradesh",
    "districtCode": "S1222",
    "districtName": "JABALPUR",
    "acNumber": 96,
    "acName": "BARGI",
    "partNumber": 92,
    "partName": "GADARAPIPARIYA",
    "lat": 23.1787384,
    "lon": 79.63673335388366
  },
  {
    "partId": 17112,
    "stateCode": "S12",
    "stateName": "Madhya Pradesh",
    "districtCode": "S1222",
    "districtName": "JABALPUR",
    "acNumber": 96,
    "acName": "BARGI",
    "partNumber": 93,
    "partName": "GADARAPIPARIYA",
    "lat": 23.1787384,
    "lon": 79.63673335388366
  },
  {
    "partId": 17140,
    "stateCode": "S12",
    "stateName": "Madhya Pradesh",
    "districtCode": "S1222",
    "districtName": "JABALPUR",
    "acNumber": 96,
    "acName": "BARGI",
    "partNumber": 94,
    "partName": "KATANGI",
    "lat": 23.1791967,
    "lon": 79.76422795793664
  },
  {
    "partId": 17141,
    "stateCode": "S12",
    "stateName": "Madhya Pradesh",
    "districtCode": "S1222",
    "districtName": "JABALPUR",
    "acNumber": 96,
    "acName": "BARGI",
    "partNumber": 95,
    "partName": "KAITHARA",
    "lat": 23.2230231,
    "lon": 79.9825641560163
  },
  {
    "partId": 23518,
    "stateCode": "S12",
    "stateName": "Madhya Pradesh",
    "districtCode": "S1222",
    "districtName": "JABALPUR",
    "acNumber": 96,
    "acName": "BARGI",
    "partNumber": 96,
    "partName": "MAJITHA",
    "lat": 23.174519666044777,
    "lon": 79.686981294013
  },
  {
    "partId": 17142,
    "stateCode": "S12",
    "stateName": "Madhya Pradesh",
    "districtCode": "S1222",
    "districtName": "JABALPUR",
    "acNumber": 96,
    "acName": "BARGI",
    "partNumber": 97,
    "partName": "SIHOUDA",
    "lat": 23.1787384,
    "lon": 79.63673335388366
  },
  {
    "partId": 17119,
    "stateCode": "S12",
    "stateName": "Madhya Pradesh",
    "districtCode": "S1222",
    "districtName": "JABALPUR",
    "acNumber": 96,
    "acName": "BARGI",
    "partNumber": 98,
    "partName": "SIHOUDA",
    "lat": 23.174519666044777,
    "lon": 79.686981294013
  },
  {
    "partId": 17143,
    "stateCode": "S12",
    "stateName": "Madhya Pradesh",
    "districtCode": "S1222",
    "districtName": "JABALPUR",
    "acNumber": 96,
    "acName": "BARGI",
    "partNumber": 99,
    "partName": "BILAKHARAVA",
    "lat": 23.1787384,
    "lon": 79.63673335388366
  },
  {
    "partId": 17111,
    "stateCode": "S12",
    "stateName": "Madhya Pradesh",
    "districtCode": "S1222",
    "districtName": "JABALPUR",
    "acNumber": 96,
    "acName": "BARGI",
    "partNumber": 100,
    "partName": "BILAKHARAVA",
    "lat": 23.174519666044777,
    "lon": 79.686981294013
  },
  {
    "partId": 17144,
    "stateCode": "S12",
    "stateName": "Madhya Pradesh",
    "districtCode": "S1222",
    "districtName": "JABALPUR",
    "acNumber": 96,
    "acName": "BARGI",
    "partNumber": 101,
    "partName": "KUDAN",
    "lat": 23.1787384,
    "lon": 79.63673335388366
  },
  {
    "partId": 17131,
    "stateCode": "S12",
    "stateName": "Madhya Pradesh",
    "districtCode": "S1222",
    "districtName": "JABALPUR",
    "acNumber": 96,
    "acName": "BARGI",
    "partNumber": 102,
    "partName": "KUDAN",
    "lat": 23.1787384,
    "lon": 79.63673335388366
  },
  {
    "partId": 53487,
    "stateCode": "S12",
    "stateName": "Madhya Pradesh",
    "districtCode": "S1222",
    "districtName": "JABALPUR",
    "acNumber": 96,
    "acName": "BARGI",
    "partNumber": 103,
    "partName": "BILHA",
    "lat": 23.51040005,
    "lon": 80.14582574378333
  },
  {
    "partId": 17130,
    "stateCode": "S12",
    "stateName": "Madhya Pradesh",
    "districtCode": "S1222",
    "districtName": "JABALPUR",
    "acNumber": 96,
    "acName": "BARGI",
    "partNumber": 104,
    "partName": "BILHA",
    "lat": 23.51040005,
    "lon": 80.14582574378333
  },
  {
    "partId": 53488,
    "stateCode": "S12",
    "stateName": "Madhya Pradesh",
    "districtCode": "S1222",
    "districtName": "JABALPUR",
    "acNumber": 96,
    "acName": "BARGI",
    "partNumber": 105,
    "partName": "SAHAJAPUR",
    "lat": 23.1787384,
    "lon": 79.63673335388366
  },
  {
    "partId": 53489,
    "stateCode": "S12",
    "stateName": "Madhya Pradesh",
    "districtCode": "S1222",
    "districtName": "JABALPUR",
    "acNumber": 96,
    "acName": "BARGI",
    "partNumber": 106,
    "partName": "SAHAJAPUR",
    "lat": 23.1787384,
    "lon": 79.63673335388366
  },
  {
    "partId": 17118,
    "stateCode": "S12",
    "stateName": "Madhya Pradesh",
    "districtCode": "S1222",
    "districtName": "JABALPUR",
    "acNumber": 96,
    "acName": "BARGI",
    "partNumber": 107,
    "partName": "SAHAJAPUR",
    "lat": 23.174519666044777,
    "lon": 79.686981294013
  },
  {
    "partId": 53490,
    "stateCode": "S12",
    "stateName": "Madhya Pradesh",
    "districtCode": "S1222",
    "districtName": "JABALPUR",
    "acNumber": 96,
    "acName": "BARGI",
    "partNumber": 108,
    "partName": "KHAIRI",
    "lat": 23.3097788,
    "lon": 80.55396705249416
  },
  {
    "partId": 53491,
    "stateCode": "S12",
    "stateName": "Madhya Pradesh",
    "districtCode": "S1222",
    "districtName": "JABALPUR",
    "acNumber": 96,
    "acName": "BARGI",
    "partNumber": 109,
    "partName": "HIRAPURABANDHA",
    "lat": 23.1787384,
    "lon": 79.63673335388366
  },
  {
    "partId": 53492,
    "stateCode": "S12",
    "stateName": "Madhya Pradesh",
    "districtCode": "S1222",
    "districtName": "JABALPUR",
    "acNumber": 96,
    "acName": "BARGI",
    "partNumber": 110,
    "partName": "DHARAMAPURA",
    "lat": 23.1787384,
    "lon": 79.63673335388366
  },
  {
    "partId": 53507,
    "stateCode": "S12",
    "stateName": "Madhya Pradesh",
    "districtCode": "S1222",
    "districtName": "JABALPUR",
    "acNumber": 96,
    "acName": "BARGI",
    "partNumber": 111,
    "partName": "BADAKHERA",
    "lat": 23.1787384,
    "lon": 79.63673335388366
  },
  {
    "partId": 53508,
    "stateCode": "S12",
    "stateName": "Madhya Pradesh",
    "districtCode": "S1222",
    "districtName": "JABALPUR",
    "acNumber": 96,
    "acName": "BARGI",
    "partNumber": 112,
    "partName": "KISAROUD",
    "lat": 23.1787384,
    "lon": 79.63673335388366
  },
  {
    "partId": 17117,
    "stateCode": "S12",
    "stateName": "Madhya Pradesh",
    "districtCode": "S1222",
    "districtName": "JABALPUR",
    "acNumber": 96,
    "acName": "BARGI",
    "partNumber": 113,
    "partName": "TIPRA",
    "lat": 23.17485545,
    "lon": 79.71788856122355
  },
  {
    "partId": 53509,
    "stateCode": "S12",
    "stateName": "Madhya Pradesh",
    "districtCode": "S1222",
    "districtName": "JABALPUR",
    "acNumber": 96,
    "acName": "BARGI",
    "partNumber": 114,
    "partName": "MAGARAMUHA",
    "lat": 23.1787384,
    "lon": 79.63673335388366
  },
  {
    "partId": 23519,
    "stateCode": "S12",
    "stateName": "Madhya Pradesh",
    "districtCode": "S1222",
    "districtName": "JABALPUR",
    "acNumber": 96,
    "acName": "BARGI",
    "partNumber": 115,
    "partName": "MAGARAMUHA",
    "lat": 23.1787384,
    "lon": 79.63673335388366
  },
  {
    "partId": 17116,
    "stateCode": "S12",
    "stateName": "Madhya Pradesh",
    "districtCode": "S1222",
    "districtName": "JABALPUR",
    "acNumber": 96,
    "acName": "BARGI",
    "partNumber": 116,
    "partName": "BIJNA",
    "lat": 23.0029951,
    "lon": 79.66534495703834
  },
  {
    "partId": 53510,
    "stateCode": "S12",
    "stateName": "Madhya Pradesh",
    "districtCode": "S1222",
    "districtName": "JABALPUR",
    "acNumber": 96,
    "acName": "BARGI",
    "partNumber": 117,
    "partName": "PIPARIYA RAMAGHAT",
    "lat": 23.1787384,
    "lon": 79.63673335388366
  },
  {
    "partId": 53511,
    "stateCode": "S12",
    "stateName": "Madhya Pradesh",
    "districtCode": "S1222",
    "districtName": "JABALPUR",
    "acNumber": 96,
    "acName": "BARGI",
    "partNumber": 118,
    "partName": "BHAMAKI",
    "lat": 23.1787384,
    "lon": 79.63673335388366
  },
  {
    "partId": 37958,
    "stateCode": "S12",
    "stateName": "Madhya Pradesh",
    "districtCode": "S1222",
    "districtName": "JABALPUR",
    "acNumber": 96,
    "acName": "BARGI",
    "partNumber": 119,
    "partName": "BHAMAKI",
    "lat": 23.1787384,
    "lon": 79.63673335388366
  },
  {
    "partId": 53500,
    "stateCode": "S12",
    "stateName": "Madhya Pradesh",
    "districtCode": "S1222",
    "districtName": "JABALPUR",
    "acNumber": 96,
    "acName": "BARGI",
    "partNumber": 120,
    "partName": "BHAMAKI",
    "lat": 23.1787384,
    "lon": 79.63673335388366
  },
  {
    "partId": 54400,
    "stateCode": "S12",
    "stateName": "Madhya Pradesh",
    "districtCode": "S1222",
    "districtName": "JABALPUR",
    "acNumber": 96,
    "acName": "BARGI",
    "partNumber": 121,
    "partName": "CHHAPARAT",
    "lat": 23.1787384,
    "lon": 79.63673335388366
  },
  {
    "partId": 32550,
    "stateCode": "S12",
    "stateName": "Madhya Pradesh",
    "districtCode": "S1222",
    "districtName": "JABALPUR",
    "acNumber": 96,
    "acName": "BARGI",
    "partNumber": 122,
    "partName": "SHEETALPUR",
    "lat": 23.1787384,
    "lon": 79.63673335388366
  },
  {
    "partId": 53499,
    "stateCode": "S12",
    "stateName": "Madhya Pradesh",
    "districtCode": "S1222",
    "districtName": "JABALPUR",
    "acNumber": 96,
    "acName": "BARGI",
    "partNumber": 123,
    "partName": "KULON",
    "lat": 23.11391105,
    "lon": 79.69692875317538
  },
  {
    "partId": 54401,
    "stateCode": "S12",
    "stateName": "Madhya Pradesh",
    "districtCode": "S1222",
    "districtName": "JABALPUR",
    "acNumber": 96,
    "acName": "BARGI",
    "partNumber": 124,
    "partName": "MALAKACHHAR",
    "lat": 23.174519666044777,
    "lon": 79.686981294013
  },
  {
    "partId": 37972,
    "stateCode": "S12",
    "stateName": "Madhya Pradesh",
    "districtCode": "S1222",
    "districtName": "JABALPUR",
    "acNumber": 96,
    "acName": "BARGI",
    "partNumber": 125,
    "partName": "MAHAGAVAN",
    "lat": 23.1787384,
    "lon": 79.63673335388366
  },
  {
    "partId": 47211,
    "stateCode": "S12",
    "stateName": "Madhya Pradesh",
    "districtCode": "S1222",
    "districtName": "JABALPUR",
    "acNumber": 96,
    "acName": "BARGI",
    "partNumber": 126,
    "partName": "BHADAPURA",
    "lat": 23.1787384,
    "lon": 79.63673335388366
  },
  {
    "partId": 31338,
    "stateCode": "S12",
    "stateName": "Madhya Pradesh",
    "districtCode": "S1222",
    "districtName": "JABALPUR",
    "acNumber": 96,
    "acName": "BARGI",
    "partNumber": 127,
    "partName": "CHARAGAVAN",
    "lat": 23.1787384,
    "lon": 79.63673335388366
  },
  {
    "partId": 17115,
    "stateCode": "S12",
    "stateName": "Madhya Pradesh",
    "districtCode": "S1222",
    "districtName": "JABALPUR",
    "acNumber": 96,
    "acName": "BARGI",
    "partNumber": 128,
    "partName": "CHARAGAVAN",
    "lat": 23.1787384,
    "lon": 79.63673335388366
  },
  {
    "partId": 17132,
    "stateCode": "S12",
    "stateName": "Madhya Pradesh",
    "districtCode": "S1222",
    "districtName": "JABALPUR",
    "acNumber": 96,
    "acName": "BARGI",
    "partNumber": 129,
    "partName": "CHARAGAVAN",
    "lat": 23.1787384,
    "lon": 79.63673335388366
  },
  {
    "partId": 17133,
    "stateCode": "S12",
    "stateName": "Madhya Pradesh",
    "districtCode": "S1222",
    "districtName": "JABALPUR",
    "acNumber": 96,
    "acName": "BARGI",
    "partNumber": 130,
    "partName": "BHIKAMAPUR",
    "lat": 23.1787384,
    "lon": 79.63673335388366
  },
  {
    "partId": 17134,
    "stateCode": "S12",
    "stateName": "Madhya Pradesh",
    "districtCode": "S1222",
    "districtName": "JABALPUR",
    "acNumber": 96,
    "acName": "BARGI",
    "partNumber": 131,
    "partName": "BAMBABARI",
    "lat": 23.1787384,
    "lon": 79.63673335388366
  },
  {
    "partId": 23520,
    "stateCode": "S12",
    "stateName": "Madhya Pradesh",
    "districtCode": "S1222",
    "districtName": "JABALPUR",
    "acNumber": 96,
    "acName": "BARGI",
    "partNumber": 132,
    "partName": "DEVARI",
    "lat": 23.174519666044777,
    "lon": 79.686981294013
  },
  {
    "partId": 17135,
    "stateCode": "S12",
    "stateName": "Madhya Pradesh",
    "districtCode": "S1222",
    "districtName": "JABALPUR",
    "acNumber": 96,
    "acName": "BARGI",
    "partNumber": 133,
    "partName": "BADHAIYAKHEDA",
    "lat": 23.1787384,
    "lon": 79.63673335388366
  },
  {
    "partId": 7507,
    "stateCode": "S12",
    "stateName": "Madhya Pradesh",
    "districtCode": "S1222",
    "districtName": "JABALPUR",
    "acNumber": 96,
    "acName": "BARGI",
    "partNumber": 134,
    "partName": "SUNAVARA",
    "lat": 23.1787384,
    "lon": 79.63673335388366
  },
  {
    "partId": 7508,
    "stateCode": "S12",
    "stateName": "Madhya Pradesh",
    "districtCode": "S1222",
    "districtName": "JABALPUR",
    "acNumber": 96,
    "acName": "BARGI",
    "partNumber": 135,
    "partName": "SUNAVARA",
    "lat": 23.1787384,
    "lon": 79.63673335388366
  },
  {
    "partId": 7509,
    "stateCode": "S12",
    "stateName": "Madhya Pradesh",
    "districtCode": "S1222",
    "districtName": "JABALPUR",
    "acNumber": 96,
    "acName": "BARGI",
    "partNumber": 136,
    "partName": "VIJANA",
    "lat": 23.1787384,
    "lon": 79.63673335388366
  },
  {
    "partId": 16528,
    "stateCode": "S12",
    "stateName": "Madhya Pradesh",
    "districtCode": "S1222",
    "districtName": "JABALPUR",
    "acNumber": 96,
    "acName": "BARGI",
    "partNumber": 137,
    "partName": "KOHLA",
    "lat": 23.1787384,
    "lon": 79.63673335388366
  },
  {
    "partId": 7510,
    "stateCode": "S12",
    "stateName": "Madhya Pradesh",
    "districtCode": "S1222",
    "districtName": "JABALPUR",
    "acNumber": 96,
    "acName": "BARGI",
    "partNumber": 138,
    "partName": "KULOUN",
    "lat": 23.1787384,
    "lon": 79.63673335388366
  },
  {
    "partId": 7511,
    "stateCode": "S12",
    "stateName": "Madhya Pradesh",
    "districtCode": "S1222",
    "districtName": "JABALPUR",
    "acNumber": 96,
    "acName": "BARGI",
    "partNumber": 139,
    "partName": "JAMUNIYA",
    "lat": 23.5054589,
    "lon": 79.82253130090504
  },
  {
    "partId": 16527,
    "stateCode": "S12",
    "stateName": "Madhya Pradesh",
    "districtCode": "S1222",
    "districtName": "JABALPUR",
    "acNumber": 96,
    "acName": "BARGI",
    "partNumber": 140,
    "partName": "JAMUNIYA",
    "lat": 23.5054589,
    "lon": 79.82253130090504
  },
  {
    "partId": 7512,
    "stateCode": "S12",
    "stateName": "Madhya Pradesh",
    "districtCode": "S1222",
    "districtName": "JABALPUR",
    "acNumber": 96,
    "acName": "BARGI",
    "partNumber": 141,
    "partName": "GHUGHARI",
    "lat": 23.174519666044777,
    "lon": 79.686981294013
  },
  {
    "partId": 7513,
    "stateCode": "S12",
    "stateName": "Madhya Pradesh",
    "districtCode": "S1222",
    "districtName": "JABALPUR",
    "acNumber": 96,
    "acName": "BARGI",
    "partNumber": 142,
    "partName": "BIJOURI",
    "lat": 23.1787384,
    "lon": 79.63673335388366
  },
  {
    "partId": 16526,
    "stateCode": "S12",
    "stateName": "Madhya Pradesh",
    "districtCode": "S1222",
    "districtName": "JABALPUR",
    "acNumber": 96,
    "acName": "BARGI",
    "partNumber": 143,
    "partName": "BIJOURI",
    "lat": 23.1787384,
    "lon": 79.63673335388366
  },
  {
    "partId": 23521,
    "stateCode": "S12",
    "stateName": "Madhya Pradesh",
    "districtCode": "S1222",
    "districtName": "JABALPUR",
    "acNumber": 96,
    "acName": "BARGI",
    "partNumber": 144,
    "partName": "BIJOURI",
    "lat": 23.1787384,
    "lon": 79.63673335388366
  },
  {
    "partId": 7514,
    "stateCode": "S12",
    "stateName": "Madhya Pradesh",
    "districtCode": "S1222",
    "districtName": "JABALPUR",
    "acNumber": 96,
    "acName": "BARGI",
    "partNumber": 145,
    "partName": "NUNAPUR",
    "lat": 23.1787384,
    "lon": 79.63673335388366
  },
  {
    "partId": 7515,
    "stateCode": "S12",
    "stateName": "Madhya Pradesh",
    "districtCode": "S1222",
    "districtName": "JABALPUR",
    "acNumber": 96,
    "acName": "BARGI",
    "partNumber": 146,
    "partName": "SAGADA",
    "lat": 23.1787384,
    "lon": 79.63673335388366
  },
  {
    "partId": 7516,
    "stateCode": "S12",
    "stateName": "Madhya Pradesh",
    "districtCode": "S1222",
    "districtName": "JABALPUR",
    "acNumber": 96,
    "acName": "BARGI",
    "partNumber": 147,
    "partName": "DHARAMAPURA",
    "lat": 23.1787384,
    "lon": 79.63673335388366
  },
  {
    "partId": 7517,
    "stateCode": "S12",
    "stateName": "Madhya Pradesh",
    "districtCode": "S1222",
    "districtName": "JABALPUR",
    "acNumber": 96,
    "acName": "BARGI",
    "partNumber": 148,
    "partName": "BAGARAI",
    "lat": 23.1787384,
    "lon": 79.63673335388366
  },
  {
    "partId": 17151,
    "stateCode": "S12",
    "stateName": "Madhya Pradesh",
    "districtCode": "S1222",
    "districtName": "JABALPUR",
    "acNumber": 96,
    "acName": "BARGI",
    "partNumber": 149,
    "partName": "KHULARI",
    "lat": 23.1787384,
    "lon": 79.63673335388366
  },
  {
    "partId": 17152,
    "stateCode": "S12",
    "stateName": "Madhya Pradesh",
    "districtCode": "S1222",
    "districtName": "JABALPUR",
    "acNumber": 96,
    "acName": "BARGI",
    "partNumber": 150,
    "partName": "DUDAVARA",
    "lat": 23.174519666044777,
    "lon": 79.686981294013
  },
  {
    "partId": 17153,
    "stateCode": "S12",
    "stateName": "Madhya Pradesh",
    "districtCode": "S1222",
    "districtName": "JABALPUR",
    "acNumber": 96,
    "acName": "BARGI",
    "partNumber": 151,
    "partName": "LALAPUR",
    "lat": 23.1787384,
    "lon": 79.63673335388366
  },
  {
    "partId": 17154,
    "stateCode": "S12",
    "stateName": "Madhya Pradesh",
    "districtCode": "S1222",
    "districtName": "JABALPUR",
    "acNumber": 96,
    "acName": "BARGI",
    "partNumber": 152,
    "partName": "DEVARI",
    "lat": 23.1787384,
    "lon": 79.63673335388366
  },
  {
    "partId": 17155,
    "stateCode": "S12",
    "stateName": "Madhya Pradesh",
    "districtCode": "S1222",
    "districtName": "JABALPUR",
    "acNumber": 96,
    "acName": "BARGI",
    "partNumber": 153,
    "partName": "BARAKHEDA",
    "lat": 23.1787384,
    "lon": 79.63673335388366
  },
  {
    "partId": 17145,
    "stateCode": "S12",
    "stateName": "Madhya Pradesh",
    "districtCode": "S1222",
    "districtName": "JABALPUR",
    "acNumber": 96,
    "acName": "BARGI",
    "partNumber": 154,
    "partName": "GANGAI",
    "lat": 23.085163,
    "lon": 79.80494153370128
  },
  {
    "partId": 37955,
    "stateCode": "S12",
    "stateName": "Madhya Pradesh",
    "districtCode": "S1222",
    "districtName": "JABALPUR",
    "acNumber": 96,
    "acName": "BARGI",
    "partNumber": 155,
    "partName": "BHIDAKI",
    "lat": 23.1787384,
    "lon": 79.63673335388366
  },
  {
    "partId": 17146,
    "stateCode": "S12",
    "stateName": "Madhya Pradesh",
    "districtCode": "S1222",
    "districtName": "JABALPUR",
    "acNumber": 96,
    "acName": "BARGI",
    "partNumber": 156,
    "partName": "SEMARA",
    "lat": 23.1787384,
    "lon": 79.63673335388366
  },
  {
    "partId": 17147,
    "stateCode": "S12",
    "stateName": "Madhya Pradesh",
    "districtCode": "S1222",
    "districtName": "JABALPUR",
    "acNumber": 96,
    "acName": "BARGI",
    "partNumber": 157,
    "partName": "ANDIYA",
    "lat": 23.1787384,
    "lon": 79.63673335388366
  },
  {
    "partId": 17148,
    "stateCode": "S12",
    "stateName": "Madhya Pradesh",
    "districtCode": "S1222",
    "districtName": "JABALPUR",
    "acNumber": 96,
    "acName": "BARGI",
    "partNumber": 158,
    "partName": "NICHI",
    "lat": 23.18817035,
    "lon": 79.80698834136703
  },
  {
    "partId": 17149,
    "stateCode": "S12",
    "stateName": "Madhya Pradesh",
    "districtCode": "S1222",
    "districtName": "JABALPUR",
    "acNumber": 96,
    "acName": "BARGI",
    "partNumber": 159,
    "partName": "KOHALI",
    "lat": 23.1787384,
    "lon": 79.63673335388366
  },
  {
    "partId": 17150,
    "stateCode": "S12",
    "stateName": "Madhya Pradesh",
    "districtCode": "S1222",
    "districtName": "JABALPUR",
    "acNumber": 96,
    "acName": "BARGI",
    "partNumber": 160,
    "partName": "BADIVADA",
    "lat": 23.1787384,
    "lon": 79.63673335388366
  },
  {
    "partId": 31315,
    "stateCode": "S12",
    "stateName": "Madhya Pradesh",
    "districtCode": "S1222",
    "districtName": "JABALPUR",
    "acNumber": 96,
    "acName": "BARGI",
    "partNumber": 161,
    "partName": "URRAM",
    "lat": 22.99691445,
    "lon": 79.70198796964314
  },
  {
    "partId": 31316,
    "stateCode": "S12",
    "stateName": "Madhya Pradesh",
    "districtCode": "S1222",
    "districtName": "JABALPUR",
    "acNumber": 96,
    "acName": "BARGI",
    "partNumber": 162,
    "partName": "DAPAKIYA",
    "lat": 23.1787384,
    "lon": 79.63673335388366
  },
  {
    "partId": 31317,
    "stateCode": "S12",
    "stateName": "Madhya Pradesh",
    "districtCode": "S1222",
    "districtName": "JABALPUR",
    "acNumber": 96,
    "acName": "BARGI",
    "partNumber": 163,
    "partName": "PATICHARAGANVA",
    "lat": 23.1787384,
    "lon": 79.63673335388366
  },
  {
    "partId": 31318,
    "stateCode": "S12",
    "stateName": "Madhya Pradesh",
    "districtCode": "S1222",
    "districtName": "JABALPUR",
    "acNumber": 96,
    "acName": "BARGI",
    "partNumber": 164,
    "partName": "BHARATAPUR",
    "lat": 23.1787384,
    "lon": 79.63673335388366
  },
  {
    "partId": 37964,
    "stateCode": "S12",
    "stateName": "Madhya Pradesh",
    "districtCode": "S1222",
    "districtName": "JABALPUR",
    "acNumber": 96,
    "acName": "BARGI",
    "partNumber": 165,
    "partName": "SUKHA",
    "lat": 23.21169845,
    "lon": 79.86794933426668
  },
  {
    "partId": 37965,
    "stateCode": "S12",
    "stateName": "Madhya Pradesh",
    "districtCode": "S1222",
    "districtName": "JABALPUR",
    "acNumber": 96,
    "acName": "BARGI",
    "partNumber": 166,
    "partName": "DAMAN KHAMHARIYA",
    "lat": 23.1787384,
    "lon": 79.63673335388366
  },
  {
    "partId": 16525,
    "stateCode": "S12",
    "stateName": "Madhya Pradesh",
    "districtCode": "S1222",
    "districtName": "JABALPUR",
    "acNumber": 96,
    "acName": "BARGI",
    "partNumber": 167,
    "partName": "KATORI",
    "lat": 23.1787384,
    "lon": 79.63673335388366
  },
  {
    "partId": 37966,
    "stateCode": "S12",
    "stateName": "Madhya Pradesh",
    "districtCode": "S1222",
    "districtName": "JABALPUR",
    "acNumber": 96,
    "acName": "BARGI",
    "partNumber": 168,
    "partName": "PIPARIYA (BENISINGH)",
    "lat": 23.1787384,
    "lon": 79.63673335388366
  },
  {
    "partId": 16524,
    "stateCode": "S12",
    "stateName": "Madhya Pradesh",
    "districtCode": "S1222",
    "districtName": "JABALPUR",
    "acNumber": 96,
    "acName": "BARGI",
    "partNumber": 169,
    "partName": "KALAPATHA",
    "lat": 22.93966645,
    "lon": 79.67800956034415
  },
  {
    "partId": 37956,
    "stateCode": "S12",
    "stateName": "Madhya Pradesh",
    "districtCode": "S1222",
    "districtName": "JABALPUR",
    "acNumber": 96,
    "acName": "BARGI",
    "partNumber": 170,
    "partName": "CHIRAPOUDI",
    "lat": 23.1787384,
    "lon": 79.63673335388366
  },
  {
    "partId": 37967,
    "stateCode": "S12",
    "stateName": "Madhya Pradesh",
    "districtCode": "S1222",
    "districtName": "JABALPUR",
    "acNumber": 96,
    "acName": "BARGI",
    "partNumber": 171,
    "partName": "TEVAR WARD NO.71",
    "lat": 23.1787384,
    "lon": 79.63673335388366
  },
  {
    "partId": 32549,
    "stateCode": "S12",
    "stateName": "Madhya Pradesh",
    "districtCode": "S1222",
    "districtName": "JABALPUR",
    "acNumber": 96,
    "acName": "BARGI",
    "partNumber": 172,
    "partName": "TEVAR WARD NO.71",
    "lat": 23.1787384,
    "lon": 79.63673335388366
  },
  {
    "partId": 37968,
    "stateCode": "S12",
    "stateName": "Madhya Pradesh",
    "districtCode": "S1222",
    "districtName": "JABALPUR",
    "acNumber": 96,
    "acName": "BARGI",
    "partNumber": 173,
    "partName": "TEVAR WARD NO.71",
    "lat": 23.1787384,
    "lon": 79.63673335388366
  },
  {
    "partId": 48669,
    "stateCode": "S12",
    "stateName": "Madhya Pradesh",
    "districtCode": "S1222",
    "districtName": "JABALPUR",
    "acNumber": 96,
    "acName": "BARGI",
    "partNumber": 174,
    "partName": "PINDARAI WARD NO.71",
    "lat": 23.1787384,
    "lon": 79.63673335388366
  },
  {
    "partId": 48670,
    "stateCode": "S12",
    "stateName": "Madhya Pradesh",
    "districtCode": "S1222",
    "districtName": "JABALPUR",
    "acNumber": 96,
    "acName": "BARGI",
    "partNumber": 175,
    "partName": "KUGANVA WARD NO.71",
    "lat": 23.1787384,
    "lon": 79.63673335388366
  },
  {
    "partId": 37971,
    "stateCode": "S12",
    "stateName": "Madhya Pradesh",
    "districtCode": "S1222",
    "districtName": "JABALPUR",
    "acNumber": 96,
    "acName": "BARGI",
    "partNumber": 176,
    "partName": "KUGANVA WARD NO.71",
    "lat": 23.1787384,
    "lon": 79.63673335388366
  },
  {
    "partId": 48671,
    "stateCode": "S12",
    "stateName": "Madhya Pradesh",
    "districtCode": "S1222",
    "districtName": "JABALPUR",
    "acNumber": 96,
    "acName": "BARGI",
    "partNumber": 177,
    "partName": "ANDHUVA WARD NO.71",
    "lat": 23.1787384,
    "lon": 79.63673335388366
  },
  {
    "partId": 48672,
    "stateCode": "S12",
    "stateName": "Madhya Pradesh",
    "districtCode": "S1222",
    "districtName": "JABALPUR",
    "acNumber": 96,
    "acName": "BARGI",
    "partNumber": 178,
    "partName": "BAHADAN WARD NO.71",
    "lat": 23.1787384,
    "lon": 79.63673335388366
  },
  {
    "partId": 48673,
    "stateCode": "S12",
    "stateName": "Madhya Pradesh",
    "districtCode": "S1222",
    "districtName": "JABALPUR",
    "acNumber": 96,
    "acName": "BARGI",
    "partNumber": 179,
    "partName": "LAMATI",
    "lat": 23.1787384,
    "lon": 79.63673335388366
  },
  {
    "partId": 37970,
    "stateCode": "S12",
    "stateName": "Madhya Pradesh",
    "districtCode": "S1222",
    "districtName": "JABALPUR",
    "acNumber": 96,
    "acName": "BARGI",
    "partNumber": 180,
    "partName": "LAMATI",
    "lat": 23.1787384,
    "lon": 79.63673335388366
  },
  {
    "partId": 7518,
    "stateCode": "S12",
    "stateName": "Madhya Pradesh",
    "districtCode": "S1222",
    "districtName": "JABALPUR",
    "acNumber": 96,
    "acName": "BARGI",
    "partNumber": 181,
    "partName": "LAMATI",
    "lat": 23.1787384,
    "lon": 79.63673335388366
  },
  {
    "partId": 16523,
    "stateCode": "S12",
    "stateName": "Madhya Pradesh",
    "districtCode": "S1222",
    "districtName": "JABALPUR",
    "acNumber": 96,
    "acName": "BARGI",
    "partNumber": 182,
    "partName": "LAMATI",
    "lat": 23.174519666044777,
    "lon": 79.686981294013
  },
  {
    "partId": 7519,
    "stateCode": "S12",
    "stateName": "Madhya Pradesh",
    "districtCode": "S1222",
    "districtName": "JABALPUR",
    "acNumber": 96,
    "acName": "BARGI",
    "partNumber": 183,
    "partName": "PADUVA",
    "lat": 23.1787384,
    "lon": 79.63673335388366
  },
  {
    "partId": 31335,
    "stateCode": "S12",
    "stateName": "Madhya Pradesh",
    "districtCode": "S1222",
    "districtName": "JABALPUR",
    "acNumber": 96,
    "acName": "BARGI",
    "partNumber": 184,
    "partName": "AMAHINOUTA",
    "lat": 23.1787384,
    "lon": 79.63673335388366
  },
  {
    "partId": 32548,
    "stateCode": "S12",
    "stateName": "Madhya Pradesh",
    "districtCode": "S1222",
    "districtName": "JABALPUR",
    "acNumber": 96,
    "acName": "BARGI",
    "partNumber": 185,
    "partName": "AMAHINOUTA",
    "lat": 23.1787384,
    "lon": 79.63673335388366
  },
  {
    "partId": 31336,
    "stateCode": "S12",
    "stateName": "Madhya Pradesh",
    "districtCode": "S1222",
    "districtName": "JABALPUR",
    "acNumber": 96,
    "acName": "BARGI",
    "partNumber": 186,
    "partName": "PIPARIYA",
    "lat": 23.5438899,
    "lon": 79.89382427457494
  },
  {
    "partId": 32547,
    "stateCode": "S12",
    "stateName": "Madhya Pradesh",
    "districtCode": "S1222",
    "districtName": "JABALPUR",
    "acNumber": 96,
    "acName": "BARGI",
    "partNumber": 187,
    "partName": "PIPARIYA",
    "lat": 23.5438899,
    "lon": 79.89382427457494
  },
  {
    "partId": 37957,
    "stateCode": "S12",
    "stateName": "Madhya Pradesh",
    "districtCode": "S1222",
    "districtName": "JABALPUR",
    "acNumber": 96,
    "acName": "BARGI",
    "partNumber": 188,
    "partName": "BHEDAGHAT",
    "lat": 23.1317464,
    "lon": 79.8009868
  },
  {
    "partId": 16522,
    "stateCode": "S12",
    "stateName": "Madhya Pradesh",
    "districtCode": "S1222",
    "districtName": "JABALPUR",
    "acNumber": 96,
    "acName": "BARGI",
    "partNumber": 189,
    "partName": "BHEDAGHAT",
    "lat": 23.1317464,
    "lon": 79.8009868
  },
  {
    "partId": 31337,
    "stateCode": "S12",
    "stateName": "Madhya Pradesh",
    "districtCode": "S1222",
    "districtName": "JABALPUR",
    "acNumber": 96,
    "acName": "BARGI",
    "partNumber": 190,
    "partName": "LAMHETAGHAT",
    "lat": 23.1787384,
    "lon": 79.63673335388366
  },
  {
    "partId": 48693,
    "stateCode": "S12",
    "stateName": "Madhya Pradesh",
    "districtCode": "S1222",
    "districtName": "JABALPUR",
    "acNumber": 96,
    "acName": "BARGI",
    "partNumber": 191,
    "partName": "GOPALAPUR",
    "lat": 23.1787384,
    "lon": 79.63673335388366
  },
  {
    "partId": 7497,
    "stateCode": "S12",
    "stateName": "Madhya Pradesh",
    "districtCode": "S1222",
    "districtName": "JABALPUR",
    "acNumber": 96,
    "acName": "BARGI",
    "partNumber": 192,
    "partName": "CHOUKITAL WARD NO.71",
    "lat": 23.1787384,
    "lon": 79.63673335388366
  },
  {
    "partId": 31334,
    "stateCode": "S12",
    "stateName": "Madhya Pradesh",
    "districtCode": "S1222",
    "districtName": "JABALPUR",
    "acNumber": 96,
    "acName": "BARGI",
    "partNumber": 193,
    "partName": "CHOUKITAL WARD NO.71",
    "lat": 23.1787384,
    "lon": 79.63673335388366
  },
  {
    "partId": 7498,
    "stateCode": "S12",
    "stateName": "Madhya Pradesh",
    "districtCode": "S1222",
    "districtName": "JABALPUR",
    "acNumber": 96,
    "acName": "BARGI",
    "partNumber": 194,
    "partName": "PARASIYA",
    "lat": 23.16748405,
    "lon": 79.74243760248098
  },
  {
    "partId": 7499,
    "stateCode": "S12",
    "stateName": "Madhya Pradesh",
    "districtCode": "S1222",
    "districtName": "JABALPUR",
    "acNumber": 96,
    "acName": "BARGI",
    "partNumber": 195,
    "partName": "DAGADAGOUVA",
    "lat": 23.1787384,
    "lon": 79.63673335388366
  },
  {
    "partId": 7500,
    "stateCode": "S12",
    "stateName": "Madhya Pradesh",
    "districtCode": "S1222",
    "districtName": "JABALPUR",
    "acNumber": 96,
    "acName": "BARGI",
    "partNumber": 196,
    "partName": "NANHAKHEDA",
    "lat": 23.1787384,
    "lon": 79.63673335388366
  },
  {
    "partId": 7501,
    "stateCode": "S12",
    "stateName": "Madhya Pradesh",
    "districtCode": "S1222",
    "districtName": "JABALPUR",
    "acNumber": 96,
    "acName": "BARGI",
    "partNumber": 197,
    "partName": "AITHAKHEDA",
    "lat": 23.1787384,
    "lon": 79.63673335388366
  },
  {
    "partId": 7502,
    "stateCode": "S12",
    "stateName": "Madhya Pradesh",
    "districtCode": "S1222",
    "districtName": "JABALPUR",
    "acNumber": 96,
    "acName": "BARGI",
    "partNumber": 198,
    "partName": "RAMAPUR NAKATIYA",
    "lat": 23.1787384,
    "lon": 79.63673335388366
  },
  {
    "partId": 7503,
    "stateCode": "S12",
    "stateName": "Madhya Pradesh",
    "districtCode": "S1222",
    "districtName": "JABALPUR",
    "acNumber": 96,
    "acName": "BARGI",
    "partNumber": 199,
    "partName": "GHUNSOUR",
    "lat": 23.1787384,
    "lon": 79.63673335388366
  },
  {
    "partId": 7504,
    "stateCode": "S12",
    "stateName": "Madhya Pradesh",
    "districtCode": "S1222",
    "districtName": "JABALPUR",
    "acNumber": 96,
    "acName": "BARGI",
    "partNumber": 200,
    "partName": "SIVANITOLA",
    "lat": 23.1787384,
    "lon": 79.63673335388366
  },
  {
    "partId": 31344,
    "stateCode": "S12",
    "stateName": "Madhya Pradesh",
    "districtCode": "S1222",
    "districtName": "JABALPUR",
    "acNumber": 96,
    "acName": "BARGI",
    "partNumber": 201,
    "partName": "JOTAPUR",
    "lat": 23.1787384,
    "lon": 79.63673335388366
  },
  {
    "partId": 7505,
    "stateCode": "S12",
    "stateName": "Madhya Pradesh",
    "districtCode": "S1222",
    "districtName": "JABALPUR",
    "acNumber": 96,
    "acName": "BARGI",
    "partNumber": 202,
    "partName": "GHANA",
    "lat": 23.028283350000002,
    "lon": 79.95529830250507
  },
  {
    "partId": 7506,
    "stateCode": "S12",
    "stateName": "Madhya Pradesh",
    "districtCode": "S1222",
    "districtName": "JABALPUR",
    "acNumber": 96,
    "acName": "BARGI",
    "partNumber": 203,
    "partName": "NARAYANAPUR",
    "lat": 23.1787384,
    "lon": 79.63673335388366
  },
  {
    "partId": 31319,
    "stateCode": "S12",
    "stateName": "Madhya Pradesh",
    "districtCode": "S1222",
    "districtName": "JABALPUR",
    "acNumber": 96,
    "acName": "BARGI",
    "partNumber": 204,
    "partName": "MANGELI",
    "lat": 23.0911082,
    "lon": 79.92169291367678
  },
  {
    "partId": 31320,
    "stateCode": "S12",
    "stateName": "Madhya Pradesh",
    "districtCode": "S1222",
    "districtName": "JABALPUR",
    "acNumber": 96,
    "acName": "BARGI",
    "partNumber": 205,
    "partName": "MANEGANV",
    "lat": 23.1787384,
    "lon": 79.63673335388366
  },
  {
    "partId": 31321,
    "stateCode": "S12",
    "stateName": "Madhya Pradesh",
    "districtCode": "S1222",
    "districtName": "JABALPUR",
    "acNumber": 96,
    "acName": "BARGI",
    "partNumber": 206,
    "partName": "BADHAIYAKHEDA",
    "lat": 23.1787384,
    "lon": 79.63673335388366
  },
  {
    "partId": 31322,
    "stateCode": "S12",
    "stateName": "Madhya Pradesh",
    "districtCode": "S1222",
    "districtName": "JABALPUR",
    "acNumber": 96,
    "acName": "BARGI",
    "partNumber": 207,
    "partName": "KHIRAHANI",
    "lat": 23.358140900000002,
    "lon": 79.95774590168371
  },
  {
    "partId": 31323,
    "stateCode": "S12",
    "stateName": "Madhya Pradesh",
    "districtCode": "S1222",
    "districtName": "JABALPUR",
    "acNumber": 96,
    "acName": "BARGI",
    "partNumber": 208,
    "partName": "SAMADAPIPARIYA",
    "lat": 23.174519666044777,
    "lon": 79.686981294013
  },
  {
    "partId": 31324,
    "stateCode": "S12",
    "stateName": "Madhya Pradesh",
    "districtCode": "S1222",
    "districtName": "JABALPUR",
    "acNumber": 96,
    "acName": "BARGI",
    "partNumber": 209,
    "partName": "GHAGHARA",
    "lat": 23.1787384,
    "lon": 79.63673335388366
  },
  {
    "partId": 31305,
    "stateCode": "S12",
    "stateName": "Madhya Pradesh",
    "districtCode": "S1222",
    "districtName": "JABALPUR",
    "acNumber": 96,
    "acName": "BARGI",
    "partNumber": 210,
    "partName": "JHIRI",
    "lat": 23.174519666044777,
    "lon": 79.686981294013
  },
  {
    "partId": 31306,
    "stateCode": "S12",
    "stateName": "Madhya Pradesh",
    "districtCode": "S1222",
    "districtName": "JABALPUR",
    "acNumber": 96,
    "acName": "BARGI",
    "partNumber": 211,
    "partName": "CHARAGAVAN",
    "lat": 23.1787384,
    "lon": 79.63673335388366
  },
  {
    "partId": 31345,
    "stateCode": "S12",
    "stateName": "Madhya Pradesh",
    "districtCode": "S1222",
    "districtName": "JABALPUR",
    "acNumber": 96,
    "acName": "BARGI",
    "partNumber": 212,
    "partName": "DHODA",
    "lat": 23.1787384,
    "lon": 79.63673335388366
  },
  {
    "partId": 31307,
    "stateCode": "S12",
    "stateName": "Madhya Pradesh",
    "districtCode": "S1222",
    "districtName": "JABALPUR",
    "acNumber": 96,
    "acName": "BARGI",
    "partNumber": 213,
    "partName": "MUKANAVARA",
    "lat": 23.1787384,
    "lon": 79.63673335388366
  },
  {
    "partId": 31308,
    "stateCode": "S12",
    "stateName": "Madhya Pradesh",
    "districtCode": "S1222",
    "districtName": "JABALPUR",
    "acNumber": 96,
    "acName": "BARGI",
    "partNumber": 214,
    "partName": "BAHORIPAR",
    "lat": 23.0417496,
    "lon": 79.92748549281504
  },
  {
    "partId": 31309,
    "stateCode": "S12",
    "stateName": "Madhya Pradesh",
    "districtCode": "S1222",
    "districtName": "JABALPUR",
    "acNumber": 96,
    "acName": "BARGI",
    "partNumber": 215,
    "partName": "MOHAS",
    "lat": 23.1787384,
    "lon": 79.63673335388366
  },
  {
    "partId": 31310,
    "stateCode": "S12",
    "stateName": "Madhya Pradesh",
    "districtCode": "S1222",
    "districtName": "JABALPUR",
    "acNumber": 96,
    "acName": "BARGI",
    "partNumber": 216,
    "partName": "DUGARIYA",
    "lat": 22.99000145,
    "lon": 79.96085994061036
  },
  {
    "partId": 31346,
    "stateCode": "S12",
    "stateName": "Madhya Pradesh",
    "districtCode": "S1222",
    "districtName": "JABALPUR",
    "acNumber": 96,
    "acName": "BARGI",
    "partNumber": 217,
    "partName": "NIGARI",
    "lat": 23.034186249999998,
    "lon": 79.9021153999528
  },
  {
    "partId": 31333,
    "stateCode": "S12",
    "stateName": "Madhya Pradesh",
    "districtCode": "S1222",
    "districtName": "JABALPUR",
    "acNumber": 96,
    "acName": "BARGI",
    "partNumber": 218,
    "partName": "NIGARI",
    "lat": 23.034186249999998,
    "lon": 79.9021153999528
  },
  {
    "partId": 31347,
    "stateCode": "S12",
    "stateName": "Madhya Pradesh",
    "districtCode": "S1222",
    "districtName": "JABALPUR",
    "acNumber": 96,
    "acName": "BARGI",
    "partNumber": 219,
    "partName": "JOGIDHANA",
    "lat": 23.1787384,
    "lon": 79.63673335388366
  },
  {
    "partId": 31348,
    "stateCode": "S12",
    "stateName": "Madhya Pradesh",
    "districtCode": "S1222",
    "districtName": "JABALPUR",
    "acNumber": 96,
    "acName": "BARGI",
    "partNumber": 220,
    "partName": "GOKALAPUR",
    "lat": 23.1787384,
    "lon": 79.63673335388366
  },
  {
    "partId": 31349,
    "stateCode": "S12",
    "stateName": "Madhya Pradesh",
    "districtCode": "S1222",
    "districtName": "JABALPUR",
    "acNumber": 96,
    "acName": "BARGI",
    "partNumber": 221,
    "partName": "HARRAI",
    "lat": 23.03915325,
    "lon": 79.87659345288957
  },
  {
    "partId": 31350,
    "stateCode": "S12",
    "stateName": "Madhya Pradesh",
    "districtCode": "S1222",
    "districtName": "JABALPUR",
    "acNumber": 96,
    "acName": "BARGI",
    "partNumber": 222,
    "partName": "GHATAPIPARIYA",
    "lat": 23.174519666044777,
    "lon": 79.686981294013
  },
  {
    "partId": 31351,
    "stateCode": "S12",
    "stateName": "Madhya Pradesh",
    "districtCode": "S1222",
    "districtName": "JABALPUR",
    "acNumber": 96,
    "acName": "BARGI",
    "partNumber": 223,
    "partName": "TINGAN",
    "lat": 23.1787384,
    "lon": 79.63673335388366
  },
  {
    "partId": 31352,
    "stateCode": "S12",
    "stateName": "Madhya Pradesh",
    "districtCode": "S1222",
    "districtName": "JABALPUR",
    "acNumber": 96,
    "acName": "BARGI",
    "partNumber": 224,
    "partName": "MARAHAPATHA",
    "lat": 23.1787384,
    "lon": 79.63673335388366
  },
  {
    "partId": 31353,
    "stateCode": "S12",
    "stateName": "Madhya Pradesh",
    "districtCode": "S1222",
    "districtName": "JABALPUR",
    "acNumber": 96,
    "acName": "BARGI",
    "partNumber": 225,
    "partName": "PARASIYA",
    "lat": 23.16748405,
    "lon": 79.74243760248098
  },
  {
    "partId": 16258,
    "stateCode": "S12",
    "stateName": "Madhya Pradesh",
    "districtCode": "S1222",
    "districtName": "JABALPUR",
    "acNumber": 96,
    "acName": "BARGI",
    "partNumber": 226,
    "partName": "RAINGAJHORI",
    "lat": 23.1787384,
    "lon": 79.63673335388366
  },
  {
    "partId": 16259,
    "stateCode": "S12",
    "stateName": "Madhya Pradesh",
    "districtCode": "S1222",
    "districtName": "JABALPUR",
    "acNumber": 96,
    "acName": "BARGI",
    "partNumber": 227,
    "partName": "TINSI",
    "lat": 22.9616301,
    "lon": 79.8399061
  },
  {
    "partId": 53493,
    "stateCode": "S12",
    "stateName": "Madhya Pradesh",
    "districtCode": "S1222",
    "districtName": "JABALPUR",
    "acNumber": 96,
    "acName": "BARGI",
    "partNumber": 228,
    "partName": "TINSA",
    "lat": 22.96799145,
    "lon": 79.84744485002693
  },
  {
    "partId": 53494,
    "stateCode": "S12",
    "stateName": "Madhya Pradesh",
    "districtCode": "S1222",
    "districtName": "JABALPUR",
    "acNumber": 96,
    "acName": "BARGI",
    "partNumber": 229,
    "partName": "PIPARIYA",
    "lat": 23.5438899,
    "lon": 79.89382427457494
  },
  {
    "partId": 31311,
    "stateCode": "S12",
    "stateName": "Madhya Pradesh",
    "districtCode": "S1222",
    "districtName": "JABALPUR",
    "acNumber": 96,
    "acName": "BARGI",
    "partNumber": 230,
    "partName": "SALIVADA",
    "lat": 23.1787384,
    "lon": 79.63673335388366
  },
  {
    "partId": 31312,
    "stateCode": "S12",
    "stateName": "Madhya Pradesh",
    "districtCode": "S1222",
    "districtName": "JABALPUR",
    "acNumber": 96,
    "acName": "BARGI",
    "partNumber": 231,
    "partName": "RAIPURA",
    "lat": 22.93600885,
    "lon": 79.82754033629931
  },
  {
    "partId": 31313,
    "stateCode": "S12",
    "stateName": "Madhya Pradesh",
    "districtCode": "S1222",
    "districtName": "JABALPUR",
    "acNumber": 96,
    "acName": "BARGI",
    "partNumber": 232,
    "partName": "THANA",
    "lat": 23.32273145,
    "lon": 79.71333522460702
  },
  {
    "partId": 31340,
    "stateCode": "S12",
    "stateName": "Madhya Pradesh",
    "districtCode": "S1222",
    "districtName": "JABALPUR",
    "acNumber": 96,
    "acName": "BARGI",
    "partNumber": 233,
    "partName": "SUKARI",
    "lat": 23.1787384,
    "lon": 79.63673335388366
  },
  {
    "partId": 32546,
    "stateCode": "S12",
    "stateName": "Madhya Pradesh",
    "districtCode": "S1222",
    "districtName": "JABALPUR",
    "acNumber": 96,
    "acName": "BARGI",
    "partNumber": 234,
    "partName": "SUKARI",
    "lat": 23.1787384,
    "lon": 79.63673335388366
  },
  {
    "partId": 31341,
    "stateCode": "S12",
    "stateName": "Madhya Pradesh",
    "districtCode": "S1222",
    "districtName": "JABALPUR",
    "acNumber": 96,
    "acName": "BARGI",
    "partNumber": 235,
    "partName": "MANGELA",
    "lat": 23.24285235,
    "lon": 79.8597220348706
  },
  {
    "partId": 31342,
    "stateCode": "S12",
    "stateName": "Madhya Pradesh",
    "districtCode": "S1222",
    "districtName": "JABALPUR",
    "acNumber": 96,
    "acName": "BARGI",
    "partNumber": 236,
    "partName": "CHHAPARA",
    "lat": 23.1787384,
    "lon": 79.63673335388366
  },
  {
    "partId": 31343,
    "stateCode": "S12",
    "stateName": "Madhya Pradesh",
    "districtCode": "S1222",
    "districtName": "JABALPUR",
    "acNumber": 96,
    "acName": "BARGI",
    "partNumber": 237,
    "partName": "SILUVA",
    "lat": 23.1787384,
    "lon": 79.63673335388366
  },
  {
    "partId": 54402,
    "stateCode": "S12",
    "stateName": "Madhya Pradesh",
    "districtCode": "S1222",
    "districtName": "JABALPUR",
    "acNumber": 96,
    "acName": "BARGI",
    "partNumber": 238,
    "partName": "HULKI",
    "lat": 22.881993950000002,
    "lon": 79.79664681692174
  },
  {
    "partId": 54403,
    "stateCode": "S12",
    "stateName": "Madhya Pradesh",
    "districtCode": "S1222",
    "districtName": "JABALPUR",
    "acNumber": 96,
    "acName": "BARGI",
    "partNumber": 239,
    "partName": "KALADEHI",
    "lat": 22.887635449999998,
    "lon": 79.82935227213873
  },
  {
    "partId": 31332,
    "stateCode": "S12",
    "stateName": "Madhya Pradesh",
    "districtCode": "S1222",
    "districtName": "JABALPUR",
    "acNumber": 96,
    "acName": "BARGI",
    "partNumber": 240,
    "partName": "KALADEHI",
    "lat": 22.887635449999998,
    "lon": 79.82935227213873
  },
  {
    "partId": 16482,
    "stateCode": "S12",
    "stateName": "Madhya Pradesh",
    "districtCode": "S1222",
    "districtName": "JABALPUR",
    "acNumber": 96,
    "acName": "BARGI",
    "partNumber": 241,
    "partName": "KHAPA",
    "lat": 22.94893365,
    "lon": 79.92312065430217
  },
  {
    "partId": 53495,
    "stateCode": "S12",
    "stateName": "Madhya Pradesh",
    "districtCode": "S1222",
    "districtName": "JABALPUR",
    "acNumber": 96,
    "acName": "BARGI",
    "partNumber": 242,
    "partName": "DEVARI",
    "lat": 23.1787384,
    "lon": 79.63673335388366
  },
  {
    "partId": 31339,
    "stateCode": "S12",
    "stateName": "Madhya Pradesh",
    "districtCode": "S1222",
    "districtName": "JABALPUR",
    "acNumber": 96,
    "acName": "BARGI",
    "partNumber": 243,
    "partName": "BAMHANI",
    "lat": 23.174519666044777,
    "lon": 79.686981294013
  },
  {
    "partId": 7520,
    "stateCode": "S12",
    "stateName": "Madhya Pradesh",
    "districtCode": "S1222",
    "districtName": "JABALPUR",
    "acNumber": 96,
    "acName": "BARGI",
    "partNumber": 244,
    "partName": "SAMANAPUR",
    "lat": 22.88371715,
    "lon": 79.88155627972114
  },
  {
    "partId": 7521,
    "stateCode": "S12",
    "stateName": "Madhya Pradesh",
    "districtCode": "S1222",
    "districtName": "JABALPUR",
    "acNumber": 96,
    "acName": "BARGI",
    "partNumber": 245,
    "partName": "RIMA",
    "lat": 23.1787384,
    "lon": 79.63673335388366
  },
  {
    "partId": 31331,
    "stateCode": "S12",
    "stateName": "Madhya Pradesh",
    "districtCode": "S1222",
    "districtName": "JABALPUR",
    "acNumber": 96,
    "acName": "BARGI",
    "partNumber": 246,
    "partName": "RIMA",
    "lat": 23.1787384,
    "lon": 79.63673335388366
  },
  {
    "partId": 48675,
    "stateCode": "S12",
    "stateName": "Madhya Pradesh",
    "districtCode": "S1222",
    "districtName": "JABALPUR",
    "acNumber": 96,
    "acName": "BARGI",
    "partNumber": 247,
    "partName": "SILUVA",
    "lat": 23.1787384,
    "lon": 79.63673335388366
  },
  {
    "partId": 48676,
    "stateCode": "S12",
    "stateName": "Madhya Pradesh",
    "districtCode": "S1222",
    "districtName": "JABALPUR",
    "acNumber": 96,
    "acName": "BARGI",
    "partNumber": 248,
    "partName": "TEMAR",
    "lat": 22.9295928,
    "lon": 79.85251385352316
  },
  {
    "partId": 7522,
    "stateCode": "S12",
    "stateName": "Madhya Pradesh",
    "districtCode": "S1222",
    "districtName": "JABALPUR",
    "acNumber": 96,
    "acName": "BARGI",
    "partNumber": 249,
    "partName": "HARADULI COLONY",
    "lat": 23.1787384,
    "lon": 79.63673335388366
  },
  {
    "partId": 16521,
    "stateCode": "S12",
    "stateName": "Madhya Pradesh",
    "districtCode": "S1222",
    "districtName": "JABALPUR",
    "acNumber": 96,
    "acName": "BARGI",
    "partNumber": 250,
    "partName": "HARADULI COLONY",
    "lat": 23.174519666044777,
    "lon": 79.686981294013
  },
  {
    "partId": 7523,
    "stateCode": "S12",
    "stateName": "Madhya Pradesh",
    "districtCode": "S1222",
    "districtName": "JABALPUR",
    "acNumber": 96,
    "acName": "BARGI",
    "partNumber": 251,
    "partName": "HARADULEE KALONEE",
    "lat": 23.174519666044777,
    "lon": 79.686981294013
  },
  {
    "partId": 16516,
    "stateCode": "S12",
    "stateName": "Madhya Pradesh",
    "districtCode": "S1222",
    "districtName": "JABALPUR",
    "acNumber": 96,
    "acName": "BARGI",
    "partNumber": 252,
    "partName": "HARADULEE KALONEE",
    "lat": 23.1787384,
    "lon": 79.63673335388366
  },
  {
    "partId": 37969,
    "stateCode": "S12",
    "stateName": "Madhya Pradesh",
    "districtCode": "S1222",
    "districtName": "JABALPUR",
    "acNumber": 96,
    "acName": "BARGI",
    "partNumber": 253,
    "partName": "HARADULEE KALONEE",
    "lat": 23.1787384,
    "lon": 79.63673335388366
  },
  {
    "partId": 16503,
    "stateCode": "S12",
    "stateName": "Madhya Pradesh",
    "districtCode": "S1222",
    "districtName": "JABALPUR",
    "acNumber": 96,
    "acName": "BARGI",
    "partNumber": 254,
    "partName": "HARADULEE KALONEE",
    "lat": 23.1787384,
    "lon": 79.63673335388366
  },
  {
    "partId": 31325,
    "stateCode": "S12",
    "stateName": "Madhya Pradesh",
    "districtCode": "S1222",
    "districtName": "JABALPUR",
    "acNumber": 96,
    "acName": "BARGI",
    "partNumber": 255,
    "partName": "HARADULI COLONY",
    "lat": 23.1787384,
    "lon": 79.63673335388366
  },
  {
    "partId": 53506,
    "stateCode": "S12",
    "stateName": "Madhya Pradesh",
    "districtCode": "S1222",
    "districtName": "JABALPUR",
    "acNumber": 96,
    "acName": "BARGI",
    "partNumber": 256,
    "partName": "HARADULI COLONY",
    "lat": 23.1787384,
    "lon": 79.63673335388366
  },
  {
    "partId": 31326,
    "stateCode": "S12",
    "stateName": "Madhya Pradesh",
    "districtCode": "S1222",
    "districtName": "JABALPUR",
    "acNumber": 96,
    "acName": "BARGI",
    "partNumber": 257,
    "partName": "HARDULI",
    "lat": 23.1787384,
    "lon": 79.63673335388366
  },
  {
    "partId": 53505,
    "stateCode": "S12",
    "stateName": "Madhya Pradesh",
    "districtCode": "S1222",
    "districtName": "JABALPUR",
    "acNumber": 96,
    "acName": "BARGI",
    "partNumber": 258,
    "partName": "HARDULI",
    "lat": 22.9239338,
    "lon": 79.8996148715571
  },
  {
    "partId": 31327,
    "stateCode": "S12",
    "stateName": "Madhya Pradesh",
    "districtCode": "S1222",
    "districtName": "JABALPUR",
    "acNumber": 96,
    "acName": "BARGI",
    "partNumber": 259,
    "partName": "SHALIWADA",
    "lat": 23.1787384,
    "lon": 79.63673335388366
  },
  {
    "partId": 53496,
    "stateCode": "S12",
    "stateName": "Madhya Pradesh",
    "districtCode": "S1222",
    "districtName": "JABALPUR",
    "acNumber": 96,
    "acName": "BARGI",
    "partNumber": 260,
    "partName": "GANGADA",
    "lat": 23.1787384,
    "lon": 79.63673335388366
  },
  {
    "partId": 31328,
    "stateCode": "S12",
    "stateName": "Madhya Pradesh",
    "districtCode": "S1222",
    "districtName": "JABALPUR",
    "acNumber": 96,
    "acName": "BARGI",
    "partNumber": 261,
    "partName": "KATHOUTIYA",
    "lat": 23.1787384,
    "lon": 79.63673335388366
  },
  {
    "partId": 31329,
    "stateCode": "S12",
    "stateName": "Madhya Pradesh",
    "districtCode": "S1222",
    "districtName": "JABALPUR",
    "acNumber": 96,
    "acName": "BARGI",
    "partNumber": 262,
    "partName": "SAHAJAPURI",
    "lat": 23.174519666044777,
    "lon": 79.686981294013
  },
  {
    "partId": 53504,
    "stateCode": "S12",
    "stateName": "Madhya Pradesh",
    "districtCode": "S1222",
    "districtName": "JABALPUR",
    "acNumber": 96,
    "acName": "BARGI",
    "partNumber": 263,
    "partName": "SAHAJAPURI",
    "lat": 23.1787384,
    "lon": 79.63673335388366
  },
  {
    "partId": 31330,
    "stateCode": "S12",
    "stateName": "Madhya Pradesh",
    "districtCode": "S1222",
    "districtName": "JABALPUR",
    "acNumber": 96,
    "acName": "BARGI",
    "partNumber": 264,
    "partName": "SAHAJAPURI",
    "lat": 23.1787384,
    "lon": 79.63673335388366
  },
  {
    "partId": 7546,
    "stateCode": "S12",
    "stateName": "Madhya Pradesh",
    "districtCode": "S1222",
    "districtName": "JABALPUR",
    "acNumber": 96,
    "acName": "BARGI",
    "partNumber": 265,
    "partName": "BARAGI",
    "lat": 22.9926493,
    "lon": 79.874897
  },
  {
    "partId": 47212,
    "stateCode": "S12",
    "stateName": "Madhya Pradesh",
    "districtCode": "S1222",
    "districtName": "JABALPUR",
    "acNumber": 96,
    "acName": "BARGI",
    "partNumber": 266,
    "partName": "BARAGI",
    "lat": 23.174519666044777,
    "lon": 79.686981294013
  },
  {
    "partId": 22631,
    "stateCode": "S12",
    "stateName": "Madhya Pradesh",
    "districtCode": "S1222",
    "districtName": "JABALPUR",
    "acNumber": 96,
    "acName": "BARGI",
    "partNumber": 267,
    "partName": "BARAGI",
    "lat": 22.9926493,
    "lon": 79.874897
  },
  {
    "partId": 22632,
    "stateCode": "S12",
    "stateName": "Madhya Pradesh",
    "districtCode": "S1222",
    "districtName": "JABALPUR",
    "acNumber": 96,
    "acName": "BARGI",
    "partNumber": 268,
    "partName": "BARAGI",
    "lat": 22.9926493,
    "lon": 79.874897
  },
  {
    "partId": 53503,
    "stateCode": "S12",
    "stateName": "Madhya Pradesh",
    "districtCode": "S1222",
    "districtName": "JABALPUR",
    "acNumber": 96,
    "acName": "BARGI",
    "partNumber": 269,
    "partName": "BARAGI",
    "lat": 22.9926493,
    "lon": 79.874897
  },
  {
    "partId": 22633,
    "stateCode": "S12",
    "stateName": "Madhya Pradesh",
    "districtCode": "S1222",
    "districtName": "JABALPUR",
    "acNumber": 96,
    "acName": "BARGI",
    "partNumber": 270,
    "partName": "BARAGI",
    "lat": 22.9926493,
    "lon": 79.874897
  },
  {
    "partId": 53498,
    "stateCode": "S12",
    "stateName": "Madhya Pradesh",
    "districtCode": "S1222",
    "districtName": "JABALPUR",
    "acNumber": 96,
    "acName": "BARGI",
    "partNumber": 271,
    "partName": "BARAGI",
    "lat": 22.9926493,
    "lon": 79.874897
  },
  {
    "partId": 22634,
    "stateCode": "S12",
    "stateName": "Madhya Pradesh",
    "districtCode": "S1222",
    "districtName": "JABALPUR",
    "acNumber": 96,
    "acName": "BARGI",
    "partNumber": 272,
    "partName": "SALIVADA",
    "lat": 23.1787384,
    "lon": 79.63673335388366
  },
  {
    "partId": 53502,
    "stateCode": "S12",
    "stateName": "Madhya Pradesh",
    "districtCode": "S1222",
    "districtName": "JABALPUR",
    "acNumber": 96,
    "acName": "BARGI",
    "partNumber": 273,
    "partName": "SALIVADA",
    "lat": 23.1787384,
    "lon": 79.63673335388366
  },
  {
    "partId": 22635,
    "stateCode": "S12",
    "stateName": "Madhya Pradesh",
    "districtCode": "S1222",
    "districtName": "JABALPUR",
    "acNumber": 96,
    "acName": "BARGI",
    "partNumber": 274,
    "partName": "BANDARAKOLA",
    "lat": 23.1787384,
    "lon": 79.63673335388366
  },
  {
    "partId": 22636,
    "stateCode": "S12",
    "stateName": "Madhya Pradesh",
    "districtCode": "S1222",
    "districtName": "JABALPUR",
    "acNumber": 96,
    "acName": "BARGI",
    "partNumber": 275,
    "partName": "SAGADA JHAPANI",
    "lat": 23.1787384,
    "lon": 79.63673335388366
  },
  {
    "partId": 16309,
    "stateCode": "S12",
    "stateName": "Madhya Pradesh",
    "districtCode": "S1222",
    "districtName": "JABALPUR",
    "acNumber": 96,
    "acName": "BARGI",
    "partNumber": 276,
    "partName": "SAGADA JHAPANI",
    "lat": 23.1787384,
    "lon": 79.63673335388366
  },
  {
    "partId": 53497,
    "stateCode": "S12",
    "stateName": "Madhya Pradesh",
    "districtCode": "S1222",
    "districtName": "JABALPUR",
    "acNumber": 96,
    "acName": "BARGI",
    "partNumber": 277,
    "partName": "CHARAGHAT",
    "lat": 23.1787384,
    "lon": 79.63673335388366
  },
  {
    "partId": 22637,
    "stateCode": "S12",
    "stateName": "Madhya Pradesh",
    "districtCode": "S1222",
    "districtName": "JABALPUR",
    "acNumber": 96,
    "acName": "BARGI",
    "partNumber": 278,
    "partName": "PIPARIYAKALA",
    "lat": 23.1787384,
    "lon": 79.63673335388366
  },
  {
    "partId": 22638,
    "stateCode": "S12",
    "stateName": "Madhya Pradesh",
    "districtCode": "S1222",
    "districtName": "JABALPUR",
    "acNumber": 96,
    "acName": "BARGI",
    "partNumber": 279,
    "partName": "DUNGARIYA",
    "lat": 23.174519666044777,
    "lon": 79.686981294013
  },
  {
    "partId": 22639,
    "stateCode": "S12",
    "stateName": "Madhya Pradesh",
    "districtCode": "S1222",
    "districtName": "JABALPUR",
    "acNumber": 96,
    "acName": "BARGI",
    "partNumber": 280,
    "partName": "DUNGARIYA",
    "lat": 23.5366816,
    "lon": 80.01708955118664
  },
  {
    "partId": 16260,
    "stateCode": "S12",
    "stateName": "Madhya Pradesh",
    "districtCode": "S1222",
    "districtName": "JABALPUR",
    "acNumber": 96,
    "acName": "BARGI",
    "partNumber": 281,
    "partName": "DUNGARIYA",
    "lat": 23.5366816,
    "lon": 80.01708955118664
  },
  {
    "partId": 22640,
    "stateCode": "S12",
    "stateName": "Madhya Pradesh",
    "districtCode": "S1222",
    "districtName": "JABALPUR",
    "acNumber": 96,
    "acName": "BARGI",
    "partNumber": 282,
    "partName": "KHAPA GVARI",
    "lat": 23.1787384,
    "lon": 79.63673335388366
  },
  {
    "partId": 53501,
    "stateCode": "S12",
    "stateName": "Madhya Pradesh",
    "districtCode": "S1222",
    "districtName": "JABALPUR",
    "acNumber": 96,
    "acName": "BARGI",
    "partNumber": 283,
    "partName": "KHAPA GVARI",
    "lat": 23.1787384,
    "lon": 79.63673335388366
  },
  {
    "partId": 22641,
    "stateCode": "S12",
    "stateName": "Madhya Pradesh",
    "districtCode": "S1222",
    "districtName": "JABALPUR",
    "acNumber": 96,
    "acName": "BARGI",
    "partNumber": 284,
    "partName": "BARABATI",
    "lat": 23.1787384,
    "lon": 79.63673335388366
  },
  {
    "partId": 22642,
    "stateCode": "S12",
    "stateName": "Madhya Pradesh",
    "districtCode": "S1222",
    "districtName": "JABALPUR",
    "acNumber": 96,
    "acName": "BARGI",
    "partNumber": 285,
    "partName": "SOHAD",
    "lat": 23.1787384,
    "lon": 79.63673335388366
  },
  {
    "partId": 22643,
    "stateCode": "S12",
    "stateName": "Madhya Pradesh",
    "districtCode": "S1222",
    "districtName": "JABALPUR",
    "acNumber": 96,
    "acName": "BARGI",
    "partNumber": 286,
    "partName": "SARRAI",
    "lat": 23.00038705,
    "lon": 79.97886084408057
  },
  {
    "partId": 131593,
    "stateCode": "S12",
    "stateName": "Madhya Pradesh",
    "districtCode": "S1222",
    "districtName": "JABALPUR",
    "acNumber": 99,
    "acName": "JABALPUR CANTT",
    "partNumber": 1,
    "partName": "DIWAN ADHAR SINGH WARD NO 61",
    "lat": 23.151726,
    "lon": 79.9464999
  },
  {
    "partId": 131592,
    "stateCode": "S12",
    "stateName": "Madhya Pradesh",
    "districtCode": "S1222",
    "districtName": "JABALPUR",
    "acNumber": 99,
    "acName": "JABALPUR CANTT",
    "partNumber": 2,
    "partName": "DIWAN ADHAR SINGH WARD NO 61",
    "lat": 23.151726,
    "lon": 79.9464999
  },
  {
    "partId": 131719,
    "stateCode": "S12",
    "stateName": "Madhya Pradesh",
    "districtCode": "S1222",
    "districtName": "JABALPUR",
    "acNumber": 99,
    "acName": "JABALPUR CANTT",
    "partNumber": 3,
    "partName": "DIWAN ADHAR SINGH WARD NO 61",
    "lat": 23.151726,
    "lon": 79.9464999
  },
  {
    "partId": 131585,
    "stateCode": "S12",
    "stateName": "Madhya Pradesh",
    "districtCode": "S1222",
    "districtName": "JABALPUR",
    "acNumber": 99,
    "acName": "JABALPUR CANTT",
    "partNumber": 4,
    "partName": "DIWAN ADHAR SINGH WARD NO 61",
    "lat": 23.151726,
    "lon": 79.9464999
  },
  {
    "partId": 131571,
    "stateCode": "S12",
    "stateName": "Madhya Pradesh",
    "districtCode": "S1222",
    "districtName": "JABALPUR",
    "acNumber": 99,
    "acName": "JABALPUR CANTT",
    "partNumber": 5,
    "partName": "DIWAN ADHAR SINGH WARD NO 61",
    "lat": 23.151726,
    "lon": 79.9464999
  },
  {
    "partId": 131572,
    "stateCode": "S12",
    "stateName": "Madhya Pradesh",
    "districtCode": "S1222",
    "districtName": "JABALPUR",
    "acNumber": 99,
    "acName": "JABALPUR CANTT",
    "partNumber": 6,
    "partName": "DIWAN ADHAR SINGH WARD NO 61",
    "lat": 23.151726,
    "lon": 79.9464999
  },
  {
    "partId": 131573,
    "stateCode": "S12",
    "stateName": "Madhya Pradesh",
    "districtCode": "S1222",
    "districtName": "JABALPUR",
    "acNumber": 99,
    "acName": "JABALPUR CANTT",
    "partNumber": 7,
    "partName": "DIWAN ADHAR SINGH WARD NO 61",
    "lat": 23.151726,
    "lon": 79.9464999
  },
  {
    "partId": 131583,
    "stateCode": "S12",
    "stateName": "Madhya Pradesh",
    "districtCode": "S1222",
    "districtName": "JABALPUR",
    "acNumber": 99,
    "acName": "JABALPUR CANTT",
    "partNumber": 8,
    "partName": "DIWAN ADHAR SINGH WARD NO 61",
    "lat": 23.151726,
    "lon": 79.9464999
  },
  {
    "partId": 131586,
    "stateCode": "S12",
    "stateName": "Madhya Pradesh",
    "districtCode": "S1222",
    "districtName": "JABALPUR",
    "acNumber": 99,
    "acName": "JABALPUR CANTT",
    "partNumber": 9,
    "partName": "DIWAN ADHAR SINGH WARD NO 61",
    "lat": 23.151726,
    "lon": 79.9464999
  },
  {
    "partId": 131615,
    "stateCode": "S12",
    "stateName": "Madhya Pradesh",
    "districtCode": "S1222",
    "districtName": "JABALPUR",
    "acNumber": 99,
    "acName": "JABALPUR CANTT",
    "partNumber": 10,
    "partName": "NIRMAL CHAND JAIN WARD NO 60",
    "lat": 23.151726,
    "lon": 79.9464999
  },
  {
    "partId": 131616,
    "stateCode": "S12",
    "stateName": "Madhya Pradesh",
    "districtCode": "S1222",
    "districtName": "JABALPUR",
    "acNumber": 99,
    "acName": "JABALPUR CANTT",
    "partNumber": 11,
    "partName": "NIRMAL CHAND JAIN WARD NO 60",
    "lat": 23.151726,
    "lon": 79.9464999
  },
  {
    "partId": 131678,
    "stateCode": "S12",
    "stateName": "Madhya Pradesh",
    "districtCode": "S1222",
    "districtName": "JABALPUR",
    "acNumber": 99,
    "acName": "JABALPUR CANTT",
    "partNumber": 12,
    "partName": "NIRMAL CHAND JAIN WARD NO 60",
    "lat": 23.151726,
    "lon": 79.9464999
  },
  {
    "partId": 131679,
    "stateCode": "S12",
    "stateName": "Madhya Pradesh",
    "districtCode": "S1222",
    "districtName": "JABALPUR",
    "acNumber": 99,
    "acName": "JABALPUR CANTT",
    "partNumber": 13,
    "partName": "NIRMAL CHAND JAIN WARD NO 60",
    "lat": 23.151726,
    "lon": 79.9464999
  },
  {
    "partId": 131686,
    "stateCode": "S12",
    "stateName": "Madhya Pradesh",
    "districtCode": "S1222",
    "districtName": "JABALPUR",
    "acNumber": 99,
    "acName": "JABALPUR CANTT",
    "partNumber": 14,
    "partName": "NIRMAL CHAND JAIN WARD NO 60",
    "lat": 23.151726,
    "lon": 79.9464999
  },
  {
    "partId": 131552,
    "stateCode": "S12",
    "stateName": "Madhya Pradesh",
    "districtCode": "S1222",
    "districtName": "JABALPUR",
    "acNumber": 99,
    "acName": "JABALPUR CANTT",
    "partNumber": 15,
    "partName": "NIRMAL CHAND JAIN WARD NO 60",
    "lat": 23.151726,
    "lon": 79.9464999
  },
  {
    "partId": 131647,
    "stateCode": "S12",
    "stateName": "Madhya Pradesh",
    "districtCode": "S1222",
    "districtName": "JABALPUR",
    "acNumber": 99,
    "acName": "JABALPUR CANTT",
    "partNumber": 16,
    "partName": "NIRMAL CHAND JAIN WARD NO 60",
    "lat": 23.151726,
    "lon": 79.9464999
  },
  {
    "partId": 131553,
    "stateCode": "S12",
    "stateName": "Madhya Pradesh",
    "districtCode": "S1222",
    "districtName": "JABALPUR",
    "acNumber": 99,
    "acName": "JABALPUR CANTT",
    "partNumber": 17,
    "partName": "DIWAN AADHAR SINGH  WARD NO 61",
    "lat": 23.151726,
    "lon": 79.9464999
  },
  {
    "partId": 131626,
    "stateCode": "S12",
    "stateName": "Madhya Pradesh",
    "districtCode": "S1222",
    "districtName": "JABALPUR",
    "acNumber": 99,
    "acName": "JABALPUR CANTT",
    "partNumber": 18,
    "partName": "DIWAN AADHAR SINGH  WARD NO 61",
    "lat": 23.151726,
    "lon": 79.9464999
  },
  {
    "partId": 131722,
    "stateCode": "S12",
    "stateName": "Madhya Pradesh",
    "districtCode": "S1222",
    "districtName": "JABALPUR",
    "acNumber": 99,
    "acName": "JABALPUR CANTT",
    "partNumber": 19,
    "partName": "NIRMAL CHAND WARD NO 60",
    "lat": 23.151726,
    "lon": 79.9464999
  },
  {
    "partId": 131594,
    "stateCode": "S12",
    "stateName": "Madhya Pradesh",
    "districtCode": "S1222",
    "districtName": "JABALPUR",
    "acNumber": 99,
    "acName": "JABALPUR CANTT",
    "partNumber": 20,
    "partName": "NIRMAL CHAND JAIN WARD NO 60",
    "lat": 23.151726,
    "lon": 79.9464999
  },
  {
    "partId": 131654,
    "stateCode": "S12",
    "stateName": "Madhya Pradesh",
    "districtCode": "S1222",
    "districtName": "JABALPUR",
    "acNumber": 99,
    "acName": "JABALPUR CANTT",
    "partNumber": 21,
    "partName": "NIRMAL CHAND JAIN WARD NO 60",
    "lat": 23.151726,
    "lon": 79.9464999
  },
  {
    "partId": 131723,
    "stateCode": "S12",
    "stateName": "Madhya Pradesh",
    "districtCode": "S1222",
    "districtName": "JABALPUR",
    "acNumber": 99,
    "acName": "JABALPUR CANTT",
    "partNumber": 22,
    "partName": "NIRMAL CHAND JAIN WARD NO 60",
    "lat": 23.151726,
    "lon": 79.9464999
  },
  {
    "partId": 131724,
    "stateCode": "S12",
    "stateName": "Madhya Pradesh",
    "districtCode": "S1222",
    "districtName": "JABALPUR",
    "acNumber": 99,
    "acName": "JABALPUR CANTT",
    "partNumber": 23,
    "partName": "NIRMAL CHAND JAIN WARD NO 60",
    "lat": 23.151726,
    "lon": 79.9464999
  },
  {
    "partId": 131725,
    "stateCode": "S12",
    "stateName": "Madhya Pradesh",
    "districtCode": "S1222",
    "districtName": "JABALPUR",
    "acNumber": 99,
    "acName": "JABALPUR CANTT",
    "partNumber": 24,
    "partName": "NIRMAL CHAND JAIN WARD NO 60",
    "lat": 23.151726,
    "lon": 79.9464999
  },
  {
    "partId": 131547,
    "stateCode": "S12",
    "stateName": "Madhya Pradesh",
    "districtCode": "S1222",
    "districtName": "JABALPUR",
    "acNumber": 99,
    "acName": "JABALPUR CANTT",
    "partNumber": 25,
    "partName": "NIRMAL CHAND JAIN WARD NO 60",
    "lat": 23.151726,
    "lon": 79.9464999
  },
  {
    "partId": 131580,
    "stateCode": "S12",
    "stateName": "Madhya Pradesh",
    "districtCode": "S1222",
    "districtName": "JABALPUR",
    "acNumber": 99,
    "acName": "JABALPUR CANTT",
    "partNumber": 26,
    "partName": "NIRMAL CHAND JAIN WARD NO 60",
    "lat": 23.151726,
    "lon": 79.9464999
  },
  {
    "partId": 131579,
    "stateCode": "S12",
    "stateName": "Madhya Pradesh",
    "districtCode": "S1222",
    "districtName": "JABALPUR",
    "acNumber": 99,
    "acName": "JABALPUR CANTT",
    "partNumber": 27,
    "partName": "VFJ ESTATE JABALPUR",
    "lat": 23.151726,
    "lon": 79.9464999
  },
  {
    "partId": 131588,
    "stateCode": "S12",
    "stateName": "Madhya Pradesh",
    "districtCode": "S1222",
    "districtName": "JABALPUR",
    "acNumber": 99,
    "acName": "JABALPUR CANTT",
    "partNumber": 28,
    "partName": "VFJ ESTATE JABALPUR",
    "lat": 23.151726,
    "lon": 79.9464999
  },
  {
    "partId": 131589,
    "stateCode": "S12",
    "stateName": "Madhya Pradesh",
    "districtCode": "S1222",
    "districtName": "JABALPUR",
    "acNumber": 99,
    "acName": "JABALPUR CANTT",
    "partNumber": 29,
    "partName": "VFJ ESTATE JABALPUR",
    "lat": 23.151726,
    "lon": 79.9464999
  },
  {
    "partId": 131711,
    "stateCode": "S12",
    "stateName": "Madhya Pradesh",
    "districtCode": "S1222",
    "districtName": "JABALPUR",
    "acNumber": 99,
    "acName": "JABALPUR CANTT",
    "partNumber": 30,
    "partName": "GOKALPUR WARD NO 68",
    "lat": 23.151726,
    "lon": 79.9464999
  },
  {
    "partId": 131541,
    "stateCode": "S12",
    "stateName": "Madhya Pradesh",
    "districtCode": "S1222",
    "districtName": "JABALPUR",
    "acNumber": 99,
    "acName": "JABALPUR CANTT",
    "partNumber": 31,
    "partName": "GOKALPUR WARD NO. 68",
    "lat": 23.151726,
    "lon": 79.9464999
  },
  {
    "partId": 131543,
    "stateCode": "S12",
    "stateName": "Madhya Pradesh",
    "districtCode": "S1222",
    "districtName": "JABALPUR",
    "acNumber": 99,
    "acName": "JABALPUR CANTT",
    "partNumber": 32,
    "partName": "GOKALPUR WARD NO 68",
    "lat": 23.151726,
    "lon": 79.9464999
  },
  {
    "partId": 131544,
    "stateCode": "S12",
    "stateName": "Madhya Pradesh",
    "districtCode": "S1222",
    "districtName": "JABALPUR",
    "acNumber": 99,
    "acName": "JABALPUR CANTT",
    "partNumber": 33,
    "partName": "GOKALPUR WARD NO 68",
    "lat": 23.151726,
    "lon": 79.9464999
  },
  {
    "partId": 131545,
    "stateCode": "S12",
    "stateName": "Madhya Pradesh",
    "districtCode": "S1222",
    "districtName": "JABALPUR",
    "acNumber": 99,
    "acName": "JABALPUR CANTT",
    "partNumber": 34,
    "partName": "GOKALPUR WARD NO 68",
    "lat": 23.151726,
    "lon": 79.9464999
  },
  {
    "partId": 131636,
    "stateCode": "S12",
    "stateName": "Madhya Pradesh",
    "districtCode": "S1222",
    "districtName": "JABALPUR",
    "acNumber": 99,
    "acName": "JABALPUR CANTT",
    "partNumber": 35,
    "partName": "GOKALPUR WARD NO 68",
    "lat": 23.151726,
    "lon": 79.9464999
  },
  {
    "partId": 131658,
    "stateCode": "S12",
    "stateName": "Madhya Pradesh",
    "districtCode": "S1222",
    "districtName": "JABALPUR",
    "acNumber": 99,
    "acName": "JABALPUR CANTT",
    "partNumber": 36,
    "partName": "GOKALPUR WARD NO 68",
    "lat": 23.151726,
    "lon": 79.9464999
  },
  {
    "partId": 131659,
    "stateCode": "S12",
    "stateName": "Madhya Pradesh",
    "districtCode": "S1222",
    "districtName": "JABALPUR",
    "acNumber": 99,
    "acName": "JABALPUR CANTT",
    "partNumber": 37,
    "partName": "GOKALPUR WARD NO 68",
    "lat": 23.151726,
    "lon": 79.9464999
  },
  {
    "partId": 131614,
    "stateCode": "S12",
    "stateName": "Madhya Pradesh",
    "districtCode": "S1222",
    "districtName": "JABALPUR",
    "acNumber": 99,
    "acName": "JABALPUR CANTT",
    "partNumber": 38,
    "partName": "GOKALPUR WARD NO 68",
    "lat": 23.151726,
    "lon": 79.9464999
  },
  {
    "partId": 131675,
    "stateCode": "S12",
    "stateName": "Madhya Pradesh",
    "districtCode": "S1222",
    "districtName": "JABALPUR",
    "acNumber": 99,
    "acName": "JABALPUR CANTT",
    "partNumber": 39,
    "partName": "GOKALPUR WARD NO 68",
    "lat": 23.151726,
    "lon": 79.9464999
  },
  {
    "partId": 131660,
    "stateCode": "S12",
    "stateName": "Madhya Pradesh",
    "districtCode": "S1222",
    "districtName": "JABALPUR",
    "acNumber": 99,
    "acName": "JABALPUR CANTT",
    "partNumber": 40,
    "partName": "GOKALPUR WARD NO 68",
    "lat": 23.151726,
    "lon": 79.9464999
  },
  {
    "partId": 131712,
    "stateCode": "S12",
    "stateName": "Madhya Pradesh",
    "districtCode": "S1222",
    "districtName": "JABALPUR",
    "acNumber": 99,
    "acName": "JABALPUR CANTT",
    "partNumber": 41,
    "partName": "GOKALPUR WARD NO 68",
    "lat": 23.151726,
    "lon": 79.9464999
  },
  {
    "partId": 131559,
    "stateCode": "S12",
    "stateName": "Madhya Pradesh",
    "districtCode": "S1222",
    "districtName": "JABALPUR",
    "acNumber": 99,
    "acName": "JABALPUR CANTT",
    "partNumber": 42,
    "partName": "GOKALPUR WARD NO 68",
    "lat": 23.151726,
    "lon": 79.9464999
  },
  {
    "partId": 131661,
    "stateCode": "S12",
    "stateName": "Madhya Pradesh",
    "districtCode": "S1222",
    "districtName": "JABALPUR",
    "acNumber": 99,
    "acName": "JABALPUR CANTT",
    "partNumber": 43,
    "partName": "GOKALPUR WARD NO 68",
    "lat": 23.151726,
    "lon": 79.9464999
  },
  {
    "partId": 131606,
    "stateCode": "S12",
    "stateName": "Madhya Pradesh",
    "districtCode": "S1222",
    "districtName": "JABALPUR",
    "acNumber": 99,
    "acName": "JABALPUR CANTT",
    "partNumber": 44,
    "partName": "DR. BHIMRAO AMBEDKER WARD NO 62",
    "lat": 23.151726,
    "lon": 79.9464999
  },
  {
    "partId": 131590,
    "stateCode": "S12",
    "stateName": "Madhya Pradesh",
    "districtCode": "S1222",
    "districtName": "JABALPUR",
    "acNumber": 99,
    "acName": "JABALPUR CANTT",
    "partNumber": 45,
    "partName": "DR BHIMRAO AMBEDKER WARD NO 62",
    "lat": 23.151726,
    "lon": 79.9464999
  },
  {
    "partId": 131611,
    "stateCode": "S12",
    "stateName": "Madhya Pradesh",
    "districtCode": "S1222",
    "districtName": "JABALPUR",
    "acNumber": 99,
    "acName": "JABALPUR CANTT",
    "partNumber": 46,
    "partName": "DR BHIMRAO AMBEDKER WARD NO 62",
    "lat": 23.151726,
    "lon": 79.9464999
  },
  {
    "partId": 131591,
    "stateCode": "S12",
    "stateName": "Madhya Pradesh",
    "districtCode": "S1222",
    "districtName": "JABALPUR",
    "acNumber": 99,
    "acName": "JABALPUR CANTT",
    "partNumber": 47,
    "partName": "DR BHIMRAO AMBEDKER WARD NO 62",
    "lat": 23.151726,
    "lon": 79.9464999
  },
  {
    "partId": 131735,
    "stateCode": "S12",
    "stateName": "Madhya Pradesh",
    "districtCode": "S1222",
    "districtName": "JABALPUR",
    "acNumber": 99,
    "acName": "JABALPUR CANTT",
    "partNumber": 48,
    "partName": "SUDERSHAN WARD NO 64",
    "lat": 23.151726,
    "lon": 79.9464999
  },