[
  {
    "partId": 92176,
    "stateCode": "S12",
    "stateName": "Madhya Pradesh",
    "districtCode": "S1221",
    "districtName": "KATNI",
    "acNumber": 91,
    "acName": "BADWARA",
    "partNumber": 1,
    "partName": "MAJHAGAVAN",
    "lat": 23.8242362,
    "lon": 80.5312657
  },
  {
    "partId": 92177,
    "stateCode": "S12",
    "stateName": "Madhya Pradesh",
    "districtCode": "S1221",
    "districtName": "KATNI",
    "acNumber": 91,
    "acName": "BADWARA",
    "partNumber": 2,
    "partName": "MAJHAGAVAN",
    "lat": 23.8242362,
    "lon": 80.5312657
  },
  {
    "partId": 91614,
    "stateCode": "S12",
    "stateName": "Madhya Pradesh",
    "districtCode": "S1221",
    "districtName": "KATNI",
    "acNumber": 91,
    "acName": "BADWARA",
    "partNumber": 3,
    "partName": "MAJHAGAVAN",
    "lat": 23.8242362,
    "lon": 80.5312657
  },
  {
    "partId": 92178,
    "stateCode": "S12",
    "stateName": "Madhya Pradesh",
    "districtCode": "S1221",
    "districtName": "KATNI",
    "acNumber": 91,
    "acName": "BADWARA",
    "partNumber": 4,
    "partName": "BHADOURA",
    "lat": 23.8242362,
    "lon": 80.5312657
  },
  {
    "partId": 91650,
    "stateCode": "S12",
    "stateName": "Madhya Pradesh",
    "districtCode": "S1221",
    "districtName": "KATNI",
    "acNumber": 91,
    "acName": "BADWARA",
    "partNumber": 5,
    "partName": "NANHVARAKALA",
    "lat": 23.8242362,
    "lon": 80.5312657
  },
  {
    "partId": 91651,
    "stateCode": "S12",
    "stateName": "Madhya Pradesh",
    "districtCode": "S1221",
    "districtName": "KATNI",
    "acNumber": 91,
    "acName": "BADWARA",
    "partNumber": 6,
    "partName": "NANHAVARAKHURD",
    "lat": 23.8242362,
    "lon": 80.5312657
  },
  {
    "partId": 91652,
    "stateCode": "S12",
    "stateName": "Madhya Pradesh",
    "districtCode": "S1221",
    "districtName": "KATNI",
    "acNumber": 91,
    "acName": "BADWARA",
    "partNumber": 7,
    "partName": "AMADI",
    "lat": 23.8242362,
    "lon": 80.5312657
  },
  {
    "partId": 91415,
    "stateCode": "S12",
    "stateName": "Madhya Pradesh",
    "districtCode": "S1221",
    "districtName": "KATNI",
    "acNumber": 91,
    "acName": "BADWARA",
    "partNumber": 8,
    "partName": "BARACHHEKA",
    "lat": 23.8242362,
    "lon": 80.5312657
  },
  {
    "partId": 91613,
    "stateCode": "S12",
    "stateName": "Madhya Pradesh",
    "districtCode": "S1221",
    "districtName": "KATNI",
    "acNumber": 91,
    "acName": "BADWARA",
    "partNumber": 9,
    "partName": "BARACHHEKA",
    "lat": 23.8242362,
    "lon": 80.5312657
  },
  {
    "partId": 91653,
    "stateCode": "S12",
    "stateName": "Madhya Pradesh",
    "districtCode": "S1221",
    "districtName": "KATNI",
    "acNumber": 91,
    "acName": "BADWARA",
    "partNumber": 10,
    "partName": "MAHAGAVAN",
    "lat": 23.8242362,
    "lon": 80.5312657
  },
  {
    "partId": 92179,
    "stateCode": "S12",
    "stateName": "Madhya Pradesh",
    "districtCode": "S1221",
    "districtName": "KATNI",
    "acNumber": 91,
    "acName": "BADWARA",
    "partNumber": 11,
    "partName": "MAHAGAVAN",
    "lat": 23.8242362,
    "lon": 80.5312657
  },
  {
    "partId": 91433,
    "stateCode": "S12",
    "stateName": "Madhya Pradesh",
    "districtCode": "S1221",
    "districtName": "KATNI",
    "acNumber": 91,
    "acName": "BADWARA",
    "partNumber": 12,
    "partName": "NIGAHRA",
    "lat": 23.8242362,
    "lon": 80.5312657
  },
  {
    "partId": 91434,
    "stateCode": "S12",
    "stateName": "Madhya Pradesh",
    "districtCode": "S1221",
    "districtName": "KATNI",
    "acNumber": 91,
    "acName": "BADWARA",
    "partNumber": 13,
    "partName": "NIGAHARA",
    "lat": 23.8498041,
    "lon": 80.59253153153256
  },
  {
    "partId": 91601,
    "stateCode": "S12",
    "stateName": "Madhya Pradesh",
    "districtCode": "S1221",
    "districtName": "KATNI",
    "acNumber": 91,
    "acName": "BADWARA",
    "partNumber": 14,
    "partName": "SUNAHRA",
    "lat": 23.8242362,
    "lon": 80.5312657
  },
  {
    "partId": 91435,
    "stateCode": "S12",
    "stateName": "Madhya Pradesh",
    "districtCode": "S1221",
    "districtName": "KATNI",
    "acNumber": 91,
    "acName": "BADWARA",
    "partNumber": 15,
    "partName": "BASADI",
    "lat": 23.8242362,
    "lon": 80.5312657
  },
  {
    "partId": 91436,
    "stateCode": "S12",
    "stateName": "Madhya Pradesh",
    "districtCode": "S1221",
    "districtName": "KATNI",
    "acNumber": 91,
    "acName": "BADWARA",
    "partNumber": 16,
    "partName": "BASADI",
    "lat": 23.8242362,
    "lon": 80.5312657
  },
  {
    "partId": 91612,
    "stateCode": "S12",
    "stateName": "Madhya Pradesh",
    "districtCode": "S1221",
    "districtName": "KATNI",
    "acNumber": 91,
    "acName": "BADWARA",
    "partNumber": 17,
    "partName": "BASADI",
    "lat": 23.8242362,
    "lon": 80.5312657
  },
  {
    "partId": 91437,
    "stateCode": "S12",
    "stateName": "Madhya Pradesh",
    "districtCode": "S1221",
    "districtName": "KATNI",
    "acNumber": 91,
    "acName": "BADWARA",
    "partNumber": 18,
    "partName": "SUDDI",
    "lat": 23.8510492,
    "lon": 80.62061092017586
  },
  {
    "partId": 91611,
    "stateCode": "S12",
    "stateName": "Madhya Pradesh",
    "districtCode": "S1221",
    "districtName": "KATNI",
    "acNumber": 91,
    "acName": "BADWARA",
    "partNumber": 19,
    "partName": "SUDDI",
    "lat": 23.8510492,
    "lon": 80.62061092017586
  },
  {
    "partId": 91438,
    "stateCode": "S12",
    "stateName": "Madhya Pradesh",
    "districtCode": "S1221",
    "districtName": "KATNI",
    "acNumber": 91,
    "acName": "BADWARA",
    "partNumber": 20,
    "partName": "BHADOURA",
    "lat": 23.8242362,
    "lon": 80.5312657
  },
  {
    "partId": 91439,
    "stateCode": "S12",
    "stateName": "Madhya Pradesh",
    "districtCode": "S1221",
    "districtName": "KATNI",
    "acNumber": 91,
    "acName": "BADWARA",
    "partNumber": 21,
    "partName": "SALHANA",
    "lat": 23.807116450000002,
    "lon": 80.63248577232889
  },
  {
    "partId": 91440,
    "stateCode": "S12",
    "stateName": "Madhya Pradesh",
    "districtCode": "S1221",
    "districtName": "KATNI",
    "acNumber": 91,
    "acName": "BADWARA",
    "partNumber": 22,
    "partName": "MIDARA",
    "lat": 23.8242362,
    "lon": 80.5312657
  },
  {
    "partId": 91441,
    "stateCode": "S12",
    "stateName": "Madhya Pradesh",
    "districtCode": "S1221",
    "districtName": "KATNI",
    "acNumber": 91,
    "acName": "BADWARA",
    "partNumber": 23,
    "partName": "BANDARI",
    "lat": 23.8242362,
    "lon": 80.5312657
  },
  {
    "partId": 91416,
    "stateCode": "S12",
    "stateName": "Madhya Pradesh",
    "districtCode": "S1221",
    "districtName": "KATNI",
    "acNumber": 91,
    "acName": "BADWARA",
    "partNumber": 24,
    "partName": "ROHANIYA",
    "lat": 23.775914,
    "lon": 80.62895725949728
  },
  {
    "partId": 91442,
    "stateCode": "S12",
    "stateName": "Madhya Pradesh",
    "districtCode": "S1221",
    "districtName": "KATNI",
    "acNumber": 91,
    "acName": "BADWARA",
    "partNumber": 25,
    "partName": "ROHANIYA",
    "lat": 23.775914,
    "lon": 80.62895725949728
  },
  {
    "partId": 92175,
    "stateCode": "S12",
    "stateName": "Madhya Pradesh",
    "districtCode": "S1221",
    "districtName": "KATNI",
    "acNumber": 91,
    "acName": "BADWARA",
    "partNumber": 26,
    "partName": "ROHANIYA",
    "lat": 23.775914,
    "lon": 80.62895725949728
  },
  {
    "partId": 91443,
    "stateCode": "S12",
    "stateName": "Madhya Pradesh",
    "districtCode": "S1221",
    "districtName": "KATNI",
    "acNumber": 91,
    "acName": "BADWARA",
    "partNumber": 27,
    "partName": "SANDHI",
    "lat": 23.779387,
    "lon": 80.66483369081226
  },
  {
    "partId": 91444,
    "stateCode": "S12",
    "stateName": "Madhya Pradesh",
    "districtCode": "S1221",
    "districtName": "KATNI",
    "acNumber": 91,
    "acName": "BADWARA",
    "partNumber": 28,
    "partName": "GANESHAPUR",
    "lat": 23.8242362,
    "lon": 80.5312657
  },
  {
    "partId": 92174,
    "stateCode": "S12",
    "stateName": "Madhya Pradesh",
    "districtCode": "S1221",
    "districtName": "KATNI",
    "acNumber": 91,
    "acName": "BADWARA",
    "partNumber": 29,
    "partName": "GANESHAPUR",
    "lat": 23.8242362,
    "lon": 80.5312657
  },
  {
    "partId": 91445,
    "stateCode": "S12",
    "stateName": "Madhya Pradesh",
    "districtCode": "S1221",
    "districtName": "KATNI",
    "acNumber": 91,
    "acName": "BADWARA",
    "partNumber": 30,
    "partName": "SAKARIGADH",
    "lat": 23.8242362,
    "lon": 80.5312657
  },
  {
    "partId": 91446,
    "stateCode": "S12",
    "stateName": "Madhya Pradesh",
    "districtCode": "S1221",
    "districtName": "KATNI",
    "acNumber": 91,
    "acName": "BADWARA",
    "partNumber": 31,
    "partName": "KUMHARAVARA",
    "lat": 23.8242362,
    "lon": 80.5312657
  },
  {
    "partId": 91610,
    "stateCode": "S12",
    "stateName": "Madhya Pradesh",
    "districtCode": "S1221",
    "districtName": "KATNI",
    "acNumber": 91,
    "acName": "BADWARA",
    "partNumber": 32,
    "partName": "KUMHARAVARA",
    "lat": 23.8242362,
    "lon": 80.5312657
  },
  {
    "partId": 91447,
    "stateCode": "S12",
    "stateName": "Madhya Pradesh",
    "districtCode": "S1221",
    "districtName": "KATNI",
    "acNumber": 91,
    "acName": "BADWARA",
    "partNumber": 33,
    "partName": "LUHARVARA",
    "lat": 23.8242362,
    "lon": 80.5312657
  },
  {
    "partId": 91448,
    "stateCode": "S12",
    "stateName": "Madhya Pradesh",
    "districtCode": "S1221",
    "districtName": "KATNI",
    "acNumber": 91,
    "acName": "BADWARA",
    "partNumber": 34,
    "partName": "LADAHAR",
    "lat": 23.7895358,
    "lon": 80.68477693608835
  },
  {
    "partId": 91449,
    "stateCode": "S12",
    "stateName": "Madhya Pradesh",
    "districtCode": "S1221",
    "districtName": "KATNI",
    "acNumber": 91,
    "acName": "BADWARA",
    "partNumber": 35,
    "partName": "DEVRI",
    "lat": 23.76922995,
    "lon": 80.68194077775149
  },
  {
    "partId": 91609,
    "stateCode": "S12",
    "stateName": "Madhya Pradesh",
    "districtCode": "S1221",
    "districtName": "KATNI",
    "acNumber": 91,
    "acName": "BADWARA",
    "partNumber": 36,
    "partName": "DEVRI",
    "lat": 23.76922995,
    "lon": 80.68194077775149
  },
  {
    "partId": 91450,
    "stateCode": "S12",
    "stateName": "Madhya Pradesh",
    "districtCode": "S1221",
    "districtName": "KATNI",
    "acNumber": 91,
    "acName": "BADWARA",
    "partNumber": 37,
    "partName": "IMALIYA",
    "lat": 23.7685552,
    "lon": 80.70470144598589
  },
  {
    "partId": 91533,
    "stateCode": "S12",
    "stateName": "Madhya Pradesh",
    "districtCode": "S1221",
    "districtName": "KATNI",
    "acNumber": 91,
    "acName": "BADWARA",
    "partNumber": 38,
    "partName": "KHARAHATA",
    "lat": 23.8242362,
    "lon": 80.5312657
  },
  {
    "partId": 91608,
    "stateCode": "S12",
    "stateName": "Madhya Pradesh",
    "districtCode": "S1221",
    "districtName": "KATNI",
    "acNumber": 91,
    "acName": "BADWARA",
    "partNumber": 39,
    "partName": "KHARAHATA",
    "lat": 23.8242362,
    "lon": 80.5312657
  },
  {
    "partId": 91417,
    "stateCode": "S12",
    "stateName": "Madhya Pradesh",
    "districtCode": "S1221",
    "districtName": "KATNI",
    "acNumber": 91,
    "acName": "BADWARA",
    "partNumber": 40,
    "partName": "SALAIYA",
    "lat": 24.0335312,
    "lon": 80.63741021904463
  },
  {
    "partId": 91602,
    "stateCode": "S12",
    "stateName": "Madhya Pradesh",
    "districtCode": "S1221",
    "districtName": "KATNI",
    "acNumber": 91,
    "acName": "BADWARA",
    "partNumber": 41,
    "partName": "GUDAKALA",
    "lat": 23.8242362,
    "lon": 80.5312657
  },
  {
    "partId": 91534,
    "stateCode": "S12",
    "stateName": "Madhya Pradesh",
    "districtCode": "S1221",
    "districtName": "KATNI",
    "acNumber": 91,
    "acName": "BADWARA",
    "partNumber": 42,
    "partName": "VILAYATAKHURD",
    "lat": 23.8242362,
    "lon": 80.5312657
  },
  {
    "partId": 91535,
    "stateCode": "S12",
    "stateName": "Madhya Pradesh",
    "districtCode": "S1221",
    "districtName": "KATNI",
    "acNumber": 91,
    "acName": "BADWARA",
    "partNumber": 43,
    "partName": "VILAYAT KALA",
    "lat": 23.8242362,
    "lon": 80.5312657
  },
  {
    "partId": 91607,
    "stateCode": "S12",
    "stateName": "Madhya Pradesh",
    "districtCode": "S1221",
    "districtName": "KATNI",
    "acNumber": 91,
    "acName": "BADWARA",
    "partNumber": 44,
    "partName": "VILAYAT KALA",
    "lat": 23.8242362,
    "lon": 80.5312657
  },
  {
    "partId": 91567,
    "stateCode": "S12",
    "stateName": "Madhya Pradesh",
    "districtCode": "S1221",
    "districtName": "KATNI",
    "acNumber": 91,
    "acName": "BADWARA",
    "partNumber": 45,
    "partName": "RAMGADHA",
    "lat": 23.8242362,
    "lon": 80.5312657
  },
  {
    "partId": 91568,
    "stateCode": "S12",
    "stateName": "Madhya Pradesh",
    "districtCode": "S1221",
    "districtName": "KATNI",
    "acNumber": 91,
    "acName": "BADWARA",
    "partNumber": 46,
    "partName": "PATHVARI",
    "lat": 23.8242362,
    "lon": 80.5312657
  },
  {
    "partId": 91569,
    "stateCode": "S12",
    "stateName": "Madhya Pradesh",
    "districtCode": "S1221",
    "districtName": "KATNI",
    "acNumber": 91,
    "acName": "BADWARA",
    "partNumber": 47,
    "partName": "JHARELA",
    "lat": 23.6718287,
    "lon": 80.6643136475935
  },
  {
    "partId": 92168,
    "stateCode": "S12",
    "stateName": "Madhya Pradesh",
    "districtCode": "S1221",
    "districtName": "KATNI",
    "acNumber": 91,
    "acName": "BADWARA",
    "partNumber": 48,
    "partName": "JHARELA",
    "lat": 23.6718287,
    "lon": 80.6643136475935
  },
  {
    "partId": 91570,
    "stateCode": "S12",
    "stateName": "Madhya Pradesh",
    "districtCode": "S1221",
    "districtName": "KATNI",
    "acNumber": 91,
    "acName": "BADWARA",
    "partNumber": 49,
    "partName": "BIJOURI",
    "lat": 23.8242362,
    "lon": 80.5312657
  },
  {
    "partId": 91467,
    "stateCode": "S12",
    "stateName": "Madhya Pradesh",
    "districtCode": "S1221",
    "districtName": "KATNI",
    "acNumber": 91,
    "acName": "BADWARA",
    "partNumber": 50,
    "partName": "KODO",
    "lat": 23.8242362,
    "lon": 80.5312657
  },
  {
    "partId": 91468,
    "stateCode": "S12",
    "stateName": "Madhya Pradesh",
    "districtCode": "S1221",
    "districtName": "KATNI",
    "acNumber": 91,
    "acName": "BADWARA",
    "partNumber": 51,
    "partName": "BHANAPURA",
    "lat": 23.8242362,
    "lon": 80.5312657
  },
  {
    "partId": 91469,
    "stateCode": "S12",
    "stateName": "Madhya Pradesh",
    "districtCode": "S1221",
    "districtName": "KATNI",
    "acNumber": 91,
    "acName": "BADWARA",
    "partNumber": 52,
    "partName": "KACHHARI",
    "lat": 23.659271750000002,
    "lon": 80.62133722646968
  },
  {
    "partId": 92173,
    "stateCode": "S12",
    "stateName": "Madhya Pradesh",
    "districtCode": "S1221",
    "districtName": "KATNI",
    "acNumber": 91,
    "acName": "BADWARA",
    "partNumber": 53,
    "partName": "JHAPI",
    "lat": 23.8242362,
    "lon": 80.5312657
  },
  {
    "partId": 91418,
    "stateCode": "S12",
    "stateName": "Madhya Pradesh",
    "districtCode": "S1221",
    "districtName": "KATNI",
    "acNumber": 91,
    "acName": "BADWARA",
    "partNumber": 54,
    "partName": "LAMKANA",
    "lat": 23.6540521,
    "lon": 80.60434493182612
  },
  {
    "partId": 91470,
    "stateCode": "S12",
    "stateName": "Madhya Pradesh",
    "districtCode": "S1221",
    "districtName": "KATNI",
    "acNumber": 91,
    "acName": "BADWARA",
    "partNumber": 55,
    "partName": "THAGUVA",
    "lat": 23.8242362,
    "lon": 80.5312657
  },
  {
    "partId": 91471,
    "stateCode": "S12",
    "stateName": "Madhya Pradesh",
    "districtCode": "S1221",
    "districtName": "KATNI",
    "acNumber": 91,
    "acName": "BADWARA",
    "partNumber": 56,
    "partName": "BHUDASA",
    "lat": 23.8242362,
    "lon": 80.5312657
  },
  {
    "partId": 91472,
    "stateCode": "S12",
    "stateName": "Madhya Pradesh",
    "districtCode": "S1221",
    "districtName": "KATNI",
    "acNumber": 91,
    "acName": "BADWARA",
    "partNumber": 57,
    "partName": "BHUDASA",
    "lat": 23.8242362,
    "lon": 80.5312657
  },
  {
    "partId": 91473,
    "stateCode": "S12",
    "stateName": "Madhya Pradesh",
    "districtCode": "S1221",
    "districtName": "KATNI",
    "acNumber": 91,
    "acName": "BADWARA",
    "partNumber": 58,
    "partName": "PARSEL",
    "lat": 23.6176704,
    "lon": 80.61557671070898
  },
  {
    "partId": 91474,
    "stateCode": "S12",
    "stateName": "Madhya Pradesh",
    "districtCode": "S1221",
    "districtName": "KATNI",
    "acNumber": 91,
    "acName": "BADWARA",
    "partNumber": 59,
    "partName": "PARSEL",
    "lat": 23.6176704,
    "lon": 80.61557671070898
  },
  {
    "partId": 91475,
    "stateCode": "S12",
    "stateName": "Madhya Pradesh",
    "districtCode": "S1221",
    "districtName": "KATNI",
    "acNumber": 91,
    "acName": "BADWARA",
    "partNumber": 60,
    "partName": "PANSOKHAR",
    "lat": 23.63611075,
    "lon": 80.5958748196286
  },
  {
    "partId": 91647,
    "stateCode": "S12",
    "stateName": "Madhya Pradesh",
    "districtCode": "S1221",
    "districtName": "KATNI",
    "acNumber": 91,
    "acName": "BADWARA",
    "partNumber": 61,
    "partName": "LUHARWARA",
    "lat": 23.6143985,
    "lon": 80.58781940840304
  },
  {
    "partId": 91476,
    "stateCode": "S12",
    "stateName": "Madhya Pradesh",
    "districtCode": "S1221",
    "districtName": "KATNI",
    "acNumber": 91,
    "acName": "BADWARA",
    "partNumber": 62,
    "partName": "BHAJIYA",
    "lat": 23.64380965,
    "lon": 80.58392845030191
  },
  {
    "partId": 91587,
    "stateCode": "S12",
    "stateName": "Madhya Pradesh",
    "districtCode": "S1221",
    "districtName": "KATNI",
    "acNumber": 91,
    "acName": "BADWARA",
    "partNumber": 63,
    "partName": "BHAJIYA",
    "lat": 23.64380965,
    "lon": 80.58392845030191
  },
  {
    "partId": 91477,
    "stateCode": "S12",
    "stateName": "Madhya Pradesh",
    "districtCode": "S1221",
    "districtName": "KATNI",
    "acNumber": 91,
    "acName": "BADWARA",
    "partNumber": 64,
    "partName": "BHAJIYA",
    "lat": 23.64380965,
    "lon": 80.58392845030191
  },
  {
    "partId": 91586,
    "stateCode": "S12",
    "stateName": "Madhya Pradesh",
    "districtCode": "S1221",
    "districtName": "KATNI",
    "acNumber": 91,
    "acName": "BADWARA",
    "partNumber": 65,
    "partName": "BHAJIYA",
    "lat": 23.64380965,
    "lon": 80.58392845030191
  },
  {
    "partId": 91478,
    "stateCode": "S12",
    "stateName": "Madhya Pradesh",
    "districtCode": "S1221",
    "districtName": "KATNI",
    "acNumber": 91,
    "acName": "BADWARA",
    "partNumber": 66,
    "partName": "DHANANGAVA",
    "lat": 23.8242362,
    "lon": 80.5312657
  },
  {
    "partId": 91372,
    "stateCode": "S12",
    "stateName": "Madhya Pradesh",
    "districtCode": "S1221",
    "districtName": "KATNI",
    "acNumber": 91,
    "acName": "BADWARA",
    "partNumber": 67,
    "partName": "CHHAPARWAH",
    "lat": 23.6521617,
    "lon": 80.5874922706266
  },
  {
    "partId": 91479,
    "stateCode": "S12",
    "stateName": "Madhya Pradesh",
    "districtCode": "S1221",
    "districtName": "KATNI",
    "acNumber": 91,
    "acName": "BADWARA",
    "partNumber": 68,
    "partName": "KARIBARAH",
    "lat": 23.657457299999997,
    "lon": 80.52576335260666
  },
  {
    "partId": 91604,
    "stateCode": "S12",
    "stateName": "Madhya Pradesh",
    "districtCode": "S1221",
    "districtName": "KATNI",
    "acNumber": 91,
    "acName": "BADWARA",
    "partNumber": 69,
    "partName": "BHADAVAR",
    "lat": 23.8242362,
    "lon": 80.5312657
  },
  {
    "partId": 91419,
    "stateCode": "S12",
    "stateName": "Madhya Pradesh",
    "districtCode": "S1221",
    "districtName": "KATNI",
    "acNumber": 91,
    "acName": "BADWARA",
    "partNumber": 70,
    "partName": "SALAIYA",
    "lat": 24.0335312,
    "lon": 80.63741021904463
  },
  {
    "partId": 91585,
    "stateCode": "S12",
    "stateName": "Madhya Pradesh",
    "districtCode": "S1221",
    "districtName": "KATNI",
    "acNumber": 91,
    "acName": "BADWARA",
    "partNumber": 71,
    "partName": "THUTHIYA",
    "lat": 23.703887950000002,
    "lon": 80.61973224563441
  },
  {
    "partId": 91480,
    "stateCode": "S12",
    "stateName": "Madhya Pradesh",
    "districtCode": "S1221",
    "districtName": "KATNI",
    "acNumber": 91,
    "acName": "BADWARA",
    "partNumber": 72,
    "partName": "DHANVARA",
    "lat": 23.8242362,
    "lon": 80.5312657
  },
  {
    "partId": 91481,
    "stateCode": "S12",
    "stateName": "Madhya Pradesh",
    "districtCode": "S1221",
    "districtName": "KATNI",
    "acNumber": 91,
    "acName": "BADWARA",
    "partNumber": 73,
    "partName": "BARAGAVAN",
    "lat": 23.8242362,
    "lon": 80.5312657
  },
  {
    "partId": 91482,
    "stateCode": "S12",
    "stateName": "Madhya Pradesh",
    "districtCode": "S1221",
    "districtName": "KATNI",
    "acNumber": 91,
    "acName": "BADWARA",
    "partNumber": 74,
    "partName": "LAKHAKHERA",
    "lat": 23.74071755,
    "lon": 80.59214354204559
  },
  {
    "partId": 91615,
    "stateCode": "S12",
    "stateName": "Madhya Pradesh",
    "districtCode": "S1221",
    "districtName": "KATNI",
    "acNumber": 91,
    "acName": "BADWARA",
    "partNumber": 75,
    "partName": "BADAVARAKALA",
    "lat": 23.8242362,
    "lon": 80.5312657
  },
  {
    "partId": 91584,
    "stateCode": "S12",
    "stateName": "Madhya Pradesh",
    "districtCode": "S1221",
    "districtName": "KATNI",
    "acNumber": 91,
    "acName": "BADWARA",
    "partNumber": 76,
    "partName": "BADAVARAKALA",
    "lat": 23.8242362,
    "lon": 80.5312657
  },
  {
    "partId": 91616,
    "stateCode": "S12",
    "stateName": "Madhya Pradesh",
    "districtCode": "S1221",
    "districtName": "KATNI",
    "acNumber": 91,
    "acName": "BADWARA",
    "partNumber": 77,
    "partName": "BADAVARAKALA",
    "lat": 23.8242362,
    "lon": 80.5312657
  },
  {
    "partId": 91617,
    "stateCode": "S12",
    "stateName": "Madhya Pradesh",
    "districtCode": "S1221",
    "districtName": "KATNI",
    "acNumber": 91,
    "acName": "BADWARA",
    "partNumber": 78,
    "partName": "BADWARAKHURD",
    "lat": 23.8242362,
    "lon": 80.5312657
  },
  {
    "partId": 91618,
    "stateCode": "S12",
    "stateName": "Madhya Pradesh",
    "districtCode": "S1221",
    "districtName": "KATNI",
    "acNumber": 91,
    "acName": "BADWARA",
    "partNumber": 79,
    "partName": "CHIRUHALI",
    "lat": 23.8242362,
    "lon": 80.5312657
  },
  {
    "partId": 91571,
    "stateCode": "S12",
    "stateName": "Madhya Pradesh",
    "districtCode": "S1221",
    "districtName": "KATNI",
    "acNumber": 91,
    "acName": "BADWARA",
    "partNumber": 80,
    "partName": "CHANDAN",
    "lat": 23.7140256,
    "lon": 80.54229791177345
  },
  {
    "partId": 91371,
    "stateCode": "S12",
    "stateName": "Madhya Pradesh",
    "districtCode": "S1221",
    "districtName": "KATNI",
    "acNumber": 91,
    "acName": "BADWARA",
    "partNumber": 81,
    "partName": "magarhata",
    "lat": 23.689167599999998,
    "lon": 80.55082061512994
  },
  {
    "partId": 91572,
    "stateCode": "S12",
    "stateName": "Madhya Pradesh",
    "districtCode": "S1221",
    "districtName": "KATNI",
    "acNumber": 91,
    "acName": "BADWARA",
    "partNumber": 82,
    "partName": "BARAGAVAN",
    "lat": 23.8242362,
    "lon": 80.5312657
  },
  {
    "partId": 91573,
    "stateCode": "S12",
    "stateName": "Madhya Pradesh",
    "districtCode": "S1221",
    "districtName": "KATNI",
    "acNumber": 91,
    "acName": "BADWARA",
    "partNumber": 83,
    "partName": "SEJHA",
    "lat": 23.6899192,
    "lon": 80.51104516286932
  },
  {
    "partId": 91574,
    "stateCode": "S12",
    "stateName": "Madhya Pradesh",
    "districtCode": "S1221",
    "districtName": "KATNI",
    "acNumber": 91,
    "acName": "BADWARA",
    "partNumber": 84,
    "partName": "BADAGAON",
    "lat": 23.8242362,
    "lon": 80.5312657
  },
  {
    "partId": 91583,
    "stateCode": "S12",
    "stateName": "Madhya Pradesh",
    "districtCode": "S1221",
    "districtName": "KATNI",
    "acNumber": 91,
    "acName": "BADWARA",
    "partNumber": 85,
    "partName": "AMANGAWA",
    "lat": 23.8242362,
    "lon": 80.5312657
  },
  {
    "partId": 91648,
    "stateCode": "S12",
    "stateName": "Madhya Pradesh",
    "districtCode": "S1221",
    "districtName": "KATNI",
    "acNumber": 91,
    "acName": "BADWARA",
    "partNumber": 86,
    "partName": "NANHVARA",
    "lat": 23.8242362,
    "lon": 80.5312657
  },
  {
    "partId": 91649,
    "stateCode": "S12",
    "stateName": "Madhya Pradesh",
    "districtCode": "S1221",
    "districtName": "KATNI",
    "acNumber": 91,
    "acName": "BADWARA",
    "partNumber": 87,
    "partName": "BHAGANWARA",
    "lat": 23.72159715,
    "lon": 80.51792709728642
  },
  {
    "partId": 92167,
    "stateCode": "S12",
    "stateName": "Madhya Pradesh",
    "districtCode": "S1221",
    "districtName": "KATNI",
    "acNumber": 91,
    "acName": "BADWARA",
    "partNumber": 88,
    "partName": "BACHHOULI",
    "lat": 23.8242362,
    "lon": 80.5312657
  },
  {
    "partId": 92144,
    "stateCode": "S12",
    "stateName": "Madhya Pradesh",
    "districtCode": "S1221",
    "districtName": "KATNI",
    "acNumber": 91,
    "acName": "BADWARA",
    "partNumber": 89,
    "partName": "JHINJHARI",
    "lat": 23.8242362,
    "lon": 80.5312657
  },
  {
    "partId": 92145,
    "stateCode": "S12",
    "stateName": "Madhya Pradesh",
    "districtCode": "S1221",
    "districtName": "KATNI",
    "acNumber": 91,
    "acName": "BADWARA",
    "partNumber": 90,
    "partName": "BADERA",
    "lat": 23.87932455,
    "lon": 80.53743506450938
  },
  {
    "partId": 92146,
    "stateCode": "S12",
    "stateName": "Madhya Pradesh",
    "districtCode": "S1221",
    "districtName": "KATNI",
    "acNumber": 91,
    "acName": "BADWARA",
    "partNumber": 91,
    "partName": "RUPOUND",
    "lat": 23.8242362,
    "lon": 80.5312657
  },
  {
    "partId": 91466,
    "stateCode": "S12",
    "stateName": "Madhya Pradesh",
    "districtCode": "S1221",
    "districtName": "KATNI",
    "acNumber": 91,
    "acName": "BADWARA",
    "partNumber": 92,
    "partName": "RUPOUND",
    "lat": 23.8242362,
    "lon": 80.5312657
  },
  {
    "partId": 91575,
    "stateCode": "S12",
    "stateName": "Madhya Pradesh",
    "districtCode": "S1221",
    "districtName": "KATNI",
    "acNumber": 91,
    "acName": "BADWARA",
    "partNumber": 93,
    "partName": "UMARIYA",
    "lat": 23.8930532,
    "lon": 80.09378853156542
  },
  {
    "partId": 92147,
    "stateCode": "S12",
    "stateName": "Madhya Pradesh",
    "districtCode": "S1221",
    "districtName": "KATNI",
    "acNumber": 91,
    "acName": "BADWARA",
    "partNumber": 94,
    "partName": "GOPALPUR (TAMORIYA)",
    "lat": 23.8242362,
    "lon": 80.5312657
  },
  {
    "partId": 91420,
    "stateCode": "S12",
    "stateName": "Madhya Pradesh",
    "districtCode": "S1221",
    "districtName": "KATNI",
    "acNumber": 91,
    "acName": "BADWARA",
    "partNumber": 95,
    "partName": "PATHARA",
    "lat": 23.8242362,
    "lon": 80.5312657
  },
  {
    "partId": 92148,
    "stateCode": "S12",
    "stateName": "Madhya Pradesh",
    "districtCode": "S1221",
    "districtName": "KATNI",
    "acNumber": 91,
    "acName": "BADWARA",
    "partNumber": 96,
    "partName": "BANAHARA",
    "lat": 23.8208264,
    "lon": 80.55480410225049
  },
  {
    "partId": 92149,
    "stateCode": "S12",
    "stateName": "Madhya Pradesh",
    "districtCode": "S1221",
    "districtName": "KATNI",
    "acNumber": 91,
    "acName": "BADWARA",
    "partNumber": 97,
    "partName": "BIJOURI",
    "lat": 23.76142438571429,
    "lon": 80.4996555881471
  },
  {
    "partId": 92150,
    "stateCode": "S12",
    "stateName": "Madhya Pradesh",
    "districtCode": "S1221",
    "districtName": "KATNI",
    "acNumber": 91,
    "acName": "BADWARA",
    "partNumber": 98,
    "partName": "POUNDI",
    "lat": 23.76142438571429,
    "lon": 80.4996555881471
  },
  {
    "partId": 92151,
    "stateCode": "S12",
    "stateName": "Madhya Pradesh",
    "districtCode": "S1221",
    "districtName": "KATNI",
    "acNumber": 91,
    "acName": "BADWARA",
    "partNumber": 99,
    "partName": "CHAPAHNI",
    "lat": 23.76142438571429,
    "lon": 80.4996555881471
  },
  {
    "partId": 92152,
    "stateCode": "S12",
    "stateName": "Madhya Pradesh",
    "districtCode": "S1221",
    "districtName": "KATNI",
    "acNumber": 91,
    "acName": "BADWARA",
    "partNumber": 100,
    "partName": "KATANGIKHURD",
    "lat": 23.717639300000002,
    "lon": 80.26101812940934
  },
  {
    "partId": 92153,
    "stateCode": "S12",
    "stateName": "Madhya Pradesh",
    "districtCode": "S1221",
    "districtName": "KATNI",
    "acNumber": 91,
    "acName": "BADWARA",
    "partNumber": 101,
    "partName": "KHIRHANI",
    "lat": 23.86412635,
    "lon": 80.67693389979051
  },
  {
    "partId": 92154,
    "stateCode": "S12",
    "stateName": "Madhya Pradesh",
    "districtCode": "S1221",
    "districtName": "KATNI",
    "acNumber": 91,
    "acName": "BADWARA",
    "partNumber": 102,
    "partName": "SARSAVAHI",
    "lat": 23.8242362,
    "lon": 80.5312657
  },
  {
    "partId": 92155,
    "stateCode": "S12",
    "stateName": "Madhya Pradesh",
    "districtCode": "S1221",
    "districtName": "KATNI",
    "acNumber": 91,
    "acName": "BADWARA",
    "partNumber": 103,
    "partName": "KHIRVA",
    "lat": 23.8242362,
    "lon": 80.5312657
  },
  {
    "partId": 92156,
    "stateCode": "S12",
    "stateName": "Madhya Pradesh",
    "districtCode": "S1221",
    "districtName": "KATNI",
    "acNumber": 91,
    "acName": "BADWARA",
    "partNumber": 104,
    "partName": "PADARIYA",
    "lat": 23.7971014,
    "lon": 80.44925831713547
  },
  {
    "partId": 92157,
    "stateCode": "S12",
    "stateName": "Madhya Pradesh",
    "districtCode": "S1221",
    "districtName": "KATNI",
    "acNumber": 91,
    "acName": "BADWARA",
    "partNumber": 105,
    "partName": "PADARIYA",
    "lat": 23.7971014,
    "lon": 80.44925831713547
  },
  {
    "partId": 91421,
    "stateCode": "S12",
    "stateName": "Madhya Pradesh",
    "districtCode": "S1221",
    "districtName": "KATNI",
    "acNumber": 91,
    "acName": "BADWARA",
    "partNumber": 106,
    "partName": "JHALVARA",
    "lat": 23.8242362,
    "lon": 80.5312657
  },
  {
    "partId": 92158,
    "stateCode": "S12",
    "stateName": "Madhya Pradesh",
    "districtCode": "S1221",
    "districtName": "KATNI",
    "acNumber": 91,
    "acName": "BADWARA",
    "partNumber": 107,
    "partName": "KATANGIKALA",
    "lat": 23.8242362,
    "lon": 80.5312657
  },
  {
    "partId": 92166,
    "stateCode": "S12",
    "stateName": "Madhya Pradesh",
    "districtCode": "S1221",
    "districtName": "KATNI",
    "acNumber": 91,
    "acName": "BADWARA",
    "partNumber": 108,
    "partName": "KATANGIKALA",
    "lat": 23.8242362,
    "lon": 80.5312657
  },
  {
    "partId": 92159,
    "stateCode": "S12",
    "stateName": "Madhya Pradesh",
    "districtCode": "S1221",
    "districtName": "KATNI",
    "acNumber": 91,
    "acName": "BADWARA",
    "partNumber": 109,
    "partName": "KATANGIKALA",
    "lat": 23.8242362,
    "lon": 80.5312657
  },
  {
    "partId": 92160,
    "stateCode": "S12",
    "stateName": "Madhya Pradesh",
    "districtCode": "S1221",
    "districtName": "KATNI",
    "acNumber": 91,
    "acName": "BADWARA",
    "partNumber": 110,
    "partName": "KEVALARI",
    "lat": 23.8242362,
    "lon": 80.5312657
  },
  {
    "partId": 91465,
    "stateCode": "S12",
    "stateName": "Madhya Pradesh",
    "districtCode": "S1221",
    "districtName": "KATNI",
    "acNumber": 91,
    "acName": "BADWARA",
    "partNumber": 111,
    "partName": "SARRA",
    "lat": 23.481925500000003,
    "lon": 80.53339712251683
  },
  {
    "partId": 91552,
    "stateCode": "S12",
    "stateName": "Madhya Pradesh",
    "districtCode": "S1221",
    "districtName": "KATNI",
    "acNumber": 91,
    "acName": "BADWARA",
    "partNumber": 112,
    "partName": "SALAIYA",
    "lat": 24.0335312,
    "lon": 80.63741021904463
  },
  {
    "partId": 91553,
    "stateCode": "S12",
    "stateName": "Madhya Pradesh",
    "districtCode": "S1221",
    "districtName": "KATNI",
    "acNumber": 91,
    "acName": "BADWARA",
    "partNumber": 113,
    "partName": "DEVRIHATAI",
    "lat": 23.7197029,
    "lon": 80.49003420529161
  },
  {
    "partId": 91464,
    "stateCode": "S12",
    "stateName": "Madhya Pradesh",
    "districtCode": "S1221",
    "districtName": "KATNI",
    "acNumber": 91,
    "acName": "BADWARA",
    "partNumber": 114,
    "partName": "DEVRIHATAI",
    "lat": 23.7197029,
    "lon": 80.49003420529161
  },
  {
    "partId": 91554,
    "stateCode": "S12",
    "stateName": "Madhya Pradesh",
    "districtCode": "S1221",
    "districtName": "KATNI",
    "acNumber": 91,
    "acName": "BADWARA",
    "partNumber": 115,
    "partName": "DEVARIHATAI",
    "lat": 23.76142438571429,
    "lon": 80.4996555881471
  },
  {
    "partId": 91555,
    "stateCode": "S12",
    "stateName": "Madhya Pradesh",
    "districtCode": "S1221",
    "districtName": "KATNI",
    "acNumber": 91,
    "acName": "BADWARA",
    "partNumber": 116,
    "partName": "TEDHI",
    "lat": 23.8242362,
    "lon": 80.5312657
  },
  {
    "partId": 91606,
    "stateCode": "S12",
    "stateName": "Madhya Pradesh",
    "districtCode": "S1221",
    "districtName": "KATNI",
    "acNumber": 91,
    "acName": "BADWARA",
    "partNumber": 117,
    "partName": "GUBARADHARI",
    "lat": 23.76142438571429,
    "lon": 80.4996555881471
  },
  {
    "partId": 91556,
    "stateCode": "S12",
    "stateName": "Madhya Pradesh",
    "districtCode": "S1221",
    "districtName": "KATNI",
    "acNumber": 91,
    "acName": "BADWARA",
    "partNumber": 118,
    "partName": "SINGHANPURI",
    "lat": 23.528833849999998,
    "lon": 80.54237629864318
  },
  {
    "partId": 91557,
    "stateCode": "S12",
    "stateName": "Madhya Pradesh",
    "districtCode": "S1221",
    "districtName": "KATNI",
    "acNumber": 91,
    "acName": "BADWARA",
    "partNumber": 119,
    "partName": "SIMRA",
    "lat": 23.76142438571429,
    "lon": 80.4996555881471
  },
  {
    "partId": 91558,
    "stateCode": "S12",
    "stateName": "Madhya Pradesh",
    "districtCode": "S1221",
    "districtName": "KATNI",
    "acNumber": 91,
    "acName": "BADWARA",
    "partNumber": 120,
    "partName": "KOUDIYA",
    "lat": 23.8242362,
    "lon": 80.5312657
  },
  {
    "partId": 92172,
    "stateCode": "S12",
    "stateName": "Madhya Pradesh",
    "districtCode": "S1221",
    "districtName": "KATNI",
    "acNumber": 91,
    "acName": "BADWARA",
    "partNumber": 121,
    "partName": "KOUDIYA",
    "lat": 23.8242362,
    "lon": 80.5312657
  },
  {
    "partId": 91654,
    "stateCode": "S12",
    "stateName": "Madhya Pradesh",
    "districtCode": "S1221",
    "districtName": "KATNI",
    "acNumber": 91,
    "acName": "BADWARA",
    "partNumber": 122,
    "partName": "KOUDIYA",
    "lat": 23.76142438571429,
    "lon": 80.4996555881471
  },
  {
    "partId": 92141,
    "stateCode": "S12",
    "stateName": "Madhya Pradesh",
    "districtCode": "S1221",
    "districtName": "KATNI",
    "acNumber": 91,
    "acName": "BADWARA",
    "partNumber": 123,
    "partName": "GATAKHEDA",
    "lat": 23.8242362,
    "lon": 80.5312657
  },
  {
    "partId": 92135,
    "stateCode": "S12",
    "stateName": "Madhya Pradesh",
    "districtCode": "S1221",
    "districtName": "KATNI",
    "acNumber": 91,
    "acName": "BADWARA",
    "partNumber": 124,
    "partName": "HIRVARA",
    "lat": 23.8242362,
    "lon": 80.5312657
  },
  {
    "partId": 91463,
    "stateCode": "S12",
    "stateName": "Madhya Pradesh",
    "districtCode": "S1221",
    "districtName": "KATNI",
    "acNumber": 91,
    "acName": "BADWARA",
    "partNumber": 125,
    "partName": "HIRVARA",
    "lat": 23.8242362,
    "lon": 80.5312657
  },
  {
    "partId": 91538,
    "stateCode": "S12",
    "stateName": "Madhya Pradesh",
    "districtCode": "S1221",
    "districtName": "KATNI",
    "acNumber": 91,
    "acName": "BADWARA",
    "partNumber": 126,
    "partName": "HIRVARA",
    "lat": 23.8242362,
    "lon": 80.5312657
  },
  {
    "partId": 91462,
    "stateCode": "S12",
    "stateName": "Madhya Pradesh",
    "districtCode": "S1221",
    "districtName": "KATNI",
    "acNumber": 91,
    "acName": "BADWARA",
    "partNumber": 127,
    "partName": "HIRVARA",
    "lat": 23.8242362,
    "lon": 80.5312657
  },
  {
    "partId": 91539,
    "stateCode": "S12",
    "stateName": "Madhya Pradesh",
    "districtCode": "S1221",
    "districtName": "KATNI",
    "acNumber": 91,
    "acName": "BADWARA",
    "partNumber": 128,
    "partName": "PIPARIYA",
    "lat": 23.706947550000002,
    "lon": 80.6637326472934
  },
  {
    "partId": 91540,
    "stateCode": "S12",
    "stateName": "Madhya Pradesh",
    "districtCode": "S1221",
    "districtName": "KATNI",
    "acNumber": 91,
    "acName": "BADWARA",
    "partNumber": 129,
    "partName": "CHHAHARI",
    "lat": 23.8242362,
    "lon": 80.5312657
  },
  {
    "partId": 91483,
    "stateCode": "S12",
    "stateName": "Madhya Pradesh",
    "districtCode": "S1221",
    "districtName": "KATNI",
    "acNumber": 91,
    "acName": "BADWARA",
    "partNumber": 130,
    "partName": "BADAKHERA",
    "lat": 23.8242362,
    "lon": 80.5312657
  },
  {
    "partId": 91461,
    "stateCode": "S12",
    "stateName": "Madhya Pradesh",
    "districtCode": "S1221",
    "districtName": "KATNI",
    "acNumber": 91,
    "acName": "BADWARA",
    "partNumber": 131,
    "partName": "BADAKHERA",
    "lat": 23.8242362,
    "lon": 80.5312657
  },
  {
    "partId": 91484,
    "stateCode": "S12",
    "stateName": "Madhya Pradesh",
    "districtCode": "S1221",
    "districtName": "KATNI",
    "acNumber": 91,
    "acName": "BADWARA",
    "partNumber": 132,
    "partName": "KHAJURI",
    "lat": 23.76142438571429,
    "lon": 80.4996555881471
  },
  {
    "partId": 91485,
    "stateCode": "S12",
    "stateName": "Madhya Pradesh",
    "districtCode": "S1221",
    "districtName": "KATNI",
    "acNumber": 91,
    "acName": "BADWARA",
    "partNumber": 133,
    "partName": "SHIVRAJPUR",
    "lat": 23.745856699999997,
    "lon": 80.40583344339615
  },
  {
    "partId": 91370,
    "stateCode": "S12",
    "stateName": "Madhya Pradesh",
    "districtCode": "S1221",
    "districtName": "KATNI",
    "acNumber": 91,
    "acName": "BADWARA",
    "partNumber": 134,
    "partName": "Tikariya",
    "lat": 23.912613049999997,
    "lon": 80.53813068887582
  },
  {
    "partId": 91486,
    "stateCode": "S12",
    "stateName": "Madhya Pradesh",
    "districtCode": "S1221",
    "districtName": "KATNI",
    "acNumber": 91,
    "acName": "BADWARA",
    "partNumber": 135,
    "partName": "BHANPURA",
    "lat": 23.664809050000002,
    "lon": 80.63250405267347
  },
  {
    "partId": 91487,
    "stateCode": "S12",
    "stateName": "Madhya Pradesh",
    "districtCode": "S1221",
    "districtName": "KATNI",
    "acNumber": 91,
    "acName": "BADWARA",
    "partNumber": 136,
    "partName": "THARKA",
    "lat": 23.7212094,
    "lon": 80.4146986526172
  },
  {
    "partId": 91488,
    "stateCode": "S12",
    "stateName": "Madhya Pradesh",
    "districtCode": "S1221",
    "districtName": "KATNI",
    "acNumber": 91,
    "acName": "BADWARA",
    "partNumber": 137,
    "partName": "BHANPURA",
    "lat": 23.664809050000002,
    "lon": 80.63250405267347
  },
  {
    "partId": 92142,
    "stateCode": "S12",
    "stateName": "Madhya Pradesh",
    "districtCode": "S1221",
    "districtName": "KATNI",
    "acNumber": 91,
    "acName": "BADWARA",
    "partNumber": 138,
    "partName": "HARDUVA",
    "lat": 23.8242362,
    "lon": 80.5312657
  },
  {
    "partId": 91489,
    "stateCode": "S12",
    "stateName": "Madhya Pradesh",
    "districtCode": "S1221",
    "districtName": "KATNI",
    "acNumber": 91,
    "acName": "BADWARA",
    "partNumber": 139,
    "partName": "SHAHPUR",
    "lat": 23.8242362,
    "lon": 80.5312657
  },
  {
    "partId": 91490,
    "stateCode": "S12",
    "stateName": "Madhya Pradesh",
    "districtCode": "S1221",
    "districtName": "KATNI",
    "acNumber": 91,
    "acName": "BADWARA",
    "partNumber": 140,
    "partName": "SHAHPUR",
    "lat": 23.8242362,
    "lon": 80.5312657
  },
  {
    "partId": 91491,
    "stateCode": "S12",
    "stateName": "Madhya Pradesh",
    "districtCode": "S1221",
    "districtName": "KATNI",
    "acNumber": 91,
    "acName": "BADWARA",
    "partNumber": 141,
    "partName": "BICHUVA",
    "lat": 23.8242362,
    "lon": 80.5312657
  },
  {
    "partId": 91633,
    "stateCode": "S12",
    "stateName": "Madhya Pradesh",
    "districtCode": "S1221",
    "districtName": "KATNI",
    "acNumber": 91,
    "acName": "BADWARA",
    "partNumber": 142,
    "partName": "BICHUVA",
    "lat": 23.8242362,
    "lon": 80.5312657
  },
  {
    "partId": 91492,
    "stateCode": "S12",
    "stateName": "Madhya Pradesh",
    "districtCode": "S1221",
    "districtName": "KATNI",
    "acNumber": 91,
    "acName": "BADWARA",
    "partNumber": 143,
    "partName": "POUNIYA",
    "lat": 23.8242362,
    "lon": 80.5312657
  },
  {
    "partId": 91493,
    "stateCode": "S12",
    "stateName": "Madhya Pradesh",
    "districtCode": "S1221",
    "districtName": "KATNI",
    "acNumber": 91,
    "acName": "BADWARA",
    "partNumber": 144,
    "partName": "POUNIYA",
    "lat": 23.8242362,
    "lon": 80.5312657
  },
  {
    "partId": 91423,
    "stateCode": "S12",
    "stateName": "Madhya Pradesh",
    "districtCode": "S1221",
    "districtName": "KATNI",
    "acNumber": 91,
    "acName": "BADWARA",
    "partNumber": 145,
    "partName": "POUNIYA",
    "lat": 23.8242362,
    "lon": 80.5312657
  },
  {
    "partId": 91460,
    "stateCode": "S12",
    "stateName": "Madhya Pradesh",
    "districtCode": "S1221",
    "districtName": "KATNI",
    "acNumber": 91,
    "acName": "BADWARA",
    "partNumber": 146,
    "partName": "POUNI",
    "lat": 23.8242362,
    "lon": 80.5312657
  },
  {
    "partId": 91605,
    "stateCode": "S12",
    "stateName": "Madhya Pradesh",
    "districtCode": "S1221",
    "districtName": "KATNI",
    "acNumber": 91,
    "acName": "BADWARA",
    "partNumber": 147,
    "partName": "PADARABHATA",
    "lat": 23.8242362,
    "lon": 80.5312657
  },
  {
    "partId": 91459,
    "stateCode": "S12",
    "stateName": "Madhya Pradesh",
    "districtCode": "S1221",
    "districtName": "KATNI",
    "acNumber": 91,
    "acName": "BADWARA",
    "partNumber": 148,
    "partName": "PADARABHATA",
    "lat": 23.8242362,
    "lon": 80.5312657
  },
  {
    "partId": 91494,
    "stateCode": "S12",
    "stateName": "Madhya Pradesh",
    "districtCode": "S1221",
    "districtName": "KATNI",
    "acNumber": 91,
    "acName": "BADWARA",
    "partNumber": 149,
    "partName": "BADKHERA",
    "lat": 23.8242362,
    "lon": 80.5312657
  },
  {
    "partId": 91495,
    "stateCode": "S12",
    "stateName": "Madhya Pradesh",
    "districtCode": "S1221",
    "districtName": "KATNI",
    "acNumber": 91,
    "acName": "BADWARA",
    "partNumber": 150,
    "partName": "MAHGAVAN",
    "lat": 23.8242362,
    "lon": 80.5312657
  },
  {
    "partId": 91458,
    "stateCode": "S12",
    "stateName": "Madhya Pradesh",
    "districtCode": "S1221",
    "districtName": "KATNI",
    "acNumber": 91,
    "acName": "BADWARA",
    "partNumber": 151,
    "partName": "BIJAIYA",
    "lat": 23.8242362,
    "lon": 80.5312657
  },
  {
    "partId": 91527,
    "stateCode": "S12",
    "stateName": "Madhya Pradesh",
    "districtCode": "S1221",
    "districtName": "KATNI",
    "acNumber": 91,
    "acName": "BADWARA",
    "partNumber": 152,
    "partName": "SAILARPUR",
    "lat": 23.8242362,
    "lon": 80.5312657
  },
  {
    "partId": 91457,
    "stateCode": "S12",
    "stateName": "Madhya Pradesh",
    "districtCode": "S1221",
    "districtName": "KATNI",
    "acNumber": 91,
    "acName": "BADWARA",
    "partNumber": 153,
    "partName": "SAILARPUR",
    "lat": 23.8242362,
    "lon": 80.5312657
  },
  {
    "partId": 91422,
    "stateCode": "S12",
    "stateName": "Madhya Pradesh",
    "districtCode": "S1221",
    "districtName": "KATNI",
    "acNumber": 91,
    "acName": "BADWARA",
    "partNumber": 154,
    "partName": "NAWALIYA",
    "lat": 23.717639300000002,
    "lon": 80.26101812940934
  },
  {
    "partId": 91528,
    "stateCode": "S12",
    "stateName": "Madhya Pradesh",
    "districtCode": "S1221",
    "districtName": "KATNI",
    "acNumber": 91,
    "acName": "BADWARA",
    "partNumber": 155,
    "partName": "KANOUJA",
    "lat": 23.8242362,
    "lon": 80.5312657
  },
  {
    "partId": 92143,
    "stateCode": "S12",
    "stateName": "Madhya Pradesh",
    "districtCode": "S1221",
    "districtName": "KATNI",
    "acNumber": 91,
    "acName": "BADWARA",
    "partNumber": 156,
    "partName": "BHULA",
    "lat": 23.717639300000002,
    "lon": 80.26101812940934
  },
  {
    "partId": 91456,
    "stateCode": "S12",
    "stateName": "Madhya Pradesh",
    "districtCode": "S1221",
    "districtName": "KATNI",
    "acNumber": 91,
    "acName": "BADWARA",
    "partNumber": 157,
    "partName": "CHAPUHLA",
    "lat": 23.8242362,
    "lon": 80.5312657
  },
  {
    "partId": 91529,
    "stateCode": "S12",
    "stateName": "Madhya Pradesh",
    "districtCode": "S1221",
    "districtName": "KATNI",
    "acNumber": 91,
    "acName": "BADWARA",
    "partNumber": 158,
    "partName": "SARASVAHI",
    "lat": 23.8242362,
    "lon": 80.5312657
  },
  {
    "partId": 91594,
    "stateCode": "S12",
    "stateName": "Madhya Pradesh",
    "districtCode": "S1221",
    "districtName": "KATNI",
    "acNumber": 91,
    "acName": "BADWARA",
    "partNumber": 159,
    "partName": "SARASVAHI",
    "lat": 23.8242362,
    "lon": 80.5312657
  },
  {
    "partId": 91640,
    "stateCode": "S12",
    "stateName": "Madhya Pradesh",
    "districtCode": "S1221",
    "districtName": "KATNI",
    "acNumber": 91,
    "acName": "BADWARA",
    "partNumber": 160,
    "partName": "DHARVARA",
    "lat": 23.8242362,
    "lon": 80.5312657
  },
  {
    "partId": 91641,
    "stateCode": "S12",
    "stateName": "Madhya Pradesh",
    "districtCode": "S1221",
    "districtName": "KATNI",
    "acNumber": 91,
    "acName": "BADWARA",
    "partNumber": 161,
    "partName": "DHARAVARA",
    "lat": 23.8242362,
    "lon": 80.5312657
  },
  {
    "partId": 91642,
    "stateCode": "S12",
    "stateName": "Madhya Pradesh",
    "districtCode": "S1221",
    "districtName": "KATNI",
    "acNumber": 91,
    "acName": "BADWARA",
    "partNumber": 162,
    "partName": "KARIPATHAR",
    "lat": 23.8242362,
    "lon": 80.5312657
  },
  {
    "partId": 91643,
    "stateCode": "S12",
    "stateName": "Madhya Pradesh",
    "districtCode": "S1221",
    "districtName": "KATNI",
    "acNumber": 91,
    "acName": "BADWARA",
    "partNumber": 163,
    "partName": "IMALIYA",
    "lat": 23.7685552,
    "lon": 80.70470144598589
  },
  {
    "partId": 91632,
    "stateCode": "S12",
    "stateName": "Madhya Pradesh",
    "districtCode": "S1221",
    "districtName": "KATNI",
    "acNumber": 91,
    "acName": "BADWARA",
    "partNumber": 164,
    "partName": "IMALIYA",
    "lat": 23.7685552,
    "lon": 80.70470144598589
  },
  {
    "partId": 91644,
    "stateCode": "S12",
    "stateName": "Madhya Pradesh",
    "districtCode": "S1221",
    "districtName": "KATNI",
    "acNumber": 91,
    "acName": "BADWARA",
    "partNumber": 165,
    "partName": "DAHULI",
    "lat": 23.8242362,
    "lon": 80.5312657
  },
  {
    "partId": 91645,
    "stateCode": "S12",
    "stateName": "Madhya Pradesh",
    "districtCode": "S1221",
    "districtName": "KATNI",
    "acNumber": 91,
    "acName": "BADWARA",
    "partNumber": 166,
    "partName": "MADHANA",
    "lat": 23.5832744,
    "lon": 80.29650689472734
  },
  {
    "partId": 91646,
    "stateCode": "S12",
    "stateName": "Madhya Pradesh",
    "districtCode": "S1221",
    "districtName": "KATNI",
    "acNumber": 91,
    "acName": "BADWARA",
    "partNumber": 167,
    "partName": "BHANPURAKALA",
    "lat": 23.8242362,
    "lon": 80.5312657
  },
  {
    "partId": 91588,
    "stateCode": "S12",
    "stateName": "Madhya Pradesh",
    "districtCode": "S1221",
    "districtName": "KATNI",
    "acNumber": 91,
    "acName": "BADWARA",
    "partNumber": 168,
    "partName": "DUNDI",
    "lat": 23.4553388,
    "lon": 80.30720411111217
  },
  {
    "partId": 91589,
    "stateCode": "S12",
    "stateName": "Madhya Pradesh",
    "districtCode": "S1221",
    "districtName": "KATNI",
    "acNumber": 91,
    "acName": "BADWARA",
    "partNumber": 169,
    "partName": "BAR",
    "lat": 23.554578999999997,
    "lon": 80.24853581817223
  },
  {
    "partId": 91590,
    "stateCode": "S12",
    "stateName": "Madhya Pradesh",
    "districtCode": "S1221",
    "districtName": "KATNI",
    "acNumber": 91,
    "acName": "BADWARA",
    "partNumber": 170,
    "partName": "BARELI",
    "lat": 23.54096925,
    "lon": 80.25497281167753
  },
  {
    "partId": 91530,
    "stateCode": "S12",
    "stateName": "Madhya Pradesh",
    "districtCode": "S1221",
    "districtName": "KATNI",
    "acNumber": 91,
    "acName": "BADWARA",
    "partNumber": 171,
    "partName": "GADAITAVA",
    "lat": 23.8242362,
    "lon": 80.5312657
  },
  {
    "partId": 91531,
    "stateCode": "S12",
    "stateName": "Madhya Pradesh",
    "districtCode": "S1221",
    "districtName": "KATNI",
    "acNumber": 91,
    "acName": "BADWARA",
    "partNumber": 172,
    "partName": "JAMUNIYA",
    "lat": 23.6732696,
    "lon": 80.5244551400636
  },
  {
    "partId": 91532,
    "stateCode": "S12",
    "stateName": "Madhya Pradesh",
    "districtCode": "S1221",
    "districtName": "KATNI",
    "acNumber": 91,
    "acName": "BADWARA",
    "partNumber": 173,
    "partName": "MANGELI",
    "lat": 23.50389645,
    "lon": 80.22404680125473
  },
  {
    "partId": 91424,
    "stateCode": "S12",
    "stateName": "Madhya Pradesh",
    "districtCode": "S1221",
    "districtName": "KATNI",
    "acNumber": 91,
    "acName": "BADWARA",
    "partNumber": 174,
    "partName": "DEVARI(MANGELA)",
    "lat": 23.8242362,
    "lon": 80.5312657
  },
  {
    "partId": 91413,
    "stateCode": "S12",
    "stateName": "Madhya Pradesh",
    "districtCode": "S1221",
    "districtName": "KATNI",
    "acNumber": 91,
    "acName": "BADWARA",
    "partNumber": 175,
    "partName": "BICHHIYA",
    "lat": 23.70822545,
    "lon": 80.35152829929226
  },
  {
    "partId": 91425,
    "stateCode": "S12",
    "stateName": "Madhya Pradesh",
    "districtCode": "S1221",
    "districtName": "KATNI",
    "acNumber": 91,
    "acName": "BADWARA",
    "partNumber": 176,
    "partName": "BARODA",
    "lat": 23.498599249999998,
    "lon": 80.25079689626719
  },
  {
    "partId": 91426,
    "stateCode": "S12",
    "stateName": "Madhya Pradesh",
    "districtCode": "S1221",
    "districtName": "KATNI",
    "acNumber": 91,
    "acName": "BADWARA",
    "partNumber": 177,
    "partName": "DHOURESHWAR",
    "lat": 23.8242362,
    "lon": 80.5312657
  },
  {
    "partId": 91427,
    "stateCode": "S12",
    "stateName": "Madhya Pradesh",
    "districtCode": "S1221",
    "districtName": "KATNI",
    "acNumber": 91,
    "acName": "BADWARA",
    "partNumber": 178,
    "partName": "PAKARIYA",
    "lat": 23.717639300000002,
    "lon": 80.26101812940934
  },
  {
    "partId": 91428,
    "stateCode": "S12",
    "stateName": "Madhya Pradesh",
    "districtCode": "S1221",
    "districtName": "KATNI",
    "acNumber": 91,
    "acName": "BADWARA",
    "partNumber": 179,
    "partName": "PACHAPEDHI",
    "lat": 23.8242362,
    "lon": 80.5312657
  },
  {
    "partId": 91429,
    "stateCode": "S12",
    "stateName": "Madhya Pradesh",
    "districtCode": "S1221",
    "districtName": "KATNI",
    "acNumber": 91,
    "acName": "BADWARA",
    "partNumber": 180,
    "partName": "UMARIYAPAN",
    "lat": 23.50616,
    "lon": 80.27633478363163
  },
  {
    "partId": 91430,
    "stateCode": "S12",
    "stateName": "Madhya Pradesh",
    "districtCode": "S1221",
    "districtName": "KATNI",
    "acNumber": 91,
    "acName": "BADWARA",
    "partNumber": 181,
    "partName": "UMARIYAPAN",
    "lat": 23.50616,
    "lon": 80.27633478363163
  },
  {
    "partId": 91431,
    "stateCode": "S12",
    "stateName": "Madhya Pradesh",
    "districtCode": "S1221",
    "districtName": "KATNI",
    "acNumber": 91,
    "acName": "BADWARA",
    "partNumber": 182,
    "partName": "UMARIYAPAN",
    "lat": 23.50616,
    "lon": 80.27633478363163
  },
  {
    "partId": 91593,
    "stateCode": "S12",
    "stateName": "Madhya Pradesh",
    "districtCode": "S1221",
    "districtName": "KATNI",
    "acNumber": 91,
    "acName": "BADWARA",
    "partNumber": 183,
    "partName": "UMARIYAPAN",
    "lat": 23.50616,
    "lon": 80.27633478363163
  },
  {
    "partId": 91432,
    "stateCode": "S12",
    "stateName": "Madhya Pradesh",
    "districtCode": "S1221",
    "districtName": "KATNI",
    "acNumber": 91,
    "acName": "BADWARA",
    "partNumber": 184,
    "partName": "UMARIYAPAN",
    "lat": 23.50616,
    "lon": 80.27633478363163
  },
  {
    "partId": 92171,
    "stateCode": "S12",
    "stateName": "Madhya Pradesh",
    "districtCode": "S1221",
    "districtName": "KATNI",
    "acNumber": 91,
    "acName": "BADWARA",
    "partNumber": 185,
    "partName": "UMARIYAPAN",
    "lat": 23.50616,
    "lon": 80.27633478363163
  },
  {
    "partId": 91578,
    "stateCode": "S12",
    "stateName": "Madhya Pradesh",
    "districtCode": "S1221",
    "districtName": "KATNI",
    "acNumber": 91,
    "acName": "BADWARA",
    "partNumber": 186,
    "partName": "UMARIYAPAN",
    "lat": 23.50616,
    "lon": 80.27633478363163
  },
  {
    "partId": 91576,
    "stateCode": "S12",
    "stateName": "Madhya Pradesh",
    "districtCode": "S1221",
    "districtName": "KATNI",
    "acNumber": 91,
    "acName": "BADWARA",
    "partNumber": 187,
    "partName": "UMARIYAPAN",
    "lat": 23.50616,
    "lon": 80.27633478363163
  },
  {
    "partId": 91579,
    "stateCode": "S12",
    "stateName": "Madhya Pradesh",
    "districtCode": "S1221",
    "districtName": "KATNI",
    "acNumber": 91,
    "acName": "BADWARA",
    "partNumber": 188,
    "partName": "MUDIYAPURAVA",
    "lat": 23.717639300000002,
    "lon": 80.26101812940934
  },
  {
    "partId": 91580,
    "stateCode": "S12",
    "stateName": "Madhya Pradesh",
    "districtCode": "S1221",
    "districtName": "KATNI",
    "acNumber": 91,
    "acName": "BADWARA",
    "partNumber": 189,
    "partName": "GHUGHARA",
    "lat": 23.8242362,
    "lon": 80.5312657
  },
  {
    "partId": 91577,
    "stateCode": "S12",
    "stateName": "Madhya Pradesh",
    "districtCode": "S1221",
    "districtName": "KATNI",
    "acNumber": 91,
    "acName": "BADWARA",
    "partNumber": 190,
    "partName": "GHUGHARI",
    "lat": 23.88226345,
    "lon": 80.62650327898965
  },
  {
    "partId": 91581,
    "stateCode": "S12",
    "stateName": "Madhya Pradesh",
    "districtCode": "S1221",
    "districtName": "KATNI",
    "acNumber": 91,
    "acName": "BADWARA",
    "partNumber": 191,
    "partName": "PARSEL",
    "lat": 23.6176704,
    "lon": 80.61557671070898
  },
  {
    "partId": 91373,
    "stateCode": "S12",
    "stateName": "Madhya Pradesh",
    "districtCode": "S1221",
    "districtName": "KATNI",
    "acNumber": 91,
    "acName": "BADWARA",
    "partNumber": 192,
    "partName": "PARSEL",
    "lat": 23.6176704,
    "lon": 80.61557671070898
  },
  {
    "partId": 91374,
    "stateCode": "S12",
    "stateName": "Madhya Pradesh",
    "districtCode": "S1221",
    "districtName": "KATNI",
    "acNumber": 91,
    "acName": "BADWARA",
    "partNumber": 193,
    "partName": "NAIGAVAN",
    "lat": 23.8242362,
    "lon": 80.5312657
  },
  {
    "partId": 91451,
    "stateCode": "S12",
    "stateName": "Madhya Pradesh",
    "districtCode": "S1221",
    "districtName": "KATNI",
    "acNumber": 91,
    "acName": "BADWARA",
    "partNumber": 194,
    "partName": "KACHHARGAON",
    "lat": 23.75845355,
    "lon": 80.0545677147905
  },
  {
    "partId": 91452,
    "stateCode": "S12",
    "stateName": "Madhya Pradesh",
    "districtCode": "S1221",
    "districtName": "KATNI",
    "acNumber": 91,
    "acName": "BADWARA",
    "partNumber": 195,
    "partName": "BANHARI",
    "lat": 23.8242362,
    "lon": 80.5312657
  },
  {
    "partId": 91453,
    "stateCode": "S12",
    "stateName": "Madhya Pradesh",
    "districtCode": "S1221",
    "districtName": "KATNI",
    "acNumber": 91,
    "acName": "BADWARA",
    "partNumber": 196,
    "partName": "MAHNER",
    "lat": 23.8242362,
    "lon": 80.5312657
  },
  {
    "partId": 91454,
    "stateCode": "S12",
    "stateName": "Madhya Pradesh",
    "districtCode": "S1221",
    "districtName": "KATNI",
    "acNumber": 91,
    "acName": "BADWARA",
    "partNumber": 197,
    "partName": "BAMHANI",
    "lat": 23.8242362,
    "lon": 80.5312657
  },
  {
    "partId": 91631,
    "stateCode": "S12",
    "stateName": "Madhya Pradesh",
    "districtCode": "S1221",
    "districtName": "KATNI",
    "acNumber": 91,
    "acName": "BADWARA",
    "partNumber": 198,
    "partName": "madera",
    "lat": 23.8242362,
    "lon": 80.5312657
  },
  {
    "partId": 91548,
    "stateCode": "S12",
    "stateName": "Madhya Pradesh",
    "districtCode": "S1221",
    "districtName": "KATNI",
    "acNumber": 91,
    "acName": "BADWARA",
    "partNumber": 199,
    "partName": "GADHAMAS",
    "lat": 23.8242362,
    "lon": 80.5312657
  },
  {
    "partId": 91549,
    "stateCode": "S12",
    "stateName": "Madhya Pradesh",
    "districtCode": "S1221",
    "districtName": "KATNI",
    "acNumber": 91,
    "acName": "BADWARA",
    "partNumber": 200,
    "partName": "HARADI",
    "lat": 23.8242362,
    "lon": 80.5312657
  },
  {
    "partId": 91550,
    "stateCode": "S12",
    "stateName": "Madhya Pradesh",
    "districtCode": "S1221",
    "districtName": "KATNI",
    "acNumber": 91,
    "acName": "BADWARA",
    "partNumber": 201,
    "partName": "GADA",
    "lat": 23.8242362,
    "lon": 80.5312657
  },
  {
    "partId": 91551,
    "stateCode": "S12",
    "stateName": "Madhya Pradesh",
    "districtCode": "S1221",
    "districtName": "KATNI",
    "acNumber": 91,
    "acName": "BADWARA",
    "partNumber": 202,
    "partName": "TOLA",
    "lat": 23.5284247,
    "lon": 80.24859276052706
  },
  {
    "partId": 91536,
    "stateCode": "S12",
    "stateName": "Madhya Pradesh",
    "districtCode": "S1221",
    "districtName": "KATNI",
    "acNumber": 91,
    "acName": "BADWARA",
    "partNumber": 203,
    "partName": "DIVARI(PATHAK)",
    "lat": 23.8242362,
    "lon": 80.5312657
  },
  {
    "partId": 91537,
    "stateCode": "S12",
    "stateName": "Madhya Pradesh",
    "districtCode": "S1221",
    "districtName": "KATNI",
    "acNumber": 91,
    "acName": "BADWARA",
    "partNumber": 204,
    "partName": "PIPARIYA",
    "lat": 23.706947550000002,
    "lon": 80.6637326472934
  },
  {
    "partId": 92136,
    "stateCode": "S12",
    "stateName": "Madhya Pradesh",
    "districtCode": "S1221",
    "districtName": "KATNI",
    "acNumber": 91,
    "acName": "BADWARA",
    "partNumber": 205,
    "partName": "PIPARIYA",
    "lat": 23.706947550000002,
    "lon": 80.6637326472934
  },
  {
    "partId": 92137,
    "stateCode": "S12",
    "stateName": "Madhya Pradesh",
    "districtCode": "S1221",
    "districtName": "KATNI",
    "acNumber": 91,
    "acName": "BADWARA",
    "partNumber": 206,
    "partName": "BHATGAVAN",
    "lat": 23.8242362,
    "lon": 80.5312657
  },
  {
    "partId": 92138,
    "stateCode": "S12",
    "stateName": "Madhya Pradesh",
    "districtCode": "S1221",
    "districtName": "KATNI",
    "acNumber": 91,
    "acName": "BADWARA",
    "partNumber": 207,
    "partName": "KHANDAVARA",
    "lat": 23.8242362,
    "lon": 80.5312657
  },
  {
    "partId": 91541,
    "stateCode": "S12",
    "stateName": "Madhya Pradesh",
    "districtCode": "S1221",
    "districtName": "KATNI",
    "acNumber": 91,
    "acName": "BADWARA",
    "partNumber": 208,
    "partName": "KATARA",
    "lat": 23.8242362,
    "lon": 80.5312657
  },
  {
    "partId": 91542,
    "stateCode": "S12",
    "stateName": "Madhya Pradesh",
    "districtCode": "S1221",
    "districtName": "KATNI",
    "acNumber": 91,
    "acName": "BADWARA",
    "partNumber": 209,
    "partName": "SARANGAPUR",
    "lat": 23.8242362,
    "lon": 80.5312657
  },
  {
    "partId": 91455,
    "stateCode": "S12",
    "stateName": "Madhya Pradesh",
    "districtCode": "S1221",
    "districtName": "KATNI",
    "acNumber": 91,
    "acName": "BADWARA",
    "partNumber": 210,
    "partName": "BIHARIYA",
    "lat": 23.50313905,
    "lon": 80.35839932089098
  },
  {
    "partId": 91543,
    "stateCode": "S12",
    "stateName": "Madhya Pradesh",
    "districtCode": "S1221",
    "districtName": "KATNI",
    "acNumber": 91,
    "acName": "BADWARA",
    "partNumber": 211,
    "partName": "THIRRI",
    "lat": 23.493659649999998,
    "lon": 80.38030319296632
  },
  {
    "partId": 91544,
    "stateCode": "S12",
    "stateName": "Madhya Pradesh",
    "districtCode": "S1221",
    "districtName": "KATNI",
    "acNumber": 91,
    "acName": "BADWARA",
    "partNumber": 212,
    "partName": "SIMARIYA",
    "lat": 23.8927767,
    "lon": 80.69312915760628
  },
  {
    "partId": 91545,
    "stateCode": "S12",
    "stateName": "Madhya Pradesh",
    "districtCode": "S1221",
    "districtName": "KATNI",
    "acNumber": 91,
    "acName": "BADWARA",
    "partNumber": 213,
    "partName": "POUDIKALA",
    "lat": 23.8242362,
    "lon": 80.5312657
  },
  {
    "partId": 91546,
    "stateCode": "S12",
    "stateName": "Madhya Pradesh",
    "districtCode": "S1221",
    "districtName": "KATNI",
    "acNumber": 91,
    "acName": "BADWARA",
    "partNumber": 214,
    "partName": "POUDIKALA",
    "lat": 23.8242362,
    "lon": 80.5312657
  },
  {
    "partId": 91547,
    "stateCode": "S12",
    "stateName": "Madhya Pradesh",
    "districtCode": "S1221",
    "districtName": "KATNI",
    "acNumber": 91,
    "acName": "BADWARA",
    "partNumber": 215,
    "partName": "PIPARIYA SHUKLA",
    "lat": 23.8242362,
    "lon": 80.5312657
  },
  {
    "partId": 92140,
    "stateCode": "S12",
    "stateName": "Madhya Pradesh",
    "districtCode": "S1221",
    "districtName": "KATNI",
    "acNumber": 91,
    "acName": "BADWARA",
    "partNumber": 216,
    "partName": "POUDIKHURD",
    "lat": 23.8242362,
    "lon": 80.5312657
  },
  {
    "partId": 92170,
    "stateCode": "S12",
    "stateName": "Madhya Pradesh",
    "districtCode": "S1221",
    "districtName": "KATNI",
    "acNumber": 91,
    "acName": "BADWARA",
    "partNumber": 217,
    "partName": "POUDIKHURD",
    "lat": 23.8242362,
    "lon": 80.5312657
  },
  {
    "partId": 91375,
    "stateCode": "S12",
    "stateName": "Madhya Pradesh",
    "districtCode": "S1221",
    "districtName": "KATNI",
    "acNumber": 91,
    "acName": "BADWARA",
    "partNumber": 218,
    "partName": "BARAHI",
    "lat": 23.717639300000002,
    "lon": 80.26101812940934
  },
  {
    "partId": 91376,
    "stateCode": "S12",
    "stateName": "Madhya Pradesh",
    "districtCode": "S1221",
    "districtName": "KATNI",
    "acNumber": 91,
    "acName": "BADWARA",
    "partNumber": 219,
    "partName": "KHAMHA",
    "lat": 23.8242362,
    "lon": 80.5312657
  },
  {
    "partId": 91377,
    "stateCode": "S12",
    "stateName": "Madhya Pradesh",
    "districtCode": "S1221",
    "districtName": "KATNI",
    "acNumber": 91,
    "acName": "BADWARA",
    "partNumber": 220,
    "partName": "KARAHI",
    "lat": 23.8242362,
    "lon": 80.5312657
  },
  {
    "partId": 91378,
    "stateCode": "S12",
    "stateName": "Madhya Pradesh",
    "districtCode": "S1221",
    "districtName": "KATNI",
    "acNumber": 91,
    "acName": "BADWARA",
    "partNumber": 221,
    "partName": "ANTARVED",
    "lat": 23.8242362,
    "lon": 80.5312657
  },
  {
    "partId": 91592,
    "stateCode": "S12",
    "stateName": "Madhya Pradesh",
    "districtCode": "S1221",
    "districtName": "KATNI",
    "acNumber": 91,
    "acName": "BADWARA",
    "partNumber": 222,
    "partName": "ANTARVED",
    "lat": 23.8242362,
    "lon": 80.5312657
  },
  {
    "partId": 91379,
    "stateCode": "S12",
    "stateName": "Madhya Pradesh",
    "districtCode": "S1221",
    "districtName": "KATNI",
    "acNumber": 91,
    "acName": "BADWARA",
    "partNumber": 223,
    "partName": "ANTARAVED",
    "lat": 23.717639300000002,
    "lon": 80.26101812940934
  },
  {
    "partId": 91380,
    "stateCode": "S12",
    "stateName": "Madhya Pradesh",
    "districtCode": "S1221",
    "districtName": "KATNI",
    "acNumber": 91,
    "acName": "BADWARA",
    "partNumber": 224,
    "partName": "MURVARI",
    "lat": 23.8242362,
    "lon": 80.5312657
  },
  {
    "partId": 91634,
    "stateCode": "S12",
    "stateName": "Madhya Pradesh",
    "districtCode": "S1221",
    "districtName": "KATNI",
    "acNumber": 91,
    "acName": "BADWARA",
    "partNumber": 225,
    "partName": "MURVARI",
    "lat": 23.8242362,
    "lon": 80.5312657
  },
  {
    "partId": 91381,
    "stateCode": "S12",
    "stateName": "Madhya Pradesh",
    "districtCode": "S1221",
    "districtName": "KATNI",
    "acNumber": 91,
    "acName": "BADWARA",
    "partNumber": 226,
    "partName": "MURVARI",
    "lat": 23.8242362,
    "lon": 80.5312657
  },
  {
    "partId": 91382,
    "stateCode": "S12",
    "stateName": "Madhya Pradesh",
    "districtCode": "S1221",
    "districtName": "KATNI",
    "acNumber": 91,
    "acName": "BADWARA",
    "partNumber": 227,
    "partName": "SANKUI",
    "lat": 23.65086195,
    "lon": 80.0308851829461
  },
  {
    "partId": 91383,
    "stateCode": "S12",
    "stateName": "Madhya Pradesh",
    "districtCode": "S1221",
    "districtName": "KATNI",
    "acNumber": 91,
    "acName": "BADWARA",
    "partNumber": 228,
    "partName": "SANAKUI",
    "lat": 23.717639300000002,
    "lon": 80.26101812940934
  },
  {
    "partId": 91384,
    "stateCode": "S12",
    "stateName": "Madhya Pradesh",
    "districtCode": "S1221",
    "districtName": "KATNI",
    "acNumber": 91,
    "acName": "BADWARA",
    "partNumber": 229,
    "partName": "DEVARI",
    "lat": 23.55309085,
    "lon": 80.54504796834532
  },
  {
    "partId": 91385,
    "stateCode": "S12",
    "stateName": "Madhya Pradesh",
    "districtCode": "S1221",
    "districtName": "KATNI",
    "acNumber": 91,
    "acName": "BADWARA",
    "partNumber": 230,
    "partName": "DHIMARKHEDA",
    "lat": 23.486627,
    "lon": 80.39034751442719
  },
  {
    "partId": 91591,
    "stateCode": "S12",
    "stateName": "Madhya Pradesh",
    "districtCode": "S1221",
    "districtName": "KATNI",
    "acNumber": 91,
    "acName": "BADWARA",
    "partNumber": 231,
    "partName": "DHIMARKHEDA",
    "lat": 23.486627,
    "lon": 80.39034751442719
  },
  {
    "partId": 91386,
    "stateCode": "S12",
    "stateName": "Madhya Pradesh",
    "districtCode": "S1221",
    "districtName": "KATNI",
    "acNumber": 91,
    "acName": "BADWARA",
    "partNumber": 232,
    "partName": "BARELI(RAMPURA)",
    "lat": 23.8242362,
    "lon": 80.5312657
  },
  {
    "partId": 92165,
    "stateCode": "S12",
    "stateName": "Madhya Pradesh",
    "districtCode": "S1221",
    "districtName": "KATNI",
    "acNumber": 91,
    "acName": "BADWARA",
    "partNumber": 233,
    "partName": "RAMPUR (BARELI)",
    "lat": 23.8242362,
    "lon": 80.5312657
  },
  {
    "partId": 91387,
    "stateCode": "S12",
    "stateName": "Madhya Pradesh",
    "districtCode": "S1221",
    "districtName": "KATNI",
    "acNumber": 91,
    "acName": "BADWARA",
    "partNumber": 234,
    "partName": "PINDRAI",
    "lat": 23.8242362,
    "lon": 80.5312657
  },
  {
    "partId": 91603,
    "stateCode": "S12",
    "stateName": "Madhya Pradesh",
    "districtCode": "S1221",
    "districtName": "KATNI",
    "acNumber": 91,
    "acName": "BADWARA",
    "partNumber": 235,
    "partName": "PIDARAI",
    "lat": 23.8242362,
    "lon": 80.5312657
  },
  {
    "partId": 91388,
    "stateCode": "S12",
    "stateName": "Madhya Pradesh",
    "districtCode": "S1221",
    "districtName": "KATNI",
    "acNumber": 91,
    "acName": "BADWARA",
    "partNumber": 236,
    "partName": "PIPARIYA",
    "lat": 23.706947550000002,
    "lon": 80.6637326472934
  },
  {
    "partId": 91389,
    "stateCode": "S12",
    "stateName": "Madhya Pradesh",
    "districtCode": "S1221",
    "districtName": "KATNI",
    "acNumber": 91,
    "acName": "BADWARA",
    "partNumber": 237,
    "partName": "TILAMAN",
    "lat": 23.8242362,
    "lon": 80.5312657
  },
  {
    "partId": 91390,
    "stateCode": "S12",
    "stateName": "Madhya Pradesh",
    "districtCode": "S1221",
    "districtName": "KATNI",
    "acNumber": 91,
    "acName": "BADWARA",
    "partNumber": 238,
    "partName": "BANDH",
    "lat": 23.475863699999998,
    "lon": 80.41685752251038
  },
  {
    "partId": 91391,
    "stateCode": "S12",
    "stateName": "Madhya Pradesh",
    "districtCode": "S1221",
    "districtName": "KATNI",
    "acNumber": 91,
    "acName": "BADWARA",
    "partNumber": 239,
    "partName": "SAGOUNA",
    "lat": 23.8242362,
    "lon": 80.5312657
  },
  {
    "partId": 92180,
    "stateCode": "S12",
    "stateName": "Madhya Pradesh",
    "districtCode": "S1221",
    "districtName": "KATNI",
    "acNumber": 91,
    "acName": "BADWARA",
    "partNumber": 240,
    "partName": "HARRAI",
    "lat": 23.741692800000003,
    "lon": 80.7815017782655
  },
  {
    "partId": 91392,
    "stateCode": "S12",
    "stateName": "Madhya Pradesh",
    "districtCode": "S1221",
    "districtName": "KATNI",
    "acNumber": 91,
    "acName": "BADWARA",
    "partNumber": 241,
    "partName": "PIPARIYA(JHI)",
    "lat": 23.8242362,
    "lon": 80.5312657
  },
  {
    "partId": 92164,
    "stateCode": "S12",
    "stateName": "Madhya Pradesh",
    "districtCode": "S1221",
    "districtName": "KATNI",
    "acNumber": 91,
    "acName": "BADWARA",
    "partNumber": 242,
    "partName": "PIPARIYA(JHI)",
    "lat": 23.8242362,
    "lon": 80.5312657
  },
  {
    "partId": 91393,
    "stateCode": "S12",
    "stateName": "Madhya Pradesh",
    "districtCode": "S1221",
    "districtName": "KATNI",
    "acNumber": 91,
    "acName": "BADWARA",
    "partNumber": 243,
    "partName": "PIPARIYA(JHI0)",
    "lat": 23.8242362,
    "lon": 80.5312657
  },
  {
    "partId": 91639,
    "stateCode": "S12",
    "stateName": "Madhya Pradesh",
    "districtCode": "S1221",
    "districtName": "KATNI",
    "acNumber": 91,
    "acName": "BADWARA",
    "partNumber": 244,
    "partName": "DIYAGADH",
    "lat": 23.8242362,
    "lon": 80.5312657
  },
  {
    "partId": 91394,
    "stateCode": "S12",
    "stateName": "Madhya Pradesh",
    "districtCode": "S1221",
    "districtName": "KATNI",
    "acNumber": 91,
    "acName": "BADWARA",
    "partNumber": 245,
    "partName": "BHAMAKA",
    "lat": 23.8242362,
    "lon": 80.5312657
  },
  {
    "partId": 91638,
    "stateCode": "S12",
    "stateName": "Madhya Pradesh",
    "districtCode": "S1221",
    "districtName": "KATNI",
    "acNumber": 91,
    "acName": "BADWARA",
    "partNumber": 246,
    "partName": "PARSEL",
    "lat": 23.6176704,
    "lon": 80.61557671070898
  },
  {
    "partId": 91395,
    "stateCode": "S12",
    "stateName": "Madhya Pradesh",
    "districtCode": "S1221",
    "districtName": "KATNI",
    "acNumber": 91,
    "acName": "BADWARA",
    "partNumber": 247,
    "partName": "JIRRI",
    "lat": 23.8242362,
    "lon": 80.5312657
  },
  {
    "partId": 91396,
    "stateCode": "S12",
    "stateName": "Madhya Pradesh",
    "districtCode": "S1221",
    "districtName": "KATNI",
    "acNumber": 91,
    "acName": "BADWARA",
    "partNumber": 248,
    "partName": "DIHARI",
    "lat": 23.8242362,
    "lon": 80.5312657
  },
  {
    "partId": 91397,
    "stateCode": "S12",
    "stateName": "Madhya Pradesh",
    "districtCode": "S1221",
    "districtName": "KATNI",
    "acNumber": 91,
    "acName": "BADWARA",
    "partNumber": 249,
    "partName": "BHALAVARA",
    "lat": 23.8242362,
    "lon": 80.5312657
  },
  {
    "partId": 91619,
    "stateCode": "S12",
    "stateName": "Madhya Pradesh",
    "districtCode": "S1221",
    "districtName": "KATNI",
    "acNumber": 91,
    "acName": "BADWARA",
    "partNumber": 250,
    "partName": "KHAMHARIYA",
    "lat": 23.76885465,
    "lon": 79.93418332476324
  },
  {
    "partId": 92169,
    "stateCode": "S12",
    "stateName": "Madhya Pradesh",
    "districtCode": "S1221",
    "districtName": "KATNI",
    "acNumber": 91,
    "acName": "BADWARA",
    "partNumber": 251,
    "partName": "KHAMHARIYA",
    "lat": 23.76885465,
    "lon": 79.93418332476324
  },
  {
    "partId": 91620,
    "stateCode": "S12",
    "stateName": "Madhya Pradesh",
    "districtCode": "S1221",
    "districtName": "KATNI",
    "acNumber": 91,
    "acName": "BADWARA",
    "partNumber": 252,
    "partName": "KHAMHARIYA",
    "lat": 23.76885465,
    "lon": 79.93418332476324
  },
  {
    "partId": 91621,
    "stateCode": "S12",
    "stateName": "Madhya Pradesh",
    "districtCode": "S1221",
    "districtName": "KATNI",
    "acNumber": 91,
    "acName": "BADWARA",
    "partNumber": 253,
    "partName": "AMAJHAL",
    "lat": 23.59126335,
    "lon": 80.59736213500238
  },
  {
    "partId": 91622,
    "stateCode": "S12",
    "stateName": "Madhya Pradesh",
    "districtCode": "S1221",
    "districtName": "KATNI",
    "acNumber": 91,
    "acName": "BADWARA",
    "partNumber": 254,
    "partName": "KUDARA",
    "lat": 23.717639300000002,
    "lon": 80.26101812940934
  },
  {
    "partId": 91623,
    "stateCode": "S12",
    "stateName": "Madhya Pradesh",
    "districtCode": "S1221",
    "districtName": "KATNI",
    "acNumber": 91,
    "acName": "BADWARA",
    "partNumber": 255,
    "partName": "BICHUVA",
    "lat": 23.8242362,
    "lon": 80.5312657
  },
  {
    "partId": 91624,
    "stateCode": "S12",
    "stateName": "Madhya Pradesh",
    "districtCode": "S1221",
    "districtName": "KATNI",
    "acNumber": 91,
    "acName": "BADWARA",
    "partNumber": 256,
    "partName": "PAHARU",
    "lat": 23.717639300000002,
    "lon": 80.26101812940934
  },
  {
    "partId": 91625,
    "stateCode": "S12",
    "stateName": "Madhya Pradesh",
    "districtCode": "S1221",
    "districtName": "KATNI",
    "acNumber": 91,
    "acName": "BADWARA",
    "partNumber": 257,
    "partName": "PAHARU",
    "lat": 23.8242362,
    "lon": 80.5312657
  },
  {
    "partId": 91626,
    "stateCode": "S12",
    "stateName": "Madhya Pradesh",
    "districtCode": "S1221",
    "districtName": "KATNI",
    "acNumber": 91,
    "acName": "BADWARA",
    "partNumber": 258,
    "partName": "KHAMATARA",
    "lat": 23.717639300000002,
    "lon": 80.26101812940934
  },
  {
    "partId": 92139,
    "stateCode": "S12",
    "stateName": "Madhya Pradesh",
    "districtCode": "S1221",
    "districtName": "KATNI",
    "acNumber": 91,
    "acName": "BADWARA",
    "partNumber": 259,
    "partName": "KHAMATARA",
    "lat": 23.8242362,
    "lon": 80.5312657
  },
  {
    "partId": 91559,
    "stateCode": "S12",
    "stateName": "Madhya Pradesh",
    "districtCode": "S1221",
    "districtName": "KATNI",
    "acNumber": 91,
    "acName": "BADWARA",
    "partNumber": 260,
    "partName": "DEVARI (MARWARI)",
    "lat": 23.8242362,
    "lon": 80.5312657
  },
  {
    "partId": 91637,
    "stateCode": "S12",
    "stateName": "Madhya Pradesh",
    "districtCode": "S1221",
    "districtName": "KATNI",
    "acNumber": 91,
    "acName": "BADWARA",
    "partNumber": 261,
    "partName": "SINGHANPURI",
    "lat": 23.528833849999998,
    "lon": 80.54237629864318
  },
  {
    "partId": 91414,
    "stateCode": "S12",
    "stateName": "Madhya Pradesh",
    "districtCode": "S1221",
    "districtName": "KATNI",
    "acNumber": 91,
    "acName": "BADWARA",
    "partNumber": 262,
    "partName": "BHOPAR",
    "lat": 23.505449300000002,
    "lon": 80.53992625689799
  },
  {
    "partId": 91369,
    "stateCode": "S12",
    "stateName": "Madhya Pradesh",
    "districtCode": "S1221",
    "districtName": "KATNI",
    "acNumber": 91,
    "acName": "BADWARA",
    "partNumber": 263,
    "partName": "sarra",
    "lat": 23.481925500000003,
    "lon": 80.53339712251683
  },
  {
    "partId": 91560,
    "stateCode": "S12",
    "stateName": "Madhya Pradesh",
    "districtCode": "S1221",
    "districtName": "KATNI",
    "acNumber": 91,
    "acName": "BADWARA",
    "partNumber": 264,
    "partName": "atariya",
    "lat": 23.47262745,
    "lon": 80.5211139210074
  },
  {
    "partId": 91561,
    "stateCode": "S12",
    "stateName": "Madhya Pradesh",
    "districtCode": "S1221",
    "districtName": "KATNI",
    "acNumber": 91,
    "acName": "BADWARA",
    "partNumber": 265,
    "partName": "KATARIYA",
    "lat": 23.8242362,
    "lon": 80.5312657
  },
  {
    "partId": 91562,
    "stateCode": "S12",
    "stateName": "Madhya Pradesh",
    "districtCode": "S1221",
    "districtName": "KATNI",
    "acNumber": 91,
    "acName": "BADWARA",
    "partNumber": 266,
    "partName": "SARAI",
    "lat": 23.717639300000002,
    "lon": 80.26101812940934
  },
  {
    "partId": 91563,
    "stateCode": "S12",
    "stateName": "Madhya Pradesh",
    "districtCode": "S1221",
    "districtName": "KATNI",
    "acNumber": 91,
    "acName": "BADWARA",
    "partNumber": 267,
    "partName": "MAHAGAVAN",
    "lat": 23.8242362,
    "lon": 80.5312657
  },
  {
    "partId": 92181,
    "stateCode": "S12",
    "stateName": "Madhya Pradesh",
    "districtCode": "S1221",
    "districtName": "KATNI",
    "acNumber": 91,
    "acName": "BADWARA",
    "partNumber": 268,
    "partName": "CHHAHAR",
    "lat": 23.4117053,
    "lon": 80.50997425759992
  },
  {
    "partId": 91564,
    "stateCode": "S12",
    "stateName": "Madhya Pradesh",
    "districtCode": "S1221",
    "districtName": "KATNI",
    "acNumber": 91,
    "acName": "BADWARA",
    "partNumber": 269,
    "partName": "DAIGAVA",
    "lat": 23.8242362,
    "lon": 80.5312657
  },
  {
    "partId": 91565,
    "stateCode": "S12",
    "stateName": "Madhya Pradesh",
    "districtCode": "S1221",
    "districtName": "KATNI",
    "acNumber": 91,
    "acName": "BADWARA",
    "partNumber": 270,
    "partName": "MAJHAGAVAN",
    "lat": 23.8242362,
    "lon": 80.5312657
  },
  {
    "partId": 91566,
    "stateCode": "S12",
    "stateName": "Madhya Pradesh",
    "districtCode": "S1221",
    "districtName": "KATNI",
    "acNumber": 91,
    "acName": "BADWARA",
    "partNumber": 271,
    "partName": "KOTHI",
    "lat": 23.44014155,
    "lon": 80.46156169668748
  },
  {
    "partId": 91627,
    "stateCode": "S12",
    "stateName": "Madhya Pradesh",
    "districtCode": "S1221",
    "districtName": "KATNI",
    "acNumber": 91,
    "acName": "BADWARA",
    "partNumber": 272,
    "partName": "DADARASIHUDI",
    "lat": 23.8242362,
    "lon": 80.5312657
  },
  {
    "partId": 91628,
    "stateCode": "S12",
    "stateName": "Madhya Pradesh",
    "districtCode": "S1221",
    "districtName": "KATNI",
    "acNumber": 91,
    "acName": "BADWARA",
    "partNumber": 273,
    "partName": "BHAISAVAHI",
    "lat": 23.8242362,
    "lon": 80.5312657
  },
  {
    "partId": 91600,
    "stateCode": "S12",
    "stateName": "Madhya Pradesh",
    "districtCode": "S1221",
    "districtName": "KATNI",
    "acNumber": 91,
    "acName": "BADWARA",
    "partNumber": 274,
    "partName": "GUDA",
    "lat": 23.680581699999998,
    "lon": 80.5345272307878
  },
  {
    "partId": 91629,
    "stateCode": "S12",
    "stateName": "Madhya Pradesh",
    "districtCode": "S1221",
    "districtName": "KATNI",
    "acNumber": 91,
    "acName": "BADWARA",
    "partNumber": 275,
    "partName": "GOPALAPUR",
    "lat": 23.8242362,
    "lon": 80.5312657
  },
  {
    "partId": 91636,
    "stateCode": "S12",
    "stateName": "Madhya Pradesh",
    "districtCode": "S1221",
    "districtName": "KATNI",
    "acNumber": 91,
    "acName": "BADWARA",
    "partNumber": 276,
    "partName": "hardua",
    "lat": 24.041513100000003,
    "lon": 80.88164194862057
  },
  {
    "partId": 91630,
    "stateCode": "S12",
    "stateName": "Madhya Pradesh",
    "districtCode": "S1221",
    "districtName": "KATNI",
    "acNumber": 91,
    "acName": "BADWARA",
    "partNumber": 277,
    "partName": "GHANA",
    "lat": 23.394940650000002,
    "lon": 80.35064203179442
  },
  {
    "partId": 91582,
    "stateCode": "S12",
    "stateName": "Madhya Pradesh",
    "districtCode": "S1221",
    "districtName": "KATNI",
    "acNumber": 91,
    "acName": "BADWARA",
    "partNumber": 278,
    "partName": "DASHARAMAN",
    "lat": 23.8242362,
    "lon": 80.5312657
  },
  {
    "partId": 92163,
    "stateCode": "S12",
    "stateName": "Madhya Pradesh",
    "districtCode": "S1221",
    "districtName": "KATNI",
    "acNumber": 91,
    "acName": "BADWARA",
    "partNumber": 279,
    "partName": "DASHARAMAN",
    "lat": 23.8242362,
    "lon": 80.5312657
  },
  {
    "partId": 91398,
    "stateCode": "S12",
    "stateName": "Madhya Pradesh",
    "districtCode": "S1221",
    "districtName": "KATNI",
    "acNumber": 91,
    "acName": "BADWARA",
    "partNumber": 280,
    "partName": "DASHARAMAN",
    "lat": 23.8242362,
    "lon": 80.5312657
  },
  {
    "partId": 91635,
    "stateCode": "S12",
    "stateName": "Madhya Pradesh",
    "districtCode": "S1221",
    "districtName": "KATNI",
    "acNumber": 91,
    "acName": "BADWARA",
    "partNumber": 281,
    "partName": "DASHARAMAN",
    "lat": 23.8242362,
    "lon": 80.5312657
  },
  {
    "partId": 91399,
    "stateCode": "S12",
    "stateName": "Madhya Pradesh",
    "districtCode": "S1221",
    "districtName": "KATNI",
    "acNumber": 91,
    "acName": "BADWARA",
    "partNumber": 282,
    "partName": "SUNARAKHEDA",
    "lat": 23.8242362,
    "lon": 80.5312657
  },
  {
    "partId": 91400,
    "stateCode": "S12",
    "stateName": "Madhya Pradesh",
    "districtCode": "S1221",
    "districtName": "KATNI",
    "acNumber": 91,
    "acName": "BADWARA",
    "partNumber": 283,
    "partName": "KANJIYA",
    "lat": 23.717639300000002,
    "lon": 80.26101812940934
  },
  {
    "partId": 91401,
    "stateCode": "S12",
    "stateName": "Madhya Pradesh",
    "districtCode": "S1221",
    "districtName": "KATNI",
    "acNumber": 91,
    "acName": "BADWARA",
    "partNumber": 284,
    "partName": "IMALAI",
    "lat": 23.8242362,
    "lon": 80.5312657
  },
  {
    "partId": 91402,
    "stateCode": "S12",
    "stateName": "Madhya Pradesh",
    "districtCode": "S1221",
    "districtName": "KATNI",
    "acNumber": 91,
    "acName": "BADWARA",
    "partNumber": 285,
    "partName": "KUNSARI",
    "lat": 23.3536165,
    "lon": 80.30750163414767
  },
  {
    "partId": 91403,
    "stateCode": "S12",
    "stateName": "Madhya Pradesh",
    "districtCode": "S1221",
    "districtName": "KATNI",
    "acNumber": 91,
    "acName": "BADWARA",
    "partNumber": 286,
    "partName": "BARAHATA  (GADA)",
    "lat": 23.8242362,
    "lon": 80.5312657
  },
  {
    "partId": 91404,
    "stateCode": "S12",
    "stateName": "Madhya Pradesh",
    "districtCode": "S1221",
    "districtName": "KATNI",
    "acNumber": 91,
    "acName": "BADWARA",
    "partNumber": 287,
    "partName": "KHAMHARIYA",
    "lat": 23.76885465,
    "lon": 79.93418332476324
  },
  {
    "partId": 91405,
    "stateCode": "S12",
    "stateName": "Madhya Pradesh",
    "districtCode": "S1221",
    "districtName": "KATNI",
    "acNumber": 91,
    "acName": "BADWARA",
    "partNumber": 288,
    "partName": "GOURA",
    "lat": 23.717639300000002,
    "lon": 80.26101812940934
  },
  {
    "partId": 91406,
    "stateCode": "S12",
    "stateName": "Madhya Pradesh",
    "districtCode": "S1221",
    "districtName": "KATNI",
    "acNumber": 91,
    "acName": "BADWARA",
    "partNumber": 289,
    "partName": "ITOULI",
    "lat": 23.8242362,
    "lon": 80.5312657
  },
  {
    "partId": 91407,
    "stateCode": "S12",
    "stateName": "Madhya Pradesh",
    "districtCode": "S1221",
    "districtName": "KATNI",
    "acNumber": 91,
    "acName": "BADWARA",
    "partNumber": 290,
    "partName": "KACHHARAGANVA(BADA)",
    "lat": 23.8242362,
    "lon": 80.5312657
  },
  {
    "partId": 92162,
    "stateCode": "S12",
    "stateName": "Madhya Pradesh",
    "districtCode": "S1221",
    "districtName": "KATNI",
    "acNumber": 91,
    "acName": "BADWARA",
    "partNumber": 291,
    "partName": "KACHHARAGANVA(BADA)",
    "lat": 23.8242362,
    "lon": 80.5312657
  },
  {
    "partId": 91408,
    "stateCode": "S12",
    "stateName": "Madhya Pradesh",
    "districtCode": "S1221",
    "districtName": "KATNI",
    "acNumber": 91,
    "acName": "BADWARA",
    "partNumber": 292,
    "partName": "KACHHARAGANVA(BADA)",
    "lat": 23.8242362,
    "lon": 80.5312657
  },
  {
    "partId": 91409,
    "stateCode": "S12",
    "stateName": "Madhya Pradesh",
    "districtCode": "S1221",
    "districtName": "KATNI",
    "acNumber": 91,
    "acName": "BADWARA",
    "partNumber": 293,
    "partName": "HALKA",
    "lat": 23.3144655,
    "lon": 80.35840539394002
  },
  {
    "partId": 91410,
    "stateCode": "S12",
    "stateName": "Madhya Pradesh",
    "districtCode": "S1221",
    "districtName": "KATNI",
    "acNumber": 91,
    "acName": "BADWARA",
    "partNumber": 294,
    "partName": "SILOUNDI",
    "lat": 23.717639300000002,
    "lon": 80.26101812940934
  },
  {
    "partId": 91411,
    "stateCode": "S12",
    "stateName": "Madhya Pradesh",
    "districtCode": "S1221",
    "districtName": "KATNI",
    "acNumber": 91,
    "acName": "BADWARA",
    "partNumber": 295,
    "partName": "SILOUNDI",
    "lat": 23.717639300000002,
    "lon": 80.26101812940934
  },
  {
    "partId": 91412,
    "stateCode": "S12",
    "stateName": "Madhya Pradesh",
    "districtCode": "S1221",
    "districtName": "KATNI",
    "acNumber": 91,
    "acName": "BADWARA",
    "partNumber": 296,
    "partName": "SILOUNDI",
    "lat": 23.8242362,
    "lon": 80.5312657
  },
  {
    "partId": 92161,
    "stateCode": "S12",
    "stateName": "Madhya Pradesh",
    "districtCode": "S1221",
    "districtName": "KATNI",
    "acNumber": 91,
    "acName": "BADWARA",
    "partNumber": 297,
    "partName": "SILOUNDI",
    "lat": 23.8242362,
    "lon": 80.5312657
  },
  {
    "partId": 91599,
    "stateCode": "S12",
    "stateName": "Madhya Pradesh",
    "districtCode": "S1221",
    "districtName": "KATNI",
    "acNumber": 91,
    "acName": "BADWARA",
    "partNumber": 298,
    "partName": "ATARASUMA",
    "lat": 23.8242362,
    "lon": 80.5312657
  },
  {
    "partId": 91595,
    "stateCode": "S12",
    "stateName": "Madhya Pradesh",
    "districtCode": "S1221",
    "districtName": "KATNI",
    "acNumber": 91,
    "acName": "BADWARA",
    "partNumber": 299,
    "partName": "LALAPUR",
    "lat": 23.8242362,
    "lon": 80.5312657
  },
  {
    "partId": 91596,
    "stateCode": "S12",
    "stateName": "Madhya Pradesh",
    "districtCode": "S1221",
    "districtName": "KATNI",
    "acNumber": 91,
    "acName": "BADWARA",
    "partNumber": 300,
    "partName": "PALI",
    "lat": 23.7346097,
    "lon": 80.17616742095862
  },
  {
    "partId": 91597,
    "stateCode": "S12",
    "stateName": "Madhya Pradesh",
    "districtCode": "S1221",
    "districtName": "KATNI",
    "acNumber": 91,
    "acName": "BADWARA",
    "partNumber": 301,
    "partName": "TILAMAN",
    "lat": 23.8242362,
    "lon": 80.5312657
  },
  {
    "partId": 91598,
    "stateCode": "S12",
    "stateName": "Madhya Pradesh",
    "districtCode": "S1221",
    "districtName": "KATNI",
    "acNumber": 91,
    "acName": "BADWARA",
    "partNumber": 302,
    "partName": "NEGAI",
    "lat": 23.35646945,
    "lon": 80.38926527074904
  },
  {
    "partId": 49581,
    "stateCode": "S12",
    "stateName": "Madhya Pradesh",
    "districtCode": "S1221",
    "districtName": "KATNI",
    "acNumber": 94,
    "acName": "BAHORIBAND",
    "partNumber": 1,
    "partName": "GODANA",
    "lat": 23.965958399999998,
    "lon": 80.0295388882009
  },
  {
    "partId": 43690,
    "stateCode": "S12",
    "stateName": "Madhya Pradesh",
    "districtCode": "S1221",
    "districtName": "KATNI",
    "acNumber": 94,
    "acName": "BAHORIBAND",
    "partNumber": 2,
    "partName": "GODANA",
    "lat": 23.965958399999998,
    "lon": 80.0295388882009
  },
  {
    "partId": 49583,
    "stateCode": "S12",
    "stateName": "Madhya Pradesh",
    "districtCode": "S1221",
    "districtName": "KATNI",
    "acNumber": 94,
    "acName": "BAHORIBAND",
    "partNumber": 3,
    "partName": "NAYAKHEDA",
    "lat": 23.717639300000002,
    "lon": 80.26101812940934
  },
  {
    "partId": 49588,
    "stateCode": "S12",
    "stateName": "Madhya Pradesh",
    "districtCode": "S1221",
    "districtName": "KATNI",
    "acNumber": 94,
    "acName": "BAHORIBAND",
    "partNumber": 4,
    "partName": "KATHOUTIYA",
    "lat": 23.7028073,
    "lon": 79.98252351476123
  },
  {
    "partId": 49591,
    "stateCode": "S12",
    "stateName": "Madhya Pradesh",
    "districtCode": "S1221",
    "districtName": "KATNI",
    "acNumber": 94,
    "acName": "BAHORIBAND",
    "partNumber": 5,
    "partName": "KARAHIYA",
    "lat": 23.7028073,
    "lon": 79.98252351476123
  },
  {
    "partId": 59937,
    "stateCode": "S12",
    "stateName": "Madhya Pradesh",
    "districtCode": "S1221",
    "districtName": "KATNI",
    "acNumber": 94,
    "acName": "BAHORIBAND",
    "partNumber": 6,
    "partName": "SIMADARI",
    "lat": 23.7028073,
    "lon": 79.98252351476123
  },
  {
    "partId": 59938,
    "stateCode": "S12",
    "stateName": "Madhya Pradesh",
    "districtCode": "S1221",
    "districtName": "KATNI",
    "acNumber": 94,
    "acName": "BAHORIBAND",
    "partNumber": 7,
    "partName": "MAJHAGAVAN",
    "lat": 23.7028073,
    "lon": 79.98252351476123
  },
  {
    "partId": 59939,
    "stateCode": "S12",
    "stateName": "Madhya Pradesh",
    "districtCode": "S1221",
    "districtName": "KATNI",
    "acNumber": 94,
    "acName": "BAHORIBAND",
    "partNumber": 8,
    "partName": "KHAMH",
    "lat": 23.717639300000002,
    "lon": 80.26101812940934
  },
  {
    "partId": 59940,
    "stateCode": "S12",
    "stateName": "Madhya Pradesh",
    "districtCode": "S1221",
    "districtName": "KATNI",
    "acNumber": 94,
    "acName": "BAHORIBAND",
    "partNumber": 9,
    "partName": "PATEHARA",
    "lat": 23.920014000000002,
    "lon": 80.10187448911671
  },
  {
    "partId": 59941,
    "stateCode": "S12",
    "stateName": "Madhya Pradesh",
    "districtCode": "S1221",
    "districtName": "KATNI",
    "acNumber": 94,
    "acName": "BAHORIBAND",
    "partNumber": 10,
    "partName": "BHARATPUR",
    "lat": 23.9139652,
    "lon": 80.0775879376867
  },
  {
    "partId": 59942,
    "stateCode": "S12",
    "stateName": "Madhya Pradesh",
    "districtCode": "S1221",
    "districtName": "KATNI",
    "acNumber": 94,
    "acName": "BAHORIBAND",
    "partNumber": 11,
    "partName": "RUDAMUD",
    "lat": 23.7028073,
    "lon": 79.98252351476123
  },
  {
    "partId": 2072,
    "stateCode": "S12",
    "stateName": "Madhya Pradesh",
    "districtCode": "S1221",
    "districtName": "KATNI",
    "acNumber": 94,
    "acName": "BAHORIBAND",
    "partNumber": 12,
    "partName": "BHadanpur",
    "lat": 23.5750258,
    "lon": 80.3780705381815
  },
  {
    "partId": 63262,
    "stateCode": "S12",
    "stateName": "Madhya Pradesh",
    "districtCode": "S1221",
    "districtName": "KATNI",
    "acNumber": 94,
    "acName": "BAHORIBAND",
    "partNumber": 13,
    "partName": "BHEDA",
    "lat": 23.7028073,
    "lon": 79.98252351476123
  },
  {
    "partId": 59943,
    "stateCode": "S12",
    "stateName": "Madhya Pradesh",
    "districtCode": "S1221",
    "districtName": "KATNI",
    "acNumber": 94,
    "acName": "BAHORIBAND",
    "partNumber": 14,
    "partName": "BADAGANV",
    "lat": 23.717639300000002,
    "lon": 80.26101812940934
  },
  {
    "partId": 49578,
    "stateCode": "S12",
    "stateName": "Madhya Pradesh",
    "districtCode": "S1221",
    "districtName": "KATNI",
    "acNumber": 94,
    "acName": "BAHORIBAND",
    "partNumber": 15,
    "partName": "BADAGANV",
    "lat": 23.7028073,
    "lon": 79.98252351476123
  },
  {
    "partId": 59944,
    "stateCode": "S12",
    "stateName": "Madhya Pradesh",
    "districtCode": "S1221",
    "districtName": "KATNI",
    "acNumber": 94,
    "acName": "BAHORIBAND",
    "partNumber": 16,
    "partName": "BADAGANV",
    "lat": 23.7028073,
    "lon": 79.98252351476123
  },
  {
    "partId": 59945,
    "stateCode": "S12",
    "stateName": "Madhya Pradesh",
    "districtCode": "S1221",
    "districtName": "KATNI",
    "acNumber": 94,
    "acName": "BAHORIBAND",
    "partNumber": 17,
    "partName": "BADAGANV",
    "lat": 23.7028073,
    "lon": 79.98252351476123
  },
  {
    "partId": 49577,
    "stateCode": "S12",
    "stateName": "Madhya Pradesh",
    "districtCode": "S1221",
    "districtName": "KATNI",
    "acNumber": 94,
    "acName": "BAHORIBAND",
    "partNumber": 18,
    "partName": "BADAGANV",
    "lat": 23.7028073,
    "lon": 79.98252351476123
  },
  {
    "partId": 59946,
    "stateCode": "S12",
    "stateName": "Madhya Pradesh",
    "districtCode": "S1221",
    "districtName": "KATNI",
    "acNumber": 94,
    "acName": "BAHORIBAND",
    "partNumber": 19,
    "partName": "DEVARIKHURD",
    "lat": 23.717639300000002,
    "lon": 80.26101812940934
  },
  {
    "partId": 43684,
    "stateCode": "S12",
    "stateName": "Madhya Pradesh",
    "districtCode": "S1221",
    "districtName": "KATNI",
    "acNumber": 94,
    "acName": "BAHORIBAND",
    "partNumber": 20,
    "partName": "LAATPAHADI",
    "lat": 23.7028073,
    "lon": 79.98252351476123
  },
  {
    "partId": 59947,
    "stateCode": "S12",
    "stateName": "Madhya Pradesh",
    "districtCode": "S1221",
    "districtName": "KATNI",
    "acNumber": 94,
    "acName": "BAHORIBAND",
    "partNumber": 21,
    "partName": "BARAJI",
    "lat": 23.7028073,
    "lon": 79.98252351476123
  },
  {
    "partId": 46545,
    "stateCode": "S12",
    "stateName": "Madhya Pradesh",
    "districtCode": "S1221",
    "districtName": "KATNI",
    "acNumber": 94,
    "acName": "BAHORIBAND",
    "partNumber": 22,
    "partName": "BARAJI",
    "lat": 23.7028073,
    "lon": 79.98252351476123
  },
  {
    "partId": 59948,
    "stateCode": "S12",
    "stateName": "Madhya Pradesh",
    "districtCode": "S1221",
    "districtName": "KATNI",
    "acNumber": 94,
    "acName": "BAHORIBAND",
    "partNumber": 23,
    "partName": "TIGHARAKALA",
    "lat": 23.7028073,
    "lon": 79.98252351476123
  },
  {
    "partId": 59949,
    "stateCode": "S12",
    "stateName": "Madhya Pradesh",
    "districtCode": "S1221",
    "districtName": "KATNI",
    "acNumber": 94,
    "acName": "BAHORIBAND",
    "partNumber": 24,
    "partName": "GURAJIKALA",
    "lat": 23.7028073,
    "lon": 79.98252351476123
  },
  {
    "partId": 2071,
    "stateCode": "S12",
    "stateName": "Madhya Pradesh",
    "districtCode": "S1221",
    "districtName": "KATNI",
    "acNumber": 94,
    "acName": "BAHORIBAND",
    "partNumber": 25,
    "partName": "GURAJIKALA",
    "lat": 23.7028073,
    "lon": 79.98252351476123
  },
  {
    "partId": 59950,
    "stateCode": "S12",
    "stateName": "Madhya Pradesh",
    "districtCode": "S1221",
    "districtName": "KATNI",
    "acNumber": 94,
    "acName": "BAHORIBAND",
    "partNumber": 26,
    "partName": "AMAGAVAN",
    "lat": 23.717639300000002,
    "lon": 80.26101812940934
  },
  {
    "partId": 59951,
    "stateCode": "S12",
    "stateName": "Madhya Pradesh",
    "districtCode": "S1221",
    "districtName": "KATNI",
    "acNumber": 94,
    "acName": "BAHORIBAND",
    "partNumber": 27,
    "partName": "AMAGAVAN",
    "lat": 23.7028073,
    "lon": 79.98252351476123
  },
  {
    "partId": 39622,
    "stateCode": "S12",
    "stateName": "Madhya Pradesh",
    "districtCode": "S1221",
    "districtName": "KATNI",
    "acNumber": 94,
    "acName": "BAHORIBAND",
    "partNumber": 28,
    "partName": "AMAGAVAN",
    "lat": 23.7028073,
    "lon": 79.98252351476123
  },
  {
    "partId": 59952,
    "stateCode": "S12",
    "stateName": "Madhya Pradesh",
    "districtCode": "S1221",
    "districtName": "KATNI",
    "acNumber": 94,
    "acName": "BAHORIBAND",
    "partNumber": 29,
    "partName": "PALI",
    "lat": 23.7346097,
    "lon": 80.17616742095862
  },
  {
    "partId": 59953,
    "stateCode": "S12",
    "stateName": "Madhya Pradesh",
    "districtCode": "S1221",
    "districtName": "KATNI",
    "acNumber": 94,
    "acName": "BAHORIBAND",
    "partNumber": 30,
    "partName": "LALAPURA",
    "lat": 23.7028073,
    "lon": 79.98252351476123
  },
  {
    "partId": 59954,
    "stateCode": "S12",
    "stateName": "Madhya Pradesh",
    "districtCode": "S1221",
    "districtName": "KATNI",
    "acNumber": 94,
    "acName": "BAHORIBAND",
    "partNumber": 31,
    "partName": "CHARAGAVAN",
    "lat": 23.7028073,
    "lon": 79.98252351476123
  },
  {
    "partId": 59955,
    "stateCode": "S12",
    "stateName": "Madhya Pradesh",
    "districtCode": "S1221",
    "districtName": "KATNI",
    "acNumber": 94,
    "acName": "BAHORIBAND",
    "partNumber": 32,
    "partName": "BAKALEHATA",
    "lat": 23.7028073,
    "lon": 79.98252351476123
  },
  {
    "partId": 59956,
    "stateCode": "S12",
    "stateName": "Madhya Pradesh",
    "districtCode": "S1221",
    "districtName": "KATNI",
    "acNumber": 94,
    "acName": "BAHORIBAND",
    "partNumber": 33,
    "partName": "KAINA",
    "lat": 23.87655325,
    "lon": 80.08401518307019
  },
  {
    "partId": 59957,
    "stateCode": "S12",
    "stateName": "Madhya Pradesh",
    "districtCode": "S1221",
    "districtName": "KATNI",
    "acNumber": 94,
    "acName": "BAHORIBAND",
    "partNumber": 34,
    "partName": "NAIGAVAN",
    "lat": 23.7028073,
    "lon": 79.98252351476123
  },
  {
    "partId": 59958,
    "stateCode": "S12",
    "stateName": "Madhya Pradesh",
    "districtCode": "S1221",
    "districtName": "KATNI",
    "acNumber": 94,
    "acName": "BAHORIBAND",
    "partNumber": 35,
    "partName": "CHIRUHALA",
    "lat": 23.717639300000002,
    "lon": 80.26101812940934
  },
  {
    "partId": 43666,
    "stateCode": "S12",
    "stateName": "Madhya Pradesh",
    "districtCode": "S1221",
    "districtName": "KATNI",
    "acNumber": 94,
    "acName": "BAHORIBAND",
    "partNumber": 36,
    "partName": "VASUDHA",
    "lat": 23.7028073,
    "lon": 79.98252351476123
  },
  {
    "partId": 43667,
    "stateCode": "S12",
    "stateName": "Madhya Pradesh",
    "districtCode": "S1221",
    "districtName": "KATNI",
    "acNumber": 94,
    "acName": "BAHORIBAND",
    "partNumber": 37,
    "partName": "TIHAKARI",
    "lat": 23.7028073,
    "lon": 79.98252351476123
  },
  {
    "partId": 43668,
    "stateCode": "S12",
    "stateName": "Madhya Pradesh",
    "districtCode": "S1221",
    "districtName": "KATNI",
    "acNumber": 94,
    "acName": "BAHORIBAND",
    "partNumber": 38,
    "partName": "UMARIYA",
    "lat": 23.8930532,
    "lon": 80.09378853156542
  },
  {
    "partId": 39623,
    "stateCode": "S12",
    "stateName": "Madhya Pradesh",
    "districtCode": "S1221",
    "districtName": "KATNI",
    "acNumber": 94,
    "acName": "BAHORIBAND",
    "partNumber": 39,
    "partName": "MUHAS",
    "lat": 23.7028073,
    "lon": 79.98252351476123
  },