[
  {
    "partId": 99745,
    "stateCode": "S12",
    "stateName": "Madhya Pradesh",
    "districtCode": "S1227",
    "districtName": "NARSINGHPUR",
    "acNumber": 121,
    "acName": "GADARWARA",
    "partNumber": 1,
    "partName": "SANDUK",
    "lat": 22.99726185,
    "lon": 78.46587330097228
  },
  {
    "partId": 99763,
    "stateCode": "S12",
    "stateName": "Madhya Pradesh",
    "districtCode": "S1227",
    "districtName": "NARSINGHPUR",
    "acNumber": 121,
    "acName": "GADARWARA",
    "partNumber": 2,
    "partName": "SIRSIRI",
    "lat": 22.985832000000002,
    "lon": 78.47437307435987
  },
  {
    "partId": 99743,
    "stateCode": "S12",
    "stateName": "Madhya Pradesh",
    "districtCode": "S1227",
    "districtName": "NARSINGHPUR",
    "acNumber": 121,
    "acName": "GADARWARA",
    "partNumber": 3,
    "partName": "MUAAR",
    "lat": 22.78521615,
    "lon": 78.90150751306021
  },
  {
    "partId": 99785,
    "stateCode": "S12",
    "stateName": "Madhya Pradesh",
    "districtCode": "S1227",
    "districtName": "NARSINGHPUR",
    "acNumber": 121,
    "acName": "GADARWARA",
    "partNumber": 4,
    "partName": "NIVAVAR",
    "lat": 22.78521615,
    "lon": 78.90150751306021
  },
  {
    "partId": 99776,
    "stateCode": "S12",
    "stateName": "Madhya Pradesh",
    "districtCode": "S1227",
    "districtName": "NARSINGHPUR",
    "acNumber": 121,
    "acName": "GADARWARA",
    "partNumber": 5,
    "partName": "MEHARAGAON",
    "lat": 22.78521615,
    "lon": 78.90150751306021
  },
  {
    "partId": 99752,
    "stateCode": "S12",
    "stateName": "Madhya Pradesh",
    "districtCode": "S1227",
    "districtName": "NARSINGHPUR",
    "acNumber": 121,
    "acName": "GADARWARA",
    "partNumber": 6,
    "partName": "MEHARAGAON",
    "lat": 22.78521615,
    "lon": 78.90150751306021
  },
  {
    "partId": 99777,
    "stateCode": "S12",
    "stateName": "Madhya Pradesh",
    "districtCode": "S1227",
    "districtName": "NARSINGHPUR",
    "acNumber": 121,
    "acName": "GADARWARA",
    "partNumber": 7,
    "partName": "SANSARKHEDA",
    "lat": 22.78521615,
    "lon": 78.90150751306021
  },
  {
    "partId": 99778,
    "stateCode": "S12",
    "stateName": "Madhya Pradesh",
    "districtCode": "S1227",
    "districtName": "NARSINGHPUR",
    "acNumber": 121,
    "acName": "GADARWARA",
    "partNumber": 8,
    "partName": "TUMDA",
    "lat": 22.78521615,
    "lon": 78.90150751306021
  },
  {
    "partId": 99786,
    "stateCode": "S12",
    "stateName": "Madhya Pradesh",
    "districtCode": "S1227",
    "districtName": "NARSINGHPUR",
    "acNumber": 121,
    "acName": "GADARWARA",
    "partNumber": 9,
    "partName": "TUMDA",
    "lat": 22.78521615,
    "lon": 78.90150751306021
  },
  {
    "partId": 99867,
    "stateCode": "S12",
    "stateName": "Madhya Pradesh",
    "districtCode": "S1227",
    "districtName": "NARSINGHPUR",
    "acNumber": 121,
    "acName": "GADARWARA",
    "partNumber": 10,
    "partName": "JHIKOLI",
    "lat": 23.0024502,
    "lon": 78.52116339752476
  },
  {
    "partId": 99868,
    "stateCode": "S12",
    "stateName": "Madhya Pradesh",
    "districtCode": "S1227",
    "districtName": "NARSINGHPUR",
    "acNumber": 121,
    "acName": "GADARWARA",
    "partNumber": 11,
    "partName": "KHIRETI",
    "lat": 23.0026023,
    "lon": 78.5446424037891
  },
  {
    "partId": 99869,
    "stateCode": "S12",
    "stateName": "Madhya Pradesh",
    "districtCode": "S1227",
    "districtName": "NARSINGHPUR",
    "acNumber": 121,
    "acName": "GADARWARA",
    "partNumber": 12,
    "partName": "PITRAS",
    "lat": 23.0033234,
    "lon": 78.55920193325159
  },
  {
    "partId": 99876,
    "stateCode": "S12",
    "stateName": "Madhya Pradesh",
    "districtCode": "S1227",
    "districtName": "NARSINGHPUR",
    "acNumber": 121,
    "acName": "GADARWARA",
    "partNumber": 13,
    "partName": "KHAIRUA",
    "lat": 22.986817950000002,
    "lon": 79.04505194646052
  },
  {
    "partId": 99877,
    "stateCode": "S12",
    "stateName": "Madhya Pradesh",
    "districtCode": "S1227",
    "districtName": "NARSINGHPUR",
    "acNumber": 121,
    "acName": "GADARWARA",
    "partNumber": 14,
    "partName": "KELKACHH",
    "lat": 22.78521615,
    "lon": 78.90150751306021
  },
  {
    "partId": 99878,
    "stateCode": "S12",
    "stateName": "Madhya Pradesh",
    "districtCode": "S1227",
    "districtName": "NARSINGHPUR",
    "acNumber": 121,
    "acName": "GADARWARA",
    "partNumber": 15,
    "partName": "SAIKHEDA",
    "lat": 22.9550218,
    "lon": 78.67537424083292
  },
  {
    "partId": 99879,
    "stateCode": "S12",
    "stateName": "Madhya Pradesh",
    "districtCode": "S1227",
    "districtName": "NARSINGHPUR",
    "acNumber": 121,
    "acName": "GADARWARA",
    "partNumber": 16,
    "partName": "SAIKHEDA",
    "lat": 22.9550218,
    "lon": 78.67537424083292
  },
  {
    "partId": 99707,
    "stateCode": "S12",
    "stateName": "Madhya Pradesh",
    "districtCode": "S1227",
    "districtName": "NARSINGHPUR",
    "acNumber": 121,
    "acName": "GADARWARA",
    "partNumber": 17,
    "partName": "SANIKHEDA",
    "lat": 22.78521615,
    "lon": 78.90150751306021
  },
  {
    "partId": 99880,
    "stateCode": "S12",
    "stateName": "Madhya Pradesh",
    "districtCode": "S1227",
    "districtName": "NARSINGHPUR",
    "acNumber": 121,
    "acName": "GADARWARA",
    "partNumber": 18,
    "partName": "SAIKHEDA",
    "lat": 22.9550218,
    "lon": 78.67537424083292
  },
  {
    "partId": 99796,
    "stateCode": "S12",
    "stateName": "Madhya Pradesh",
    "districtCode": "S1227",
    "districtName": "NARSINGHPUR",
    "acNumber": 121,
    "acName": "GADARWARA",
    "partNumber": 19,
    "partName": "SAIKHEDA",
    "lat": 22.9550218,
    "lon": 78.67537424083292
  },
  {
    "partId": 99881,
    "stateCode": "S12",
    "stateName": "Madhya Pradesh",
    "districtCode": "S1227",
    "districtName": "NARSINGHPUR",
    "acNumber": 121,
    "acName": "GADARWARA",
    "partNumber": 20,
    "partName": "SANIKHEDA",
    "lat": 22.78521615,
    "lon": 78.90150751306021
  },
  {
    "partId": 99795,
    "stateCode": "S12",
    "stateName": "Madhya Pradesh",
    "districtCode": "S1227",
    "districtName": "NARSINGHPUR",
    "acNumber": 121,
    "acName": "GADARWARA",
    "partNumber": 21,
    "partName": "SANIKHEDA",
    "lat": 22.78521615,
    "lon": 78.90150751306021
  },
  {
    "partId": 99882,
    "stateCode": "S12",
    "stateName": "Madhya Pradesh",
    "districtCode": "S1227",
    "districtName": "NARSINGHPUR",
    "acNumber": 121,
    "acName": "GADARWARA",
    "partNumber": 22,
    "partName": "SAIKHEDA",
    "lat": 22.9550218,
    "lon": 78.67537424083292
  },
  {
    "partId": 99883,
    "stateCode": "S12",
    "stateName": "Madhya Pradesh",
    "districtCode": "S1227",
    "districtName": "NARSINGHPUR",
    "acNumber": 121,
    "acName": "GADARWARA",
    "partNumber": 23,
    "partName": "SAIKHEDA",
    "lat": 22.9550218,
    "lon": 78.67537424083292
  },
  {
    "partId": 99813,
    "stateCode": "S12",
    "stateName": "Madhya Pradesh",
    "districtCode": "S1227",
    "districtName": "NARSINGHPUR",
    "acNumber": 121,
    "acName": "GADARWARA",
    "partNumber": 24,
    "partName": "PIPARPANI",
    "lat": 23.0866051,
    "lon": 79.51484366401586
  },
  {
    "partId": 99832,
    "stateCode": "S12",
    "stateName": "Madhya Pradesh",
    "districtCode": "S1227",
    "districtName": "NARSINGHPUR",
    "acNumber": 121,
    "acName": "GADARWARA",
    "partNumber": 25,
    "partName": "TUIYAPANI",
    "lat": 22.78521615,
    "lon": 78.90150751306021
  },
  {
    "partId": 99833,
    "stateCode": "S12",
    "stateName": "Madhya Pradesh",
    "districtCode": "S1227",
    "districtName": "NARSINGHPUR",
    "acNumber": 121,
    "acName": "GADARWARA",
    "partNumber": 26,
    "partName": "TEKAPAR",
    "lat": 22.99692065,
    "lon": 78.64006324270237
  },
  {
    "partId": 99744,
    "stateCode": "S12",
    "stateName": "Madhya Pradesh",
    "districtCode": "S1227",
    "districtName": "NARSINGHPUR",
    "acNumber": 121,
    "acName": "GADARWARA",
    "partNumber": 27,
    "partName": "USRAY",
    "lat": 22.78521615,
    "lon": 78.90150751306021
  },
  {
    "partId": 99840,
    "stateCode": "S12",
    "stateName": "Madhya Pradesh",
    "districtCode": "S1227",
    "districtName": "NARSINGHPUR",
    "acNumber": 121,
    "acName": "GADARWARA",
    "partNumber": 28,
    "partName": "UDNI",
    "lat": 22.78521615,
    "lon": 78.90150751306021
  },
  {
    "partId": 99812,
    "stateCode": "S12",
    "stateName": "Madhya Pradesh",
    "districtCode": "S1227",
    "districtName": "NARSINGHPUR",
    "acNumber": 121,
    "acName": "GADARWARA",
    "partNumber": 29,
    "partName": "PIPARIYAKALA",
    "lat": 22.78521615,
    "lon": 78.90150751306021
  },
  {
    "partId": 99841,
    "stateCode": "S12",
    "stateName": "Madhya Pradesh",
    "districtCode": "S1227",
    "districtName": "NARSINGHPUR",
    "acNumber": 121,
    "acName": "GADARWARA",
    "partNumber": 30,
    "partName": "SOKALPUR",
    "lat": 23.0308929,
    "lon": 78.67021449383803
  },
  {
    "partId": 99850,
    "stateCode": "S12",
    "stateName": "Madhya Pradesh",
    "districtCode": "S1227",
    "districtName": "NARSINGHPUR",
    "acNumber": 121,
    "acName": "GADARWARA",
    "partNumber": 31,
    "partName": "RICHHAVAR",
    "lat": 22.78521615,
    "lon": 78.90150751306021
  },
  {
    "partId": 99851,
    "stateCode": "S12",
    "stateName": "Madhya Pradesh",
    "districtCode": "S1227",
    "districtName": "NARSINGHPUR",
    "acNumber": 121,
    "acName": "GADARWARA",
    "partNumber": 32,
    "partName": "AMODA",
    "lat": 23.02027865,
    "lon": 78.71538651431064
  },
  {
    "partId": 99751,
    "stateCode": "S12",
    "stateName": "Madhya Pradesh",
    "districtCode": "S1227",
    "districtName": "NARSINGHPUR",
    "acNumber": 121,
    "acName": "GADARWARA",
    "partNumber": 33,
    "partName": "MOHAD",
    "lat": 22.88740495,
    "lon": 79.07418265976918
  },
  {
    "partId": 99721,
    "stateCode": "S12",
    "stateName": "Madhya Pradesh",
    "districtCode": "S1227",
    "districtName": "NARSINGHPUR",
    "acNumber": 121,
    "acName": "GADARWARA",
    "partNumber": 34,
    "partName": "MADGULA",
    "lat": 22.78521615,
    "lon": 78.90150751306021
  },
  {
    "partId": 99674,
    "stateCode": "S12",
    "stateName": "Madhya Pradesh",
    "districtCode": "S1227",
    "districtName": "NARSINGHPUR",
    "acNumber": 121,
    "acName": "GADARWARA",
    "partNumber": 35,
    "partName": "BAMHORI KALA",
    "lat": 22.78521615,
    "lon": 78.90150751306021
  },
  {
    "partId": 99842,
    "stateCode": "S12",
    "stateName": "Madhya Pradesh",
    "districtCode": "S1227",
    "districtName": "NARSINGHPUR",
    "acNumber": 121,
    "acName": "GADARWARA",
    "partNumber": 36,
    "partName": "BAMHORI KALA",
    "lat": 22.78521615,
    "lon": 78.90150751306021
  },
  {
    "partId": 99843,
    "stateCode": "S12",
    "stateName": "Madhya Pradesh",
    "districtCode": "S1227",
    "districtName": "NARSINGHPUR",
    "acNumber": 121,
    "acName": "GADARWARA",
    "partNumber": 37,
    "partName": "KHIRIYA",
    "lat": 22.828606450000002,
    "lon": 79.13337567286271
  },
  {
    "partId": 99815,
    "stateCode": "S12",
    "stateName": "Madhya Pradesh",
    "districtCode": "S1227",
    "districtName": "NARSINGHPUR",
    "acNumber": 121,
    "acName": "GADARWARA",
    "partNumber": 38,
    "partName": "SUPARI",
    "lat": 22.9680239,
    "lon": 78.6963411798371
  },
  {
    "partId": 99816,
    "stateCode": "S12",
    "stateName": "Madhya Pradesh",
    "districtCode": "S1227",
    "districtName": "NARSINGHPUR",
    "acNumber": 121,
    "acName": "GADARWARA",
    "partNumber": 39,
    "partName": "BANSKHEDA",
    "lat": 22.78521615,
    "lon": 78.90150751306021
  },
  {
    "partId": 99817,
    "stateCode": "S12",
    "stateName": "Madhya Pradesh",
    "districtCode": "S1227",
    "districtName": "NARSINGHPUR",
    "acNumber": 121,
    "acName": "GADARWARA",
    "partNumber": 40,
    "partName": "SASBAHU",
    "lat": 22.8943904,
    "lon": 79.12519712107023
  },
  {
    "partId": 99800,
    "stateCode": "S12",
    "stateName": "Madhya Pradesh",
    "districtCode": "S1227",
    "districtName": "NARSINGHPUR",
    "acNumber": 121,
    "acName": "GADARWARA",
    "partNumber": 41,
    "partName": "PIPARIYAKHURD",
    "lat": 22.78521615,
    "lon": 78.90150751306021
  },
  {
    "partId": 99822,
    "stateCode": "S12",
    "stateName": "Madhya Pradesh",
    "districtCode": "S1227",
    "districtName": "NARSINGHPUR",
    "acNumber": 121,
    "acName": "GADARWARA",
    "partNumber": 42,
    "partName": "JHIRIYA",
    "lat": 22.9692297,
    "lon": 78.78439107122205
  },
  {
    "partId": 99825,
    "stateCode": "S12",
    "stateName": "Madhya Pradesh",
    "districtCode": "S1227",
    "districtName": "NARSINGHPUR",
    "acNumber": 121,
    "acName": "GADARWARA",
    "partNumber": 43,
    "partName": "RAMPURA",
    "lat": 23.0883763,
    "lon": 79.13889781685126
  },
  {
    "partId": 99861,
    "stateCode": "S12",
    "stateName": "Madhya Pradesh",
    "districtCode": "S1227",
    "districtName": "NARSINGHPUR",
    "acNumber": 121,
    "acName": "GADARWARA",
    "partNumber": 44,
    "partName": "RAMPURA",
    "lat": 23.0883763,
    "lon": 79.13889781685126
  },
  {
    "partId": 99712,
    "stateCode": "S12",
    "stateName": "Madhya Pradesh",
    "districtCode": "S1227",
    "districtName": "NARSINGHPUR",
    "acNumber": 121,
    "acName": "GADARWARA",
    "partNumber": 45,
    "partName": "DETPON",
    "lat": 22.9256559,
    "lon": 78.6209204
  },
  {
    "partId": 99713,
    "stateCode": "S12",
    "stateName": "Madhya Pradesh",
    "districtCode": "S1227",
    "districtName": "NARSINGHPUR",
    "acNumber": 121,
    "acName": "GADARWARA",
    "partNumber": 46,
    "partName": "SETHAN",
    "lat": 22.78521615,
    "lon": 78.90150751306021
  },
  {
    "partId": 99714,
    "stateCode": "S12",
    "stateName": "Madhya Pradesh",
    "districtCode": "S1227",
    "districtName": "NARSINGHPUR",
    "acNumber": 121,
    "acName": "GADARWARA",
    "partNumber": 47,
    "partName": "AJANDA",
    "lat": 22.918523550000003,
    "lon": 78.58785705600559
  },
  {
    "partId": 99715,
    "stateCode": "S12",
    "stateName": "Madhya Pradesh",
    "districtCode": "S1227",
    "districtName": "NARSINGHPUR",
    "acNumber": 121,
    "acName": "GADARWARA",
    "partNumber": 48,
    "partName": "DHIGSARA",
    "lat": 22.8888743,
    "lon": 78.58983959052486
  },
  {
    "partId": 99675,
    "stateCode": "S12",
    "stateName": "Madhya Pradesh",
    "districtCode": "S1227",
    "districtName": "NARSINGHPUR",
    "acNumber": 121,
    "acName": "GADARWARA",
    "partNumber": 49,
    "partName": "DUNGARIYA",
    "lat": 22.8778211,
    "lon": 79.55983134656302
  },
  {
    "partId": 99860,
    "stateCode": "S12",
    "stateName": "Madhya Pradesh",
    "districtCode": "S1227",
    "districtName": "NARSINGHPUR",
    "acNumber": 121,
    "acName": "GADARWARA",
    "partNumber": 50,
    "partName": "DUNGARIYA",
    "lat": 22.8778211,
    "lon": 79.55983134656302
  },
  {
    "partId": 99716,
    "stateCode": "S12",
    "stateName": "Madhya Pradesh",
    "districtCode": "S1227",
    "districtName": "NARSINGHPUR",
    "acNumber": 121,
    "acName": "GADARWARA",
    "partNumber": 51,
    "partName": "DHANORA",
    "lat": 22.9088523,
    "lon": 78.61736494338089
  },
  {
    "partId": 99717,
    "stateCode": "S12",
    "stateName": "Madhya Pradesh",
    "districtCode": "S1227",
    "districtName": "NARSINGHPUR",
    "acNumber": 121,
    "acName": "GADARWARA",
    "partNumber": 52,
    "partName": "BANWARI",
    "lat": 22.928684750000002,
    "lon": 78.6369357149895
  },
  {
    "partId": 99718,
    "stateCode": "S12",
    "stateName": "Madhya Pradesh",
    "districtCode": "S1227",
    "districtName": "NARSINGHPUR",
    "acNumber": 121,
    "acName": "GADARWARA",
    "partNumber": 53,
    "partName": "BANWARI",
    "lat": 22.928684750000002,
    "lon": 78.6369357149895
  },
  {
    "partId": 99719,
    "stateCode": "S12",
    "stateName": "Madhya Pradesh",
    "districtCode": "S1227",
    "districtName": "NARSINGHPUR",
    "acNumber": 121,
    "acName": "GADARWARA",
    "partNumber": 54,
    "partName": "KHAIRI",
    "lat": 23.1817195,
    "lon": 78.98928875792427
  },
  {
    "partId": 99720,
    "stateCode": "S12",
    "stateName": "Madhya Pradesh",
    "districtCode": "S1227",
    "districtName": "NARSINGHPUR",
    "acNumber": 121,
    "acName": "GADARWARA",
    "partNumber": 55,
    "partName": "DEVRI",
    "lat": 22.9242177,
    "lon": 78.67666200603796
  },
  {
    "partId": 99725,
    "stateCode": "S12",
    "stateName": "Madhya Pradesh",
    "districtCode": "S1227",
    "districtName": "NARSINGHPUR",
    "acNumber": 121,
    "acName": "GADARWARA",
    "partNumber": 56,
    "partName": "Jwara",
    "lat": 22.78521615,
    "lon": 78.90150751306021
  },
  {
    "partId": 99761,
    "stateCode": "S12",
    "stateName": "Madhya Pradesh",
    "districtCode": "S1227",
    "districtName": "NARSINGHPUR",
    "acNumber": 121,
    "acName": "GADARWARA",
    "partNumber": 57,
    "partName": "KHURSIPAR",
    "lat": 22.87629975,
    "lon": 79.6175537132246
  },
  {
    "partId": 99762,
    "stateCode": "S12",
    "stateName": "Madhya Pradesh",
    "districtCode": "S1227",
    "districtName": "NARSINGHPUR",
    "acNumber": 121,
    "acName": "GADARWARA",
    "partNumber": 58,
    "partName": "KHURSIPAR",
    "lat": 22.87629975,
    "lon": 79.6175537132246
  },
  {
    "partId": 99805,
    "stateCode": "S12",
    "stateName": "Madhya Pradesh",
    "districtCode": "S1227",
    "districtName": "NARSINGHPUR",
    "acNumber": 121,
    "acName": "GADARWARA",
    "partNumber": 59,
    "partName": "GARDHA",
    "lat": 22.92697515,
    "lon": 78.74850697358808
  },
  {
    "partId": 99806,
    "stateCode": "S12",
    "stateName": "Madhya Pradesh",
    "districtCode": "S1227",
    "districtName": "NARSINGHPUR",
    "acNumber": 121,
    "acName": "GADARWARA",
    "partNumber": 60,
    "partName": "BODARI",
    "lat": 22.78521615,
    "lon": 78.90150751306021
  },
  {
    "partId": 99750,
    "stateCode": "S12",
    "stateName": "Madhya Pradesh",
    "districtCode": "S1227",
    "districtName": "NARSINGHPUR",
    "acNumber": 121,
    "acName": "GADARWARA",
    "partNumber": 61,
    "partName": "BODARI",
    "lat": 22.78521615,
    "lon": 78.90150751306021
  },
  {
    "partId": 99676,
    "stateCode": "S12",
    "stateName": "Madhya Pradesh",
    "districtCode": "S1227",
    "districtName": "NARSINGHPUR",
    "acNumber": 121,
    "acName": "GADARWARA",
    "partNumber": 62,
    "partName": "KAMATI",
    "lat": 22.78521615,
    "lon": 78.90150751306021
  },
  {
    "partId": 99807,
    "stateCode": "S12",
    "stateName": "Madhya Pradesh",
    "districtCode": "S1227",
    "districtName": "NARSINGHPUR",
    "acNumber": 121,
    "acName": "GADARWARA",
    "partNumber": 63,
    "partName": "KAMATI",
    "lat": 22.78521615,
    "lon": 78.90150751306021
  },
  {
    "partId": 99818,
    "stateCode": "S12",
    "stateName": "Madhya Pradesh",
    "districtCode": "S1227",
    "districtName": "NARSINGHPUR",
    "acNumber": 121,
    "acName": "GADARWARA",
    "partNumber": 64,
    "partName": "KHAIRI",
    "lat": 23.1817195,
    "lon": 78.98928875792427
  },
  {
    "partId": 99819,
    "stateCode": "S12",
    "stateName": "Madhya Pradesh",
    "districtCode": "S1227",
    "districtName": "NARSINGHPUR",
    "acNumber": 121,
    "acName": "GADARWARA",
    "partNumber": 65,
    "partName": "AMGAON CHHOTA",
    "lat": 22.78521615,
    "lon": 78.90150751306021
  },
  {
    "partId": 99820,
    "stateCode": "S12",
    "stateName": "Madhya Pradesh",
    "districtCode": "S1227",
    "districtName": "NARSINGHPUR",
    "acNumber": 121,
    "acName": "GADARWARA",
    "partNumber": 66,
    "partName": "AMGAON CHHOTA",
    "lat": 22.78521615,
    "lon": 78.90150751306021
  },
  {
    "partId": 99821,
    "stateCode": "S12",
    "stateName": "Madhya Pradesh",
    "districtCode": "S1227",
    "districtName": "NARSINGHPUR",
    "acNumber": 121,
    "acName": "GADARWARA",
    "partNumber": 67,
    "partName": "PITHEHARA",
    "lat": 22.78521615,
    "lon": 78.90150751306021
  },
  {
    "partId": 99808,
    "stateCode": "S12",
    "stateName": "Madhya Pradesh",
    "districtCode": "S1227",
    "districtName": "NARSINGHPUR",
    "acNumber": 121,
    "acName": "GADARWARA",
    "partNumber": 68,
    "partName": "NANDANER",
    "lat": 22.78521615,
    "lon": 78.90150751306021
  },
  {
    "partId": 99809,
    "stateCode": "S12",
    "stateName": "Madhya Pradesh",
    "districtCode": "S1227",
    "districtName": "NARSINGHPUR",
    "acNumber": 121,
    "acName": "GADARWARA",
    "partNumber": 69,
    "partName": "MIDHWANI",
    "lat": 22.91485745,
    "lon": 78.68876031297182
  },
  {
    "partId": 99814,
    "stateCode": "S12",
    "stateName": "Madhya Pradesh",
    "districtCode": "S1227",
    "districtName": "NARSINGHPUR",
    "acNumber": 121,
    "acName": "GADARWARA",
    "partNumber": 70,
    "partName": "PITHWANI",
    "lat": 22.9057093,
    "lon": 78.66324488680095
  },
  {
    "partId": 99749,
    "stateCode": "S12",
    "stateName": "Madhya Pradesh",
    "districtCode": "S1227",
    "districtName": "NARSINGHPUR",
    "acNumber": 121,
    "acName": "GADARWARA",
    "partNumber": 71,
    "partName": "PITHWANI",
    "lat": 22.9057093,
    "lon": 78.66324488680095
  },
  {
    "partId": 99691,
    "stateCode": "S12",
    "stateName": "Madhya Pradesh",
    "districtCode": "S1227",
    "districtName": "NARSINGHPUR",
    "acNumber": 121,
    "acName": "GADARWARA",
    "partNumber": 72,
    "partName": "DAHALWADA",
    "lat": 22.78521615,
    "lon": 78.90150751306021
  },
  {
    "partId": 99898,
    "stateCode": "S12",
    "stateName": "Madhya Pradesh",
    "districtCode": "S1227",
    "districtName": "NARSINGHPUR",
    "acNumber": 121,
    "acName": "GADARWARA",
    "partNumber": 73,
    "partName": "DAHALWADA",
    "lat": 22.78521615,
    "lon": 78.90150751306021
  },
  {
    "partId": 99692,
    "stateCode": "S12",
    "stateName": "Madhya Pradesh",
    "districtCode": "S1227",
    "districtName": "NARSINGHPUR",
    "acNumber": 121,
    "acName": "GADARWARA",
    "partNumber": 74,
    "partName": "JANIKHEDA",
    "lat": 22.78521615,
    "lon": 78.90150751306021
  },
  {
    "partId": 99693,
    "stateCode": "S12",
    "stateName": "Madhya Pradesh",
    "districtCode": "S1227",
    "districtName": "NARSINGHPUR",
    "acNumber": 121,
    "acName": "GADARWARA",
    "partNumber": 75,
    "partName": "PODAR",
    "lat": 22.78521615,
    "lon": 78.90150751306021
  },
  {
    "partId": 99748,
    "stateCode": "S12",
    "stateName": "Madhya Pradesh",
    "districtCode": "S1227",
    "districtName": "NARSINGHPUR",
    "acNumber": 121,
    "acName": "GADARWARA",
    "partNumber": 76,
    "partName": "KHAMARIYA",
    "lat": 23.09515725,
    "lon": 79.55630744318356
  },
  {
    "partId": 99694,
    "stateCode": "S12",
    "stateName": "Madhya Pradesh",
    "districtCode": "S1227",
    "districtName": "NARSINGHPUR",
    "acNumber": 121,
    "acName": "GADARWARA",
    "partNumber": 77,
    "partName": "ADEGAONKALA",
    "lat": 22.78521615,
    "lon": 78.90150751306021
  },
  {
    "partId": 99811,
    "stateCode": "S12",
    "stateName": "Madhya Pradesh",
    "districtCode": "S1227",
    "districtName": "NARSINGHPUR",
    "acNumber": 121,
    "acName": "GADARWARA",
    "partNumber": 78,
    "partName": "ADEGAONKALA",
    "lat": 22.78521615,
    "lon": 78.90150751306021
  },
  {
    "partId": 99826,
    "stateCode": "S12",
    "stateName": "Madhya Pradesh",
    "districtCode": "S1227",
    "districtName": "NARSINGHPUR",
    "acNumber": 121,
    "acName": "GADARWARA",
    "partNumber": 79,
    "partName": "PANAGAR",
    "lat": 22.84027485,
    "lon": 78.61656874109748
  },
  {
    "partId": 99827,
    "stateCode": "S12",
    "stateName": "Madhya Pradesh",
    "districtCode": "S1227",
    "districtName": "NARSINGHPUR",
    "acNumber": 121,
    "acName": "GADARWARA",
    "partNumber": 80,
    "partName": "PANAGAR",
    "lat": 22.84027485,
    "lon": 78.61656874109748
  },
  {
    "partId": 99670,
    "stateCode": "S12",
    "stateName": "Madhya Pradesh",
    "districtCode": "S1227",
    "districtName": "NARSINGHPUR",
    "acNumber": 121,
    "acName": "GADARWARA",
    "partNumber": 81,
    "partName": "SALICHOKA",
    "lat": 22.78521615,
    "lon": 78.90150751306021
  },
  {
    "partId": 99828,
    "stateCode": "S12",
    "stateName": "Madhya Pradesh",
    "districtCode": "S1227",
    "districtName": "NARSINGHPUR",
    "acNumber": 121,
    "acName": "GADARWARA",
    "partNumber": 82,
    "partName": "SAHAWAN",
    "lat": 22.83880925,
    "lon": 78.64499142849658
  },
  {
    "partId": 99829,
    "stateCode": "S12",
    "stateName": "Madhya Pradesh",
    "districtCode": "S1227",
    "districtName": "NARSINGHPUR",
    "acNumber": 121,
    "acName": "GADARWARA",
    "partNumber": 83,
    "partName": "SAHAWAN",
    "lat": 22.83880925,
    "lon": 78.64499142849658
  },
  {
    "partId": 99887,
    "stateCode": "S12",
    "stateName": "Madhya Pradesh",
    "districtCode": "S1227",
    "districtName": "NARSINGHPUR",
    "acNumber": 121,
    "acName": "GADARWARA",
    "partNumber": 84,
    "partName": "SALICHOKA",
    "lat": 22.78521615,
    "lon": 78.90150751306021
  },
  {
    "partId": 99888,
    "stateCode": "S12",
    "stateName": "Madhya Pradesh",
    "districtCode": "S1227",
    "districtName": "NARSINGHPUR",
    "acNumber": 121,
    "acName": "GADARWARA",
    "partNumber": 85,
    "partName": "BELKHEDI",
    "lat": 22.78521615,
    "lon": 78.90150751306021
  },
  {
    "partId": 99889,
    "stateCode": "S12",
    "stateName": "Madhya Pradesh",
    "districtCode": "S1227",
    "districtName": "NARSINGHPUR",
    "acNumber": 121,
    "acName": "GADARWARA",
    "partNumber": 86,
    "partName": "BANKHEDI",
    "lat": 22.78521615,
    "lon": 78.90150751306021
  },
  {
    "partId": 99890,
    "stateCode": "S12",
    "stateName": "Madhya Pradesh",
    "districtCode": "S1227",
    "districtName": "NARSINGHPUR",
    "acNumber": 121,
    "acName": "GADARWARA",
    "partNumber": 87,
    "partName": "SALICHOKA",
    "lat": 22.78521615,
    "lon": 78.90150751306021
  },
  {
    "partId": 99756,
    "stateCode": "S12",
    "stateName": "Madhya Pradesh",
    "districtCode": "S1227",
    "districtName": "NARSINGHPUR",
    "acNumber": 121,
    "acName": "GADARWARA",
    "partNumber": 88,
    "partName": "JHANJHANKHEDA",
    "lat": 22.78521615,
    "lon": 78.90150751306021
  },
  {
    "partId": 99771,
    "stateCode": "S12",
    "stateName": "Madhya Pradesh",
    "districtCode": "S1227",
    "districtName": "NARSINGHPUR",
    "acNumber": 121,
    "acName": "GADARWARA",
    "partNumber": 89,
    "partName": "JHANJHANKHEDA",
    "lat": 22.78521615,
    "lon": 78.90150751306021
  },
  {
    "partId": 99772,
    "stateCode": "S12",
    "stateName": "Madhya Pradesh",
    "districtCode": "S1227",
    "districtName": "NARSINGHPUR",
    "acNumber": 121,
    "acName": "GADARWARA",
    "partNumber": 90,
    "partName": "JAMADA",
    "lat": 22.8888417,
    "lon": 78.7606984
  },
  {
    "partId": 99863,
    "stateCode": "S12",
    "stateName": "Madhya Pradesh",
    "districtCode": "S1227",
    "districtName": "NARSINGHPUR",
    "acNumber": 121,
    "acName": "GADARWARA",
    "partNumber": 91,
    "partName": "GADARWARA GANDHI WARD",
    "lat": 22.78521615,
    "lon": 78.90150751306021
  },
  {
    "partId": 99854,
    "stateCode": "S12",
    "stateName": "Madhya Pradesh",
    "districtCode": "S1227",
    "districtName": "NARSINGHPUR",
    "acNumber": 121,
    "acName": "GADARWARA",
    "partNumber": 92,
    "partName": "GADARWARA GANDHI WARD",
    "lat": 22.78521615,
    "lon": 78.90150751306021
  },
  {
    "partId": 99864,
    "stateCode": "S12",
    "stateName": "Madhya Pradesh",
    "districtCode": "S1227",
    "districtName": "NARSINGHPUR",
    "acNumber": 121,
    "acName": "GADARWARA",
    "partNumber": 93,
    "partName": "GADARWARA RAJENDRABABU WARD",
    "lat": 22.78521615,
    "lon": 78.90150751306021
  },
  {
    "partId": 99784,
    "stateCode": "S12",
    "stateName": "Madhya Pradesh",
    "districtCode": "S1227",
    "districtName": "NARSINGHPUR",
    "acNumber": 121,
    "acName": "GADARWARA",
    "partNumber": 94,
    "partName": "GADARWARA RAJENDRABABU WARD",
    "lat": 22.78521615,
    "lon": 78.90150751306021
  },
  {
    "partId": 99870,
    "stateCode": "S12",
    "stateName": "Madhya Pradesh",
    "districtCode": "S1227",
    "districtName": "NARSINGHPUR",
    "acNumber": 121,
    "acName": "GADARWARA",
    "partNumber": 95,
    "partName": "GADARWARA SUBHASH WARD",
    "lat": 22.78521615,
    "lon": 78.90150751306021
  },
  {
    "partId": 99871,
    "stateCode": "S12",
    "stateName": "Madhya Pradesh",
    "districtCode": "S1227",
    "districtName": "NARSINGHPUR",
    "acNumber": 121,
    "acName": "GADARWARA",
    "partNumber": 96,
    "partName": "GADARWARA JAGDISH WARD",
    "lat": 22.78521615,
    "lon": 78.90150751306021
  },
  {
    "partId": 99853,
    "stateCode": "S12",
    "stateName": "Madhya Pradesh",
    "districtCode": "S1227",
    "districtName": "NARSINGHPUR",
    "acNumber": 121,
    "acName": "GADARWARA",
    "partNumber": 97,
    "partName": "GADARWARA JAGDISH WARD",
    "lat": 22.846065356398103,
    "lon": 78.88618064720248
  },
  {
    "partId": 99872,
    "stateCode": "S12",
    "stateName": "Madhya Pradesh",
    "districtCode": "S1227",
    "districtName": "NARSINGHPUR",
    "acNumber": 121,
    "acName": "GADARWARA",
    "partNumber": 98,
    "partName": "GADARWARA JAGDISH WARD",
    "lat": 22.846065356398103,
    "lon": 78.88618064720248
  },
  {
    "partId": 99899,
    "stateCode": "S12",
    "stateName": "Madhya Pradesh",
    "districtCode": "S1227",
    "districtName": "NARSINGHPUR",
    "acNumber": 121,
    "acName": "GADARWARA",
    "partNumber": 99,
    "partName": "GADARWARA JAGDISH WARD",
    "lat": 22.846065356398103,
    "lon": 78.88618064720248
  },
  {
    "partId": 99865,
    "stateCode": "S12",
    "stateName": "Madhya Pradesh",
    "districtCode": "S1227",
    "districtName": "NARSINGHPUR",
    "acNumber": 121,
    "acName": "GADARWARA",
    "partNumber": 100,
    "partName": "GADARWARA JAGDISH WARD",
    "lat": 22.846065356398103,
    "lon": 78.88618064720248
  },
  {
    "partId": 99799,
    "stateCode": "S12",
    "stateName": "Madhya Pradesh",
    "districtCode": "S1227",
    "districtName": "NARSINGHPUR",
    "acNumber": 121,
    "acName": "GADARWARA",
    "partNumber": 101,
    "partName": "GADARWARA VIVEKANAND WARD",
    "lat": 22.78521615,
    "lon": 78.90150751306021
  },
  {
    "partId": 99866,
    "stateCode": "S12",
    "stateName": "Madhya Pradesh",
    "districtCode": "S1227",
    "districtName": "NARSINGHPUR",
    "acNumber": 121,
    "acName": "GADARWARA",
    "partNumber": 102,
    "partName": "GADARWARA JAGDISH WARD",
    "lat": 22.78521615,
    "lon": 78.90150751306021
  },
  {
    "partId": 99798,
    "stateCode": "S12",
    "stateName": "Madhya Pradesh",
    "districtCode": "S1227",
    "districtName": "NARSINGHPUR",
    "acNumber": 121,
    "acName": "GADARWARA",
    "partNumber": 103,
    "partName": "GADARWARA JAGDISH WARD",
    "lat": 22.78521615,
    "lon": 78.90150751306021
  },
  {
    "partId": 99873,
    "stateCode": "S12",
    "stateName": "Madhya Pradesh",
    "districtCode": "S1227",
    "districtName": "NARSINGHPUR",
    "acNumber": 121,
    "acName": "GADARWARA",
    "partNumber": 104,
    "partName": "GADARWARA JAVAHAR WARD",
    "lat": 22.78521615,
    "lon": 78.90150751306021
  },
  {
    "partId": 99874,
    "stateCode": "S12",
    "stateName": "Madhya Pradesh",
    "districtCode": "S1227",
    "districtName": "NARSINGHPUR",
    "acNumber": 121,
    "acName": "GADARWARA",
    "partNumber": 105,
    "partName": "GADARWARA VIVEKANAND WARD",
    "lat": 22.78521615,
    "lon": 78.90150751306021
  },
  {
    "partId": 99677,
    "stateCode": "S12",
    "stateName": "Madhya Pradesh",
    "districtCode": "S1227",
    "districtName": "NARSINGHPUR",
    "acNumber": 121,
    "acName": "GADARWARA",
    "partNumber": 106,
    "partName": "GADARWARA VIVEKANAND WARD",
    "lat": 22.78521615,
    "lon": 78.90150751306021
  },
  {
    "partId": 99875,
    "stateCode": "S12",
    "stateName": "Madhya Pradesh",
    "districtCode": "S1227",
    "districtName": "NARSINGHPUR",
    "acNumber": 121,
    "acName": "GADARWARA",
    "partNumber": 107,
    "partName": "GADARWARA NIRANJAN WARD",
    "lat": 22.78521615,
    "lon": 78.90150751306021
  },
  {
    "partId": 99758,
    "stateCode": "S12",
    "stateName": "Madhya Pradesh",
    "districtCode": "S1227",
    "districtName": "NARSINGHPUR",
    "acNumber": 121,
    "acName": "GADARWARA",
    "partNumber": 108,
    "partName": "GADARWARA NIRANJAN WARD",
    "lat": 22.78521615,
    "lon": 78.90150751306021
  },
  {
    "partId": 99740,
    "stateCode": "S12",
    "stateName": "Madhya Pradesh",
    "districtCode": "S1227",
    "districtName": "NARSINGHPUR",
    "acNumber": 121,
    "acName": "GADARWARA",
    "partNumber": 109,
    "partName": "GADARWARA SHASTRI WARD",
    "lat": 22.78521615,
    "lon": 78.90150751306021
  },
  {
    "partId": 99726,
    "stateCode": "S12",
    "stateName": "Madhya Pradesh",
    "districtCode": "S1227",
    "districtName": "NARSINGHPUR",
    "acNumber": 121,
    "acName": "GADARWARA",
    "partNumber": 110,
    "partName": "GADARWARA SHASTRI WARD",
    "lat": 22.78521615,
    "lon": 78.90150751306021
  },
  {
    "partId": 99727,
    "stateCode": "S12",
    "stateName": "Madhya Pradesh",
    "districtCode": "S1227",
    "districtName": "NARSINGHPUR",
    "acNumber": 121,
    "acName": "GADARWARA",
    "partNumber": 111,
    "partName": "GADARWARA AJAD WARD",
    "lat": 22.78521615,
    "lon": 78.90150751306021
  },
  {
    "partId": 99757,
    "stateCode": "S12",
    "stateName": "Madhya Pradesh",
    "districtCode": "S1227",
    "districtName": "NARSINGHPUR",
    "acNumber": 121,
    "acName": "GADARWARA",
    "partNumber": 112,
    "partName": "GADARWARA MAHARANA PRATAP WARD",
    "lat": 22.78521615,
    "lon": 78.90150751306021
  },
  {
    "partId": 99728,
    "stateCode": "S12",
    "stateName": "Madhya Pradesh",
    "districtCode": "S1227",
    "districtName": "NARSINGHPUR",
    "acNumber": 121,
    "acName": "GADARWARA",
    "partNumber": 113,
    "partName": "GADARWARA AJAD WARD",
    "lat": 22.78521615,
    "lon": 78.90150751306021
  },
  {
    "partId": 99790,
    "stateCode": "S12",
    "stateName": "Madhya Pradesh",
    "districtCode": "S1227",
    "districtName": "NARSINGHPUR",
    "acNumber": 121,
    "acName": "GADARWARA",
    "partNumber": 114,
    "partName": "GADARWARA AJAD WARD",
    "lat": 22.78521615,
    "lon": 78.90150751306021
  },
  {
    "partId": 99729,
    "stateCode": "S12",
    "stateName": "Madhya Pradesh",
    "districtCode": "S1227",
    "districtName": "NARSINGHPUR",
    "acNumber": 121,
    "acName": "GADARWARA",
    "partNumber": 115,
    "partName": "GADARWARA INDIRA WARD",
    "lat": 22.78521615,
    "lon": 78.90150751306021
  },
  {
    "partId": 99793,
    "stateCode": "S12",
    "stateName": "Madhya Pradesh",
    "districtCode": "S1227",
    "districtName": "NARSINGHPUR",
    "acNumber": 121,
    "acName": "GADARWARA",
    "partNumber": 116,
    "partName": "GADARWARA INDIRA WARD",
    "lat": 22.78521615,
    "lon": 78.90150751306021
  },
  {
    "partId": 99741,
    "stateCode": "S12",
    "stateName": "Madhya Pradesh",
    "districtCode": "S1227",
    "districtName": "NARSINGHPUR",
    "acNumber": 121,
    "acName": "GADARWARA",
    "partNumber": 117,
    "partName": "GADARWARA MATA WARD",
    "lat": 22.78521615,
    "lon": 78.90150751306021
  },
  {
    "partId": 99678,
    "stateCode": "S12",
    "stateName": "Madhya Pradesh",
    "districtCode": "S1227",
    "districtName": "NARSINGHPUR",
    "acNumber": 121,
    "acName": "GADARWARA",
    "partNumber": 118,
    "partName": "GADARWARA NARSINGH WARD",
    "lat": 22.78521615,
    "lon": 78.90150751306021
  },
  {
    "partId": 99742,
    "stateCode": "S12",
    "stateName": "Madhya Pradesh",
    "districtCode": "S1227",
    "districtName": "NARSINGHPUR",
    "acNumber": 121,
    "acName": "GADARWARA",
    "partNumber": 119,
    "partName": "GADARWARA CHANVADI WARD",
    "lat": 22.78521615,
    "lon": 78.90150751306021
  },
  {
    "partId": 99847,
    "stateCode": "S12",
    "stateName": "Madhya Pradesh",
    "districtCode": "S1227",
    "districtName": "NARSINGHPUR",
    "acNumber": 121,
    "acName": "GADARWARA",
    "partNumber": 120,
    "partName": "GADARWARA SHAHID BHAGATASINGH WARD",
    "lat": 22.846065356398103,
    "lon": 78.88618064720248
  },
  {
    "partId": 99848,
    "stateCode": "S12",
    "stateName": "Madhya Pradesh",
    "districtCode": "S1227",
    "districtName": "NARSINGHPUR",
    "acNumber": 121,
    "acName": "GADARWARA",
    "partNumber": 121,
    "partName": "GADARWARA KAMATH WARD",
    "lat": 22.78521615,
    "lon": 78.90150751306021
  },
  {
    "partId": 99723,
    "stateCode": "S12",
    "stateName": "Madhya Pradesh",
    "districtCode": "S1227",
    "districtName": "NARSINGHPUR",
    "acNumber": 121,
    "acName": "GADARWARA",
    "partNumber": 122,
    "partName": "GADARWARA RADHA BALLABH WARD",
    "lat": 22.846065356398103,
    "lon": 78.88618064720248
  },
  {
    "partId": 99724,
    "stateCode": "S12",
    "stateName": "Madhya Pradesh",
    "districtCode": "S1227",
    "districtName": "NARSINGHPUR",
    "acNumber": 121,
    "acName": "GADARWARA",
    "partNumber": 123,
    "partName": "GADARWARA BIJASEN WARD",
    "lat": 22.846065356398103,
    "lon": 78.88618064720248
  },
  {
    "partId": 99894,
    "stateCode": "S12",
    "stateName": "Madhya Pradesh",
    "districtCode": "S1227",
    "districtName": "NARSINGHPUR",
    "acNumber": 121,
    "acName": "GADARWARA",
    "partNumber": 124,
    "partName": "GADARWARA BIJASEN WARD",
    "lat": 22.78521615,
    "lon": 78.90150751306021
  },
  {
    "partId": 99830,
    "stateCode": "S12",
    "stateName": "Madhya Pradesh",
    "districtCode": "S1227",
    "districtName": "NARSINGHPUR",
    "acNumber": 121,
    "acName": "GADARWARA",
    "partNumber": 125,
    "partName": "GADARWARA BHAMA WARD",
    "lat": 22.78521615,
    "lon": 78.90150751306021
  },
  {
    "partId": 99837,
    "stateCode": "S12",
    "stateName": "Madhya Pradesh",
    "districtCode": "S1227",
    "districtName": "NARSINGHPUR",
    "acNumber": 121,
    "acName": "GADARWARA",
    "partNumber": 126,
    "partName": "GADARWARA HANUMAN WARD",
    "lat": 22.78521615,
    "lon": 78.90150751306021
  },
  {
    "partId": 99838,
    "stateCode": "S12",
    "stateName": "Madhya Pradesh",
    "districtCode": "S1227",
    "districtName": "NARSINGHPUR",
    "acNumber": 121,
    "acName": "GADARWARA",
    "partNumber": 127,
    "partName": "GADARWARA HANUMAN WARD",
    "lat": 22.78521615,
    "lon": 78.90150751306021
  },
  {
    "partId": 99839,
    "stateCode": "S12",
    "stateName": "Madhya Pradesh",
    "districtCode": "S1227",
    "districtName": "NARSINGHPUR",
    "acNumber": 121,
    "acName": "GADARWARA",
    "partNumber": 128,
    "partName": "GADARWARA PATEL WARD",
    "lat": 22.78521615,
    "lon": 78.90150751306021
  },
  {
    "partId": 99900,
    "stateCode": "S12",
    "stateName": "Madhya Pradesh",
    "districtCode": "S1227",
    "districtName": "NARSINGHPUR",
    "acNumber": 121,
    "acName": "GADARWARA",
    "partNumber": 129,
    "partName": "GADARWARA PATEL WARD",
    "lat": 22.78521615,
    "lon": 78.90150751306021
  },
  {
    "partId": 99699,
    "stateCode": "S12",
    "stateName": "Madhya Pradesh",
    "districtCode": "S1227",
    "districtName": "NARSINGHPUR",
    "acNumber": 121,
    "acName": "GADARWARA",
    "partNumber": 130,
    "partName": "PATLON",
    "lat": 22.909414050000002,
    "lon": 78.79558023961792
  },
  {
    "partId": 99700,
    "stateCode": "S12",
    "stateName": "Madhya Pradesh",
    "districtCode": "S1227",
    "districtName": "NARSINGHPUR",
    "acNumber": 121,
    "acName": "GADARWARA",
    "partNumber": 131,
    "partName": "KENKRA",
    "lat": 22.7751505,
    "lon": 78.63957813765762
  },
  {
    "partId": 99733,
    "stateCode": "S12",
    "stateName": "Madhya Pradesh",
    "districtCode": "S1227",
    "districtName": "NARSINGHPUR",
    "acNumber": 121,
    "acName": "GADARWARA",
    "partNumber": 132,
    "partName": "BARHETA",
    "lat": 22.846065356398103,
    "lon": 78.88618064720248
  },
  {
    "partId": 99708,
    "stateCode": "S12",
    "stateName": "Madhya Pradesh",
    "districtCode": "S1227",
    "districtName": "NARSINGHPUR",
    "acNumber": 121,
    "acName": "GADARWARA",
    "partNumber": 133,
    "partName": "BARELI",
    "lat": 23.010471099999997,
    "lon": 79.48126811544344
  },
  {
    "partId": 99722,
    "stateCode": "S12",
    "stateName": "Madhya Pradesh",
    "districtCode": "S1227",
    "districtName": "NARSINGHPUR",
    "acNumber": 121,
    "acName": "GADARWARA",
    "partNumber": 134,
    "partName": "KAJROUTA",
    "lat": 22.78521615,
    "lon": 78.90150751306021
  },
  {
    "partId": 99802,
    "stateCode": "S12",
    "stateName": "Madhya Pradesh",
    "districtCode": "S1227",
    "districtName": "NARSINGHPUR",
    "acNumber": 121,
    "acName": "GADARWARA",
    "partNumber": 135,
    "partName": "GHURPUR",
    "lat": 23.03320925,
    "lon": 79.12595963566721
  },
  {
    "partId": 99803,
    "stateCode": "S12",
    "stateName": "Madhya Pradesh",
    "districtCode": "S1227",
    "districtName": "NARSINGHPUR",
    "acNumber": 121,
    "acName": "GADARWARA",
    "partNumber": 136,
    "partName": "MAGARMUHAN",
    "lat": 22.88605445,
    "lon": 78.80259003196383
  },
  {
    "partId": 99804,
    "stateCode": "S12",
    "stateName": "Madhya Pradesh",
    "districtCode": "S1227",
    "districtName": "NARSINGHPUR",
    "acNumber": 121,
    "acName": "GADARWARA",
    "partNumber": 137,
    "partName": "IMALIYA",
    "lat": 22.8247471,
    "lon": 78.73903982677317
  },
  {
    "partId": 99831,
    "stateCode": "S12",
    "stateName": "Madhya Pradesh",
    "districtCode": "S1227",
    "districtName": "NARSINGHPUR",
    "acNumber": 121,
    "acName": "GADARWARA",
    "partNumber": 138,
    "partName": "KANHARGAON",
    "lat": 22.8845153,
    "lon": 78.78319253057157
  },
  {
    "partId": 99671,
    "stateCode": "S12",
    "stateName": "Madhya Pradesh",
    "districtCode": "S1227",
    "districtName": "NARSINGHPUR",
    "acNumber": 121,
    "acName": "GADARWARA",
    "partNumber": 139,
    "partName": "BARELI",
    "lat": 22.846065356398103,
    "lon": 78.88618064720248
  },
  {
    "partId": 99672,
    "stateCode": "S12",
    "stateName": "Madhya Pradesh",
    "districtCode": "S1227",
    "districtName": "NARSINGHPUR",
    "acNumber": 121,
    "acName": "GADARWARA",
    "partNumber": 140,
    "partName": "KATHOTIYA",
    "lat": 22.94153765,
    "lon": 79.11145984007086
  },
  {
    "partId": 99747,
    "stateCode": "S12",
    "stateName": "Madhya Pradesh",
    "districtCode": "S1227",
    "districtName": "NARSINGHPUR",
    "acNumber": 121,
    "acName": "GADARWARA",
    "partNumber": 141,
    "partName": "KATHOTIYA",
    "lat": 22.94153765,
    "lon": 79.11145984007086
  },
  {
    "partId": 99679,
    "stateCode": "S12",
    "stateName": "Madhya Pradesh",
    "districtCode": "S1227",
    "districtName": "NARSINGHPUR",
    "acNumber": 121,
    "acName": "GADARWARA",
    "partNumber": 142,
    "partName": "SIREGAON",
    "lat": 22.84810565,
    "lon": 78.76744042332143
  },
  {
    "partId": 99673,
    "stateCode": "S12",
    "stateName": "Madhya Pradesh",
    "districtCode": "S1227",
    "districtName": "NARSINGHPUR",
    "acNumber": 121,
    "acName": "GADARWARA",
    "partNumber": 143,
    "partName": "MAHGUVANKHURD",
    "lat": 22.78521615,
    "lon": 78.90150751306021
  },
  {
    "partId": 99682,
    "stateCode": "S12",
    "stateName": "Madhya Pradesh",
    "districtCode": "S1227",
    "districtName": "NARSINGHPUR",
    "acNumber": 121,
    "acName": "GADARWARA",
    "partNumber": 144,
    "partName": "MAHAGUVANKALA",
    "lat": 22.78521615,
    "lon": 78.90150751306021
  },
  {
    "partId": 99683,
    "stateCode": "S12",
    "stateName": "Madhya Pradesh",
    "districtCode": "S1227",
    "districtName": "NARSINGHPUR",
    "acNumber": 121,
    "acName": "GADARWARA",
    "partNumber": 145,
    "partName": "CHICHLI",
    "lat": 22.8299959,
    "lon": 78.8169928900008
  },
  {
    "partId": 99684,
    "stateCode": "S12",
    "stateName": "Madhya Pradesh",
    "districtCode": "S1227",
    "districtName": "NARSINGHPUR",
    "acNumber": 121,
    "acName": "GADARWARA",
    "partNumber": 146,
    "partName": "DIGHOURI",
    "lat": 22.78521615,
    "lon": 78.90150751306021
  },
  {
    "partId": 99685,
    "stateCode": "S12",
    "stateName": "Madhya Pradesh",
    "districtCode": "S1227",
    "districtName": "NARSINGHPUR",
    "acNumber": 121,
    "acName": "GADARWARA",
    "partNumber": 147,
    "partName": "CHICHLI",
    "lat": 22.8299959,
    "lon": 78.8169928900008
  },
  {
    "partId": 99759,
    "stateCode": "S12",
    "stateName": "Madhya Pradesh",
    "districtCode": "S1227",
    "districtName": "NARSINGHPUR",
    "acNumber": 121,
    "acName": "GADARWARA",
    "partNumber": 148,
    "partName": "GANGAI",
    "lat": 22.8392186,
    "lon": 79.25511616007476
  },
  {
    "partId": 99760,
    "stateCode": "S12",
    "stateName": "Madhya Pradesh",
    "districtCode": "S1227",
    "districtName": "NARSINGHPUR",
    "acNumber": 121,
    "acName": "GADARWARA",
    "partNumber": 149,
    "partName": "GANGAI",
    "lat": 22.8392186,
    "lon": 79.25511616007476
  },
  {
    "partId": 99766,
    "stateCode": "S12",
    "stateName": "Madhya Pradesh",
    "districtCode": "S1227",
    "districtName": "NARSINGHPUR",
    "acNumber": 121,
    "acName": "GADARWARA",
    "partNumber": 150,
    "partName": "CHORBARHETA",
    "lat": 22.872269850000002,
    "lon": 78.874194040692
  },
  {
    "partId": 99767,
    "stateCode": "S12",
    "stateName": "Madhya Pradesh",
    "districtCode": "S1227",
    "districtName": "NARSINGHPUR",
    "acNumber": 121,
    "acName": "GADARWARA",
    "partNumber": 151,
    "partName": "KUDARI",
    "lat": 22.78521615,
    "lon": 78.90150751306021
  },
  {
    "partId": 99768,
    "stateCode": "S12",
    "stateName": "Madhya Pradesh",
    "districtCode": "S1227",
    "districtName": "NARSINGHPUR",
    "acNumber": 121,
    "acName": "GADARWARA",
    "partNumber": 152,
    "partName": "RAIPUR",
    "lat": 22.846065356398103,
    "lon": 78.88618064720248
  },
  {
    "partId": 99789,
    "stateCode": "S12",
    "stateName": "Madhya Pradesh",
    "districtCode": "S1227",
    "districtName": "NARSINGHPUR",
    "acNumber": 121,
    "acName": "GADARWARA",
    "partNumber": 153,
    "partName": "RAIPUR",
    "lat": 22.841104700000002,
    "lon": 78.88491738117465
  },
  {
    "partId": 99769,
    "stateCode": "S12",
    "stateName": "Madhya Pradesh",
    "districtCode": "S1227",
    "districtName": "NARSINGHPUR",
    "acNumber": 121,
    "acName": "GADARWARA",
    "partNumber": 154,
    "partName": "CHHAINAKACHHAR",
    "lat": 22.78521615,
    "lon": 78.90150751306021
  },
  {
    "partId": 99770,
    "stateCode": "S12",
    "stateName": "Madhya Pradesh",
    "districtCode": "S1227",
    "districtName": "NARSINGHPUR",
    "acNumber": 121,
    "acName": "GADARWARA",
    "partNumber": 155,
    "partName": "CHICHLI",
    "lat": 22.8299959,
    "lon": 78.8169928900008
  },
  {
    "partId": 99855,
    "stateCode": "S12",
    "stateName": "Madhya Pradesh",
    "districtCode": "S1227",
    "districtName": "NARSINGHPUR",
    "acNumber": 121,
    "acName": "GADARWARA",
    "partNumber": 156,
    "partName": "CHICHLI",
    "lat": 22.846065356398103,
    "lon": 78.88618064720248
  },
  {
    "partId": 99783,
    "stateCode": "S12",
    "stateName": "Madhya Pradesh",
    "districtCode": "S1227",
    "districtName": "NARSINGHPUR",
    "acNumber": 121,
    "acName": "GADARWARA",
    "partNumber": 157,
    "partName": "CHICHLI",
    "lat": 22.8299959,
    "lon": 78.8169928900008
  },
  {
    "partId": 99856,
    "stateCode": "S12",
    "stateName": "Madhya Pradesh",
    "districtCode": "S1227",
    "districtName": "NARSINGHPUR",
    "acNumber": 121,
    "acName": "GADARWARA",
    "partNumber": 158,
    "partName": "CHICHLI",
    "lat": 22.8299959,
    "lon": 78.8169928900008
  },
  {
    "partId": 99797,
    "stateCode": "S12",
    "stateName": "Madhya Pradesh",
    "districtCode": "S1227",
    "districtName": "NARSINGHPUR",
    "acNumber": 121,
    "acName": "GADARWARA",
    "partNumber": 159,
    "partName": "CHICHLI",
    "lat": 22.8299959,
    "lon": 78.8169928900008
  },
  {
    "partId": 99781,
    "stateCode": "S12",
    "stateName": "Madhya Pradesh",
    "districtCode": "S1227",
    "districtName": "NARSINGHPUR",
    "acNumber": 121,
    "acName": "GADARWARA",
    "partNumber": 160,
    "partName": "CHICHLI",
    "lat": 22.8299959,
    "lon": 78.8169928900008
  },
  {
    "partId": 99791,
    "stateCode": "S12",
    "stateName": "Madhya Pradesh",
    "districtCode": "S1227",
    "districtName": "NARSINGHPUR",
    "acNumber": 121,
    "acName": "GADARWARA",
    "partNumber": 161,
    "partName": "CHICHLI",
    "lat": 22.8299959,
    "lon": 78.8169928900008
  },
  {
    "partId": 99788,
    "stateCode": "S12",
    "stateName": "Madhya Pradesh",
    "districtCode": "S1227",
    "districtName": "NARSINGHPUR",
    "acNumber": 121,
    "acName": "GADARWARA",
    "partNumber": 162,
    "partName": "CHICHLI",
    "lat": 22.846065356398103,
    "lon": 78.88618064720248
  },
  {
    "partId": 99680,
    "stateCode": "S12",
    "stateName": "Madhya Pradesh",
    "districtCode": "S1227",
    "districtName": "NARSINGHPUR",
    "acNumber": 121,
    "acName": "GADARWARA",
    "partNumber": 163,
    "partName": "CHICHLI",
    "lat": 22.8299959,
    "lon": 78.8169928900008
  },
  {
    "partId": 99764,
    "stateCode": "S12",
    "stateName": "Madhya Pradesh",
    "districtCode": "S1227",
    "districtName": "NARSINGHPUR",
    "acNumber": 121,
    "acName": "GADARWARA",
    "partNumber": 164,
    "partName": "CHARGAONKALA",
    "lat": 22.78521615,
    "lon": 78.90150751306021
  },
  {
    "partId": 99765,
    "stateCode": "S12",
    "stateName": "Madhya Pradesh",
    "districtCode": "S1227",
    "districtName": "NARSINGHPUR",
    "acNumber": 121,
    "acName": "GADARWARA",
    "partNumber": 165,
    "partName": "CHICHLI",
    "lat": 22.8299959,
    "lon": 78.8169928900008
  },
  {
    "partId": 99852,
    "stateCode": "S12",
    "stateName": "Madhya Pradesh",
    "districtCode": "S1227",
    "districtName": "NARSINGHPUR",
    "acNumber": 121,
    "acName": "GADARWARA",
    "partNumber": 166,
    "partName": "UKASGHAT",
    "lat": 22.83697845,
    "lon": 78.74341812009342
  },
  {
    "partId": 99862,
    "stateCode": "S12",
    "stateName": "Madhya Pradesh",
    "districtCode": "S1227",
    "districtName": "NARSINGHPUR",
    "acNumber": 121,
    "acName": "GADARWARA",
    "partNumber": 167,
    "partName": "PACHAMA",
    "lat": 22.846065356398103,
    "lon": 78.88618064720248
  },
  {
    "partId": 99702,
    "stateCode": "S12",
    "stateName": "Madhya Pradesh",
    "districtCode": "S1227",
    "districtName": "NARSINGHPUR",
    "acNumber": 121,
    "acName": "GADARWARA",
    "partNumber": 168,
    "partName": "PACHAMA",
    "lat": 22.8527588,
    "lon": 78.71918396978336
  },
  {
    "partId": 99703,
    "stateCode": "S12",
    "stateName": "Madhya Pradesh",
    "districtCode": "S1227",
    "districtName": "NARSINGHPUR",
    "acNumber": 121,
    "acName": "GADARWARA",
    "partNumber": 169,
    "partName": "BHATRA",
    "lat": 22.838584,
    "lon": 78.71309419286966
  },
  {
    "partId": 99885,
    "stateCode": "S12",
    "stateName": "Madhya Pradesh",
    "districtCode": "S1227",
    "districtName": "NARSINGHPUR",
    "acNumber": 121,
    "acName": "GADARWARA",
    "partNumber": 170,
    "partName": "AMADA",
    "lat": 22.78521615,
    "lon": 78.90150751306021
  },
  {
    "partId": 99886,
    "stateCode": "S12",
    "stateName": "Madhya Pradesh",
    "districtCode": "S1227",
    "districtName": "NARSINGHPUR",
    "acNumber": 121,
    "acName": "GADARWARA",
    "partNumber": 171,
    "partName": "AMADA",
    "lat": 22.78521615,
    "lon": 78.90150751306021
  },
  {
    "partId": 99891,
    "stateCode": "S12",
    "stateName": "Madhya Pradesh",
    "districtCode": "S1227",
    "districtName": "NARSINGHPUR",
    "acNumber": 121,
    "acName": "GADARWARA",
    "partNumber": 172,
    "partName": "SALICHOKA",
    "lat": 22.78521615,
    "lon": 78.90150751306021
  },
  {
    "partId": 99892,
    "stateCode": "S12",
    "stateName": "Madhya Pradesh",
    "districtCode": "S1227",
    "districtName": "NARSINGHPUR",
    "acNumber": 121,
    "acName": "GADARWARA",
    "partNumber": 173,
    "partName": "SALICHOKA",
    "lat": 22.846065356398103,
    "lon": 78.88618064720248
  },
  {
    "partId": 99893,
    "stateCode": "S12",
    "stateName": "Madhya Pradesh",
    "districtCode": "S1227",
    "districtName": "NARSINGHPUR",
    "acNumber": 121,
    "acName": "GADARWARA",
    "partNumber": 174,
    "partName": "SALICHOKA",
    "lat": 22.78521615,
    "lon": 78.90150751306021
  },
  {
    "partId": 99787,
    "stateCode": "S12",
    "stateName": "Madhya Pradesh",
    "districtCode": "S1227",
    "districtName": "NARSINGHPUR",
    "acNumber": 121,
    "acName": "GADARWARA",
    "partNumber": 175,
    "partName": "SALICHOKA",
    "lat": 22.846065356398103,
    "lon": 78.88618064720248
  },
  {
    "partId": 99681,
    "stateCode": "S12",
    "stateName": "Madhya Pradesh",
    "districtCode": "S1227",
    "districtName": "NARSINGHPUR",
    "acNumber": 121,
    "acName": "GADARWARA",
    "partNumber": 176,
    "partName": "SALICHOKA",
    "lat": 22.78521615,
    "lon": 78.90150751306021
  },
  {
    "partId": 99739,
    "stateCode": "S12",
    "stateName": "Madhya Pradesh",
    "districtCode": "S1227",
    "districtName": "NARSINGHPUR",
    "acNumber": 121,
    "acName": "GADARWARA",
    "partNumber": 177,
    "partName": "SALICHOKA",
    "lat": 22.846065356398103,
    "lon": 78.88618064720248
  },
  {
    "partId": 99834,
    "stateCode": "S12",
    "stateName": "Madhya Pradesh",
    "districtCode": "S1227",
    "districtName": "NARSINGHPUR",
    "acNumber": 121,
    "acName": "GADARWARA",
    "partNumber": 178,
    "partName": "SALICHOKA",
    "lat": 22.78521615,
    "lon": 78.90150751306021
  },
  {
    "partId": 99884,
    "stateCode": "S12",
    "stateName": "Madhya Pradesh",
    "districtCode": "S1227",
    "districtName": "NARSINGHPUR",
    "acNumber": 121,
    "acName": "GADARWARA",
    "partNumber": 179,
    "partName": "ARJUN GAON",
    "lat": 22.80199755,
    "lon": 78.63596684545232
  },
  {
    "partId": 99688,
    "stateCode": "S12",
    "stateName": "Madhya Pradesh",
    "districtCode": "S1227",
    "districtName": "NARSINGHPUR",
    "acNumber": 121,
    "acName": "GADARWARA",
    "partNumber": 180,
    "partName": "KENKRA",
    "lat": 22.7751505,
    "lon": 78.63957813765762
  },
  {
    "partId": 99689,
    "stateCode": "S12",
    "stateName": "Madhya Pradesh",
    "districtCode": "S1227",
    "districtName": "NARSINGHPUR",
    "acNumber": 121,
    "acName": "GADARWARA",
    "partNumber": 181,
    "partName": "CHHAINAKACHHAR",
    "lat": 22.78521615,
    "lon": 78.90150751306021
  },
  {
    "partId": 99738,
    "stateCode": "S12",
    "stateName": "Madhya Pradesh",
    "districtCode": "S1227",
    "districtName": "NARSINGHPUR",
    "acNumber": 121,
    "acName": "GADARWARA",
    "partNumber": 182,
    "partName": "NAYAKHEDA",
    "lat": 22.8181525,
    "lon": 79.0531939
  },
  {
    "partId": 99690,
    "stateCode": "S12",
    "stateName": "Madhya Pradesh",
    "districtCode": "S1227",
    "districtName": "NARSINGHPUR",
    "acNumber": 121,
    "acName": "GADARWARA",
    "partNumber": 183,
    "partName": "MAREGAON",
    "lat": 22.80382065,
    "lon": 78.66766072743417
  },
  {
    "partId": 99746,
    "stateCode": "S12",
    "stateName": "Madhya Pradesh",
    "districtCode": "S1227",
    "districtName": "NARSINGHPUR",
    "acNumber": 121,
    "acName": "GADARWARA",
    "partNumber": 184,
    "partName": "MAREGAON",
    "lat": 22.80382065,
    "lon": 78.66766072743417
  },
  {
    "partId": 99753,
    "stateCode": "S12",
    "stateName": "Madhya Pradesh",
    "districtCode": "S1227",
    "districtName": "NARSINGHPUR",
    "acNumber": 121,
    "acName": "GADARWARA",
    "partNumber": 185,
    "partName": "BASURIYA",
    "lat": 22.802494799999998,
    "lon": 78.69218436532364
  },
  {
    "partId": 99754,
    "stateCode": "S12",
    "stateName": "Madhya Pradesh",
    "districtCode": "S1227",
    "districtName": "NARSINGHPUR",
    "acNumber": 121,
    "acName": "GADARWARA",
    "partNumber": 186,
    "partName": "BASURIYA",
    "lat": 22.802494799999998,
    "lon": 78.69218436532364
  },
  {
    "partId": 99755,
    "stateCode": "S12",
    "stateName": "Madhya Pradesh",
    "districtCode": "S1227",
    "districtName": "NARSINGHPUR",
    "acNumber": 121,
    "acName": "GADARWARA",
    "partNumber": 187,
    "partName": "RAHMA",
    "lat": 22.78521615,
    "lon": 78.90150751306021
  },
  {
    "partId": 99897,
    "stateCode": "S12",
    "stateName": "Madhya Pradesh",
    "districtCode": "S1227",
    "districtName": "NARSINGHPUR",
    "acNumber": 121,
    "acName": "GADARWARA",
    "partNumber": 188,
    "partName": "PALERA",
    "lat": 22.79879275,
    "lon": 78.72957751363143
  },
  {
    "partId": 99859,
    "stateCode": "S12",
    "stateName": "Madhya Pradesh",
    "districtCode": "S1227",
    "districtName": "NARSINGHPUR",
    "acNumber": 121,
    "acName": "GADARWARA",
    "partNumber": 189,
    "partName": "BARCHHI",
    "lat": 22.800996849999997,
    "lon": 78.71298037628927
  },
  {
    "partId": 99709,
    "stateCode": "S12",
    "stateName": "Madhya Pradesh",
    "districtCode": "S1227",
    "districtName": "NARSINGHPUR",
    "acNumber": 121,
    "acName": "GADARWARA",
    "partNumber": 190,
    "partName": "IMALIYA",
    "lat": 22.8247471,
    "lon": 78.73903982677317
  },
  {
    "partId": 99737,
    "stateCode": "S12",
    "stateName": "Madhya Pradesh",
    "districtCode": "S1227",
    "districtName": "NARSINGHPUR",
    "acNumber": 121,
    "acName": "GADARWARA",
    "partNumber": 191,
    "partName": "IMALIYA",
    "lat": 22.8247471,
    "lon": 78.73903982677317
  },
  {
    "partId": 99849,
    "stateCode": "S12",
    "stateName": "Madhya Pradesh",
    "districtCode": "S1227",
    "districtName": "NARSINGHPUR",
    "acNumber": 121,
    "acName": "GADARWARA",
    "partNumber": 192,
    "partName": "PIPARIYA",
    "lat": 23.06634965,
    "lon": 79.58420564905538
  },
  {
    "partId": 99844,
    "stateCode": "S12",
    "stateName": "Madhya Pradesh",
    "districtCode": "S1227",
    "districtName": "NARSINGHPUR",
    "acNumber": 121,
    "acName": "GADARWARA",
    "partNumber": 193,
    "partName": "DHURSURU",
    "lat": 22.78521615,
    "lon": 78.90150751306021
  },
  {
    "partId": 99801,
    "stateCode": "S12",
    "stateName": "Madhya Pradesh",
    "districtCode": "S1227",
    "districtName": "NARSINGHPUR",
    "acNumber": 121,
    "acName": "GADARWARA",
    "partNumber": 194,
    "partName": "DHURSURA",
    "lat": 22.78521615,
    "lon": 78.90150751306021
  },
  {
    "partId": 99857,
    "stateCode": "S12",
    "stateName": "Madhya Pradesh",
    "districtCode": "S1227",
    "districtName": "NARSINGHPUR",
    "acNumber": 121,
    "acName": "GADARWARA",
    "partNumber": 195,
    "partName": "BARAHABADA",
    "lat": 22.78521615,
    "lon": 78.90150751306021
  },
  {
    "partId": 99858,
    "stateCode": "S12",
    "stateName": "Madhya Pradesh",
    "districtCode": "S1227",
    "districtName": "NARSINGHPUR",
    "acNumber": 121,
    "acName": "GADARWARA",
    "partNumber": 196,
    "partName": "BARAHABADA",
    "lat": 22.846065356398103,
    "lon": 78.88618064720248
  },
  {
    "partId": 99895,
    "stateCode": "S12",
    "stateName": "Madhya Pradesh",
    "districtCode": "S1227",
    "districtName": "NARSINGHPUR",
    "acNumber": 121,
    "acName": "GADARWARA",
    "partNumber": 197,
    "partName": "BARAHABADA",
    "lat": 22.78521615,
    "lon": 78.90150751306021
  },
  {
    "partId": 99896,
    "stateCode": "S12",
    "stateName": "Madhya Pradesh",
    "districtCode": "S1227",
    "districtName": "NARSINGHPUR",
    "acNumber": 121,
    "acName": "GADARWARA",
    "partNumber": 198,
    "partName": "DEVRI",
    "lat": 22.9242177,
    "lon": 78.67666200603796
  },
  {
    "partId": 99779,
    "stateCode": "S12",
    "stateName": "Madhya Pradesh",
    "districtCode": "S1227",
    "districtName": "NARSINGHPUR",
    "acNumber": 121,
    "acName": "GADARWARA",
    "partNumber": 199,
    "partName": "BAIRAGADH",
    "lat": 22.7654003,
    "lon": 78.7020486
  },
  {
    "partId": 99780,
    "stateCode": "S12",
    "stateName": "Madhya Pradesh",
    "districtCode": "S1227",
    "districtName": "NARSINGHPUR",
    "acNumber": 121,
    "acName": "GADARWARA",
    "partNumber": 200,
    "partName": "BAIRAGADH",
    "lat": 22.7654003,
    "lon": 78.7020486
  },
  {
    "partId": 99701,
    "stateCode": "S12",
    "stateName": "Madhya Pradesh",
    "districtCode": "S1227",
    "districtName": "NARSINGHPUR",
    "acNumber": 121,
    "acName": "GADARWARA",
    "partNumber": 201,
    "partName": "GWARI",
    "lat": 23.05194245,
    "lon": 79.23345913090981
  },
  {
    "partId": 99686,
    "stateCode": "S12",
    "stateName": "Madhya Pradesh",
    "districtCode": "S1227",
    "districtName": "NARSINGHPUR",
    "acNumber": 121,
    "acName": "GADARWARA",
    "partNumber": 202,
    "partName": "JAMGAON",
    "lat": 22.6577179,
    "lon": 78.6925046141444
  },
  {
    "partId": 99687,
    "stateCode": "S12",
    "stateName": "Madhya Pradesh",
    "districtCode": "S1227",
    "districtName": "NARSINGHPUR",
    "acNumber": 121,
    "acName": "GADARWARA",
    "partNumber": 203,
    "partName": "MANEGAON",
    "lat": 23.03568675,
    "lon": 79.04489533032918
  },
  {
    "partId": 99710,
    "stateCode": "S12",
    "stateName": "Madhya Pradesh",
    "districtCode": "S1227",
    "districtName": "NARSINGHPUR",
    "acNumber": 121,
    "acName": "GADARWARA",
    "partNumber": 204,
    "partName": "MALHANWADA",
    "lat": 22.78521615,
    "lon": 78.90150751306021
  },
  {
    "partId": 99704,
    "stateCode": "S12",
    "stateName": "Madhya Pradesh",
    "districtCode": "S1227",
    "districtName": "NARSINGHPUR",
    "acNumber": 121,
    "acName": "GADARWARA",
    "partNumber": 205,
    "partName": "PUNARIYA",
    "lat": 22.846065356398103,
    "lon": 78.88618064720248
  },
  {
    "partId": 99705,
    "stateCode": "S12",
    "stateName": "Madhya Pradesh",
    "districtCode": "S1227",
    "districtName": "NARSINGHPUR",
    "acNumber": 121,
    "acName": "GADARWARA",
    "partNumber": 206,
    "partName": "DHANA",
    "lat": 23.090197099999997,
    "lon": 79.32701304659813
  },
  {
    "partId": 99736,
    "stateCode": "S12",
    "stateName": "Madhya Pradesh",
    "districtCode": "S1227",
    "districtName": "NARSINGHPUR",
    "acNumber": 121,
    "acName": "GADARWARA",
    "partNumber": 207,
    "partName": "IKLONI",
    "lat": 22.846065356398103,
    "lon": 78.88618064720248
  },
  {
    "partId": 99706,
    "stateCode": "S12",
    "stateName": "Madhya Pradesh",
    "districtCode": "S1227",
    "districtName": "NARSINGHPUR",
    "acNumber": 121,
    "acName": "GADARWARA",
    "partNumber": 208,
    "partName": "SINGPUR",
    "lat": 22.78686995,
    "lon": 78.78184224564411
  },
  {
    "partId": 99730,
    "stateCode": "S12",
    "stateName": "Madhya Pradesh",
    "districtCode": "S1227",
    "districtName": "NARSINGHPUR",
    "acNumber": 121,
    "acName": "GADARWARA",
    "partNumber": 209,
    "partName": "SINGPUR",
    "lat": 22.78686995,
    "lon": 78.78184224564411
  },
  {
    "partId": 99731,
    "stateCode": "S12",
    "stateName": "Madhya Pradesh",
    "districtCode": "S1227",
    "districtName": "NARSINGHPUR",
    "acNumber": 121,
    "acName": "GADARWARA",
    "partNumber": 210,
    "partName": "BAGLAI",
    "lat": 23.05294305,
    "lon": 79.50229237095773
  },
  {
    "partId": 99732,
    "stateCode": "S12",
    "stateName": "Madhya Pradesh",
    "districtCode": "S1227",
    "districtName": "NARSINGHPUR",
    "acNumber": 121,
    "acName": "GADARWARA",
    "partNumber": 211,
    "partName": "ADEGAON KHURD",
    "lat": 22.78521615,
    "lon": 78.90150751306021
  },
  {
    "partId": 99735,
    "stateCode": "S12",
    "stateName": "Madhya Pradesh",
    "districtCode": "S1227",
    "districtName": "NARSINGHPUR",
    "acNumber": 121,
    "acName": "GADARWARA",
    "partNumber": 212,
    "partName": "SUKHAKHAIRI",
    "lat": 22.78521615,
    "lon": 78.90150751306021
  },
  {
    "partId": 99695,
    "stateCode": "S12",
    "stateName": "Madhya Pradesh",
    "districtCode": "S1227",
    "districtName": "NARSINGHPUR",
    "acNumber": 121,
    "acName": "GADARWARA",
    "partNumber": 213,
    "partName": "SUKHAKHAIRI",
    "lat": 22.78521615,
    "lon": 78.90150751306021
  },
  {
    "partId": 99696,
    "stateCode": "S12",
    "stateName": "Madhya Pradesh",
    "districtCode": "S1227",
    "districtName": "NARSINGHPUR",
    "acNumber": 121,
    "acName": "GADARWARA",
    "partNumber": 214,
    "partName": "KOTHIYA",
    "lat": 23.0312458,
    "lon": 78.8564111
  },
  {
    "partId": 99711,
    "stateCode": "S12",
    "stateName": "Madhya Pradesh",
    "districtCode": "S1227",
    "districtName": "NARSINGHPUR",
    "acNumber": 121,
    "acName": "GADARWARA",
    "partNumber": 215,
    "partName": "MAU",
    "lat": 22.78830765,
    "lon": 78.82028484724137
  },
  {
    "partId": 99697,
    "stateCode": "S12",
    "stateName": "Madhya Pradesh",
    "districtCode": "S1227",
    "districtName": "NARSINGHPUR",
    "acNumber": 121,
    "acName": "GADARWARA",
    "partNumber": 216,
    "partName": "GHAGHROLA",
    "lat": 22.78521615,
    "lon": 78.90150751306021
  },
  {
    "partId": 99698,
    "stateCode": "S12",
    "stateName": "Madhya Pradesh",
    "districtCode": "S1227",
    "districtName": "NARSINGHPUR",
    "acNumber": 121,
    "acName": "GADARWARA",
    "partNumber": 217,
    "partName": "TENDUKHEDA",
    "lat": 23.1736372,
    "lon": 78.8688125
  },
  {
    "partId": 99823,
    "stateCode": "S12",
    "stateName": "Madhya Pradesh",
    "districtCode": "S1227",
    "districtName": "NARSINGHPUR",
    "acNumber": 121,
    "acName": "GADARWARA",
    "partNumber": 218,
    "partName": "BAGHAKUNDI",
    "lat": 22.78521615,
    "lon": 78.90150751306021
  },
  {
    "partId": 99824,
    "stateCode": "S12",
    "stateName": "Madhya Pradesh",
    "districtCode": "S1227",
    "districtName": "NARSINGHPUR",
    "acNumber": 121,
    "acName": "GADARWARA",
    "partNumber": 219,
    "partName": "HIRAPUR",
    "lat": 22.78521615,
    "lon": 78.90150751306021
  },
  {
    "partId": 99734,
    "stateCode": "S12",
    "stateName": "Madhya Pradesh",
    "districtCode": "S1227",
    "districtName": "NARSINGHPUR",
    "acNumber": 121,
    "acName": "GADARWARA",
    "partNumber": 220,
    "partName": "HIRAPUR",
    "lat": 23.06024765,
    "lon": 78.77480522569022
  },
  {
    "partId": 99810,
    "stateCode": "S12",
    "stateName": "Madhya Pradesh",
    "districtCode": "S1227",
    "districtName": "NARSINGHPUR",
    "acNumber": 121,
    "acName": "GADARWARA",
    "partNumber": 221,
    "partName": "CHANDANKHEDA",
    "lat": 22.9539774,
    "lon": 79.4510666
  },
  {
    "partId": 99773,
    "stateCode": "S12",
    "stateName": "Madhya Pradesh",
    "districtCode": "S1227",
    "districtName": "NARSINGHPUR",
    "acNumber": 121,
    "acName": "GADARWARA",
    "partNumber": 222,
    "partName": "CHANDANKHEDA",
    "lat": 22.9539774,
    "lon": 79.4510666
  },
  {
    "partId": 99835,
    "stateCode": "S12",
    "stateName": "Madhya Pradesh",
    "districtCode": "S1227",
    "districtName": "NARSINGHPUR",
    "acNumber": 121,
    "acName": "GADARWARA",
    "partNumber": 223,
    "partName": "KHALA",
    "lat": 23.1287363,
    "lon": 79.05414711829368
  },
  {
    "partId": 99836,
    "stateCode": "S12",
    "stateName": "Madhya Pradesh",
    "districtCode": "S1227",
    "districtName": "NARSINGHPUR",
    "acNumber": 121,
    "acName": "GADARWARA",
    "partNumber": 224,
    "partName": "SESADABAR",
    "lat": 22.77993825,
    "lon": 78.88811336920402
  },
  {
    "partId": 99845,
    "stateCode": "S12",
    "stateName": "Madhya Pradesh",
    "districtCode": "S1227",
    "districtName": "NARSINGHPUR",
    "acNumber": 121,
    "acName": "GADARWARA",
    "partNumber": 225,
    "partName": "PATKUHI",
    "lat": 22.766229600000003,
    "lon": 78.86722028989945
  },
  {
    "partId": 99846,
    "stateCode": "S12",
    "stateName": "Madhya Pradesh",
    "districtCode": "S1227",
    "districtName": "NARSINGHPUR",
    "acNumber": 121,
    "acName": "GADARWARA",
    "partNumber": 226,
    "partName": "RATIKARAR",
    "lat": 22.7758842,
    "lon": 78.84965404082514
  },
  {
    "partId": 99774,
    "stateCode": "S12",
    "stateName": "Madhya Pradesh",
    "districtCode": "S1227",
    "districtName": "NARSINGHPUR",
    "acNumber": 121,
    "acName": "GADARWARA",
    "partNumber": 227,
    "partName": "CHARGAON KHURD",
    "lat": 22.78521615,
    "lon": 78.90150751306021
  },
  {
    "partId": 99794,
    "stateCode": "S12",
    "stateName": "Madhya Pradesh",
    "districtCode": "S1227",
    "districtName": "NARSINGHPUR",
    "acNumber": 121,
    "acName": "GADARWARA",
    "partNumber": 228,
    "partName": "MOHPANI",
    "lat": 22.78521615,
    "lon": 78.90150751306021
  },
  {
    "partId": 99775,
    "stateCode": "S12",
    "stateName": "Madhya Pradesh",
    "districtCode": "S1227",
    "districtName": "NARSINGHPUR",
    "acNumber": 121,
    "acName": "GADARWARA",
    "partNumber": 229,
    "partName": "BADAGAON",
    "lat": 22.78521615,
    "lon": 78.90150751306021
  },
  {
    "partId": 99792,
    "stateCode": "S12",
    "stateName": "Madhya Pradesh",
    "districtCode": "S1227",
    "districtName": "NARSINGHPUR",
    "acNumber": 121,
    "acName": "GADARWARA",
    "partNumber": 230,
    "partName": "TUIYAPANI",
    "lat": 22.846065356398103,
    "lon": 78.88618064720248
  },
  {
    "partId": 99782,
    "stateCode": "S12",
    "stateName": "Madhya Pradesh",
    "districtCode": "S1227",
    "districtName": "NARSINGHPUR",
    "acNumber": 121,
    "acName": "GADARWARA",
    "partNumber": 231,
    "partName": "BHILMADHANA",
    "lat": 22.68615185,
    "lon": 78.87573894133607
  },
  {
    "partId": 98414,
    "stateCode": "S12",
    "stateName": "Madhya Pradesh",
    "districtCode": "S1227",
    "districtName": "NARSINGHPUR",
    "acNumber": 118,
    "acName": "GOTEGAON",
    "partNumber": 1,
    "partName": "SANKAL",
    "lat": 22.950382644230768,
    "lon": 79.47211033837247
  },
  {
    "partId": 98566,
    "stateCode": "S12",
    "stateName": "Madhya Pradesh",
    "districtCode": "S1227",
    "districtName": "NARSINGHPUR",
    "acNumber": 118,
    "acName": "GOTEGAON",
    "partNumber": 2,
    "partName": "MOHAS",
    "lat": 23.06557935,
    "lon": 79.36641683981063
  },
  {
    "partId": 98567,
    "stateCode": "S12",
    "stateName": "Madhya Pradesh",
    "districtCode": "S1227",
    "districtName": "NARSINGHPUR",
    "acNumber": 118,
    "acName": "GOTEGAON",
    "partNumber": 3,
    "partName": "RIMJHA",
    "lat": 23.08445415,
    "lon": 79.54292874896193
  },
  {
    "partId": 98596,
    "stateCode": "S12",
    "stateName": "Madhya Pradesh",
    "districtCode": "S1227",
    "districtName": "NARSINGHPUR",
    "acNumber": 118,
    "acName": "GOTEGAON",
    "partNumber": 4,
    "partName": "BADHAIYA KHEDA",
    "lat": 22.92814215,
    "lon": 79.56887654539298
  },
  {
    "partId": 98578,
    "stateCode": "S12",
    "stateName": "Madhya Pradesh",
    "districtCode": "S1227",
    "districtName": "NARSINGHPUR",
    "acNumber": 118,
    "acName": "GOTEGAON",
    "partNumber": 5,
    "partName": "BUDHGAON",
    "lat": 23.0989198,
    "lon": 79.38385468163932
  },
  {
    "partId": 98533,
    "stateCode": "S12",
    "stateName": "Madhya Pradesh",
    "districtCode": "S1227",
    "districtName": "NARSINGHPUR",
    "acNumber": 118,
    "acName": "GOTEGAON",
    "partNumber": 6,
    "partName": "PARASWADA",
    "lat": 22.92814215,
    "lon": 79.56887654539298
  },
  {
    "partId": 98437,
    "stateCode": "S12",
    "stateName": "Madhya Pradesh",
    "districtCode": "S1227",
    "districtName": "NARSINGHPUR",
    "acNumber": 118,
    "acName": "GOTEGAON",
    "partNumber": 7,
    "partName": "DEVARI KALA",
    "lat": 22.92814215,
    "lon": 79.56887654539298
  },
  {
    "partId": 98591,
    "stateCode": "S12",
    "stateName": "Madhya Pradesh",
    "districtCode": "S1227",
    "districtName": "NARSINGHPUR",
    "acNumber": 118,
    "acName": "GOTEGAON",
    "partNumber": 8,
    "partName": "KHOBI",
    "lat": 22.950382644230768,
    "lon": 79.47211033837247
  },
  {
    "partId": 98592,
    "stateCode": "S12",
    "stateName": "Madhya Pradesh",
    "districtCode": "S1227",
    "districtName": "NARSINGHPUR",
    "acNumber": 118,
    "acName": "GOTEGAON",
    "partNumber": 9,
    "partName": "BHAINSA",
    "lat": 22.950382644230768,
    "lon": 79.47211033837247
  },
  {
    "partId": 98556,
    "stateCode": "S12",
    "stateName": "Madhya Pradesh",
    "districtCode": "S1227",
    "districtName": "NARSINGHPUR",
    "acNumber": 118,
    "acName": "GOTEGAON",
    "partNumber": 10,
    "partName": "JHONJHA",
    "lat": 22.92814215,
    "lon": 79.56887654539298
  },
  {
    "partId": 98538,
    "stateCode": "S12",
    "stateName": "Madhya Pradesh",
    "districtCode": "S1227",
    "districtName": "NARSINGHPUR",
    "acNumber": 118,
    "acName": "GOTEGAON",
    "partNumber": 11,
    "partName": "JAMUNIYA",
    "lat": 23.09269645,
    "lon": 79.44122661828769
  },
  {
    "partId": 98539,
    "stateCode": "S12",
    "stateName": "Madhya Pradesh",
    "districtCode": "S1227",
    "districtName": "NARSINGHPUR",
    "acNumber": 118,
    "acName": "GOTEGAON",
    "partNumber": 12,
    "partName": "MUAR",
    "lat": 23.09085005,
    "lon": 79.46294966031525
  },
  {
    "partId": 98540,
    "stateCode": "S12",
    "stateName": "Madhya Pradesh",
    "districtCode": "S1227",
    "districtName": "NARSINGHPUR",
    "acNumber": 118,
    "acName": "GOTEGAON",
    "partNumber": 13,
    "partName": "BELKHEDI",
    "lat": 22.950382644230768,
    "lon": 79.47211033837247
  },
  {
    "partId": 98518,
    "stateCode": "S12",
    "stateName": "Madhya Pradesh",
    "districtCode": "S1227",
    "districtName": "NARSINGHPUR",
    "acNumber": 118,
    "acName": "GOTEGAON",
    "partNumber": 14,
    "partName": "CHANDALI",
    "lat": 22.92814215,
    "lon": 79.56887654539298
  },
  {
    "partId": 98636,
    "stateCode": "S12",
    "stateName": "Madhya Pradesh",
    "districtCode": "S1227",
    "districtName": "NARSINGHPUR",
    "acNumber": 118,
    "acName": "GOTEGAON",
    "partNumber": 15,
    "partName": "NONI",
    "lat": 22.950382644230768,
    "lon": 79.47211033837247
  },
  {
    "partId": 98476,
    "stateCode": "S12",
    "stateName": "Madhya Pradesh",
    "districtCode": "S1227",
    "districtName": "NARSINGHPUR",
    "acNumber": 118,
    "acName": "GOTEGAON",
    "partNumber": 16,
    "partName": "NONI",
    "lat": 23.10138415,
    "lon": 79.52782844651405
  },
  {
    "partId": 98440,
    "stateCode": "S12",
    "stateName": "Madhya Pradesh",
    "districtCode": "S1227",
    "districtName": "NARSINGHPUR",
    "acNumber": 118,
    "acName": "GOTEGAON",
    "partNumber": 17,
    "partName": "KARELIKALA",
    "lat": 22.950382644230768,
    "lon": 79.47211033837247
  },
  {
    "partId": 98469,
    "stateCode": "S12",
    "stateName": "Madhya Pradesh",
    "districtCode": "S1227",
    "districtName": "NARSINGHPUR",
    "acNumber": 118,
    "acName": "GOTEGAON",
    "partNumber": 18,
    "partName": "KARELIKHURD",
    "lat": 22.92814215,
    "lon": 79.56887654539298
  },
  {
    "partId": 98485,
    "stateCode": "S12",
    "stateName": "Madhya Pradesh",
    "districtCode": "S1227",
    "districtName": "NARSINGHPUR",
    "acNumber": 118,
    "acName": "GOTEGAON",
    "partNumber": 19,
    "partName": "BELKHEDI",
    "lat": 22.92814215,
    "lon": 79.56887654539298
  },
  {
    "partId": 98438,
    "stateCode": "S12",
    "stateName": "Madhya Pradesh",
    "districtCode": "S1227",
    "districtName": "NARSINGHPUR",
    "acNumber": 118,
    "acName": "GOTEGAON",
    "partNumber": 20,
    "partName": "DEGUVAN",
    "lat": 22.92814215,
    "lon": 79.56887654539298
  },
  {
    "partId": 98486,
    "stateCode": "S12",
    "stateName": "Madhya Pradesh",
    "districtCode": "S1227",
    "districtName": "NARSINGHPUR",
    "acNumber": 118,
    "acName": "GOTEGAON",
    "partNumber": 21,
    "partName": "JHANSIGHAT",
    "lat": 23.1085793,
    "lon": 79.5792117
  },
  {
    "partId": 98487,
    "stateCode": "S12",
    "stateName": "Madhya Pradesh",
    "districtCode": "S1227",
    "districtName": "NARSINGHPUR",
    "acNumber": 118,
    "acName": "GOTEGAON",
    "partNumber": 22,
    "partName": "SILARI",
    "lat": 22.950382644230768,
    "lon": 79.47211033837247
  },
  {
    "partId": 98647,
    "stateCode": "S12",
    "stateName": "Madhya Pradesh",
    "districtCode": "S1227",
    "districtName": "NARSINGHPUR",
    "acNumber": 118,
    "acName": "GOTEGAON",
    "partNumber": 23,
    "partName": "PURADAFAI",
    "lat": 22.950382644230768,
    "lon": 79.47211033837247
  },
  {
    "partId": 98451,
    "stateCode": "S12",
    "stateName": "Madhya Pradesh",
    "districtCode": "S1227",
    "districtName": "NARSINGHPUR",
    "acNumber": 118,
    "acName": "GOTEGAON",
    "partNumber": 24,
    "partName": "KHAMARIYA",
    "lat": 23.09515725,
    "lon": 79.55630744318356
  },
  {
    "partId": 98452,
    "stateCode": "S12",
    "stateName": "Madhya Pradesh",
    "districtCode": "S1227",
    "districtName": "NARSINGHPUR",
    "acNumber": 118,
    "acName": "GOTEGAON",
    "partNumber": 25,
    "partName": "KUSIWADA",
    "lat": 22.92814215,
    "lon": 79.56887654539298
  },
  {
    "partId": 98558,
    "stateCode": "S12",
    "stateName": "Madhya Pradesh",
    "districtCode": "S1227",
    "districtName": "NARSINGHPUR",
    "acNumber": 118,
    "acName": "GOTEGAON",
    "partNumber": 26,
    "partName": "SIMARIYA",
    "lat": 23.0537263,
    "lon": 79.52569029273009
  },
  {
    "partId": 98648,
    "stateCode": "S12",
    "stateName": "Madhya Pradesh",
    "districtCode": "S1227",
    "districtName": "NARSINGHPUR",
    "acNumber": 118,
    "acName": "GOTEGAON",
    "partNumber": 27,
    "partName": "SIMARIYA",
    "lat": 22.950382644230768,
    "lon": 79.47211033837247
  },
  {
    "partId": 98508,
    "stateCode": "S12",
    "stateName": "Madhya Pradesh",
    "districtCode": "S1227",
    "districtName": "NARSINGHPUR",
    "acNumber": 118,
    "acName": "GOTEGAON",
    "partNumber": 28,
    "partName": "BAGLAIUJAR",
    "lat": 22.92814215,
    "lon": 79.56887654539298
  },
  {
    "partId": 98491,
    "stateCode": "S12",
    "stateName": "Madhya Pradesh",
    "districtCode": "S1227",
    "districtName": "NARSINGHPUR",
    "acNumber": 118,
    "acName": "GOTEGAON",
    "partNumber": 29,
    "partName": "KANJAI",
    "lat": 23.0699991,
    "lon": 79.5126941
  },
  {
    "partId": 98426,
    "stateCode": "S12",
    "stateName": "Madhya Pradesh",
    "districtCode": "S1227",
    "districtName": "NARSINGHPUR",
    "acNumber": 118,
    "acName": "GOTEGAON",
    "partNumber": 30,
    "partName": "KANJI",
    "lat": 22.92814215,
    "lon": 79.56887654539298
  },
  {
    "partId": 98602,
    "stateCode": "S12",
    "stateName": "Madhya Pradesh",
    "districtCode": "S1227",
    "districtName": "NARSINGHPUR",
    "acNumber": 118,
    "acName": "GOTEGAON",
    "partNumber": 31,
    "partName": "GARRA",
    "lat": 23.083007199999997,
    "lon": 79.49515198186782
  },
  {
    "partId": 98449,
    "stateCode": "S12",
    "stateName": "Madhya Pradesh",
    "districtCode": "S1227",
    "districtName": "NARSINGHPUR",
    "acNumber": 118,
    "acName": "GOTEGAON",
    "partNumber": 32,
    "partName": "MURADAI",
    "lat": 22.92814215,
    "lon": 79.56887654539298
  },
  {
    "partId": 98445,
    "stateCode": "S12",
    "stateName": "Madhya Pradesh",
    "districtCode": "S1227",
    "districtName": "NARSINGHPUR",
    "acNumber": 118,
    "acName": "GOTEGAON",
    "partNumber": 33,
    "partName": "KUMHADAKHEDA",
    "lat": 22.950382644230768,
    "lon": 79.47211033837247
  },
  {
    "partId": 98644,
    "stateCode": "S12",
    "stateName": "Madhya Pradesh",
    "districtCode": "S1227",
    "districtName": "NARSINGHPUR",
    "acNumber": 118,
    "acName": "GOTEGAON",
    "partNumber": 34,
    "partName": "GOHACHAR",
    "lat": 22.92814215,
    "lon": 79.56887654539298
  },
  {
    "partId": 98528,
    "stateCode": "S12",
    "stateName": "Madhya Pradesh",
    "districtCode": "S1227",
    "districtName": "NARSINGHPUR",
    "acNumber": 118,
    "acName": "GOTEGAON",
    "partNumber": 35,
    "partName": "DIGHARI",
    "lat": 22.950382644230768,
    "lon": 79.47211033837247
  },
  {
    "partId": 98626,
    "stateCode": "S12",
    "stateName": "Madhya Pradesh",
    "districtCode": "S1227",
    "districtName": "NARSINGHPUR",
    "acNumber": 118,
    "acName": "GOTEGAON",
    "partNumber": 36,
    "partName": "KAMOD",
    "lat": 23.0607538,
    "lon": 79.43950128609134
  },
  {
    "partId": 98544,
    "stateCode": "S12",
    "stateName": "Madhya Pradesh",
    "districtCode": "S1227",
    "districtName": "NARSINGHPUR",
    "acNumber": 118,
    "acName": "GOTEGAON",
    "partNumber": 37,
    "partName": "KAMOD",
    "lat": 23.0607538,
    "lon": 79.43950128609134
  },
  {
    "partId": 98441,
    "stateCode": "S12",
    "stateName": "Madhya Pradesh",
    "districtCode": "S1227",
    "districtName": "NARSINGHPUR",
    "acNumber": 118,
    "acName": "GOTEGAON",
    "partNumber": 38,
    "partName": "RAHALI",
    "lat": 23.17024465,
    "lon": 79.05135383536836
  },
  {
    "partId": 98641,
    "stateCode": "S12",
    "stateName": "Madhya Pradesh",
    "districtCode": "S1227",
    "districtName": "NARSINGHPUR",
    "acNumber": 118,
    "acName": "GOTEGAON",
    "partNumber": 39,
    "partName": "ANKHIWADA",
    "lat": 22.92814215,
    "lon": 79.56887654539298
  },
  {
    "partId": 98614,
    "stateCode": "S12",
    "stateName": "Madhya Pradesh",
    "districtCode": "S1227",
    "districtName": "NARSINGHPUR",
    "acNumber": 118,
    "acName": "GOTEGAON",
    "partNumber": 40,
    "partName": "UMARA",
    "lat": 22.92814215,
    "lon": 79.56887654539298
  },
  {
    "partId": 98468,
    "stateCode": "S12",
    "stateName": "Madhya Pradesh",
    "districtCode": "S1227",
    "districtName": "NARSINGHPUR",
    "acNumber": 118,
    "acName": "GOTEGAON",
    "partNumber": 41,
    "partName": "PINDRAI",
    "lat": 22.8014519,
    "lon": 79.35781440254964
  },
  {
    "partId": 98615,
    "stateCode": "S12",
    "stateName": "Madhya Pradesh",
    "districtCode": "S1227",
    "districtName": "NARSINGHPUR",
    "acNumber": 118,
    "acName": "GOTEGAON",
    "partNumber": 42,
    "partName": "SIMARIBADI",
    "lat": 22.92814215,
    "lon": 79.56887654539298
  },
  {
    "partId": 98619,
    "stateCode": "S12",
    "stateName": "Madhya Pradesh",
    "districtCode": "S1227",
    "districtName": "NARSINGHPUR",
    "acNumber": 118,
    "acName": "GOTEGAON",
    "partNumber": 43,
    "partName": "BAMHANI",
    "lat": 22.873312249999998,
    "lon": 79.53901026799852
  },
  {
    "partId": 98453,
    "stateCode": "S12",
    "stateName": "Madhya Pradesh",
    "districtCode": "S1227",
    "districtName": "NARSINGHPUR",
    "acNumber": 118,
    "acName": "GOTEGAON",
    "partNumber": 44,
    "partName": "TIKARI",
    "lat": 22.92814215,
    "lon": 79.56887654539298
  },
  {
    "partId": 98620,
    "stateCode": "S12",
    "stateName": "Madhya Pradesh",
    "districtCode": "S1227",
    "districtName": "NARSINGHPUR",
    "acNumber": 118,
    "acName": "GOTEGAON",
    "partNumber": 45,
    "partName": "MUNGALI",
    "lat": 22.92814215,
    "lon": 79.56887654539298
  },
  {
    "partId": 98606,
    "stateCode": "S12",
    "stateName": "Madhya Pradesh",
    "districtCode": "S1227",
    "districtName": "NARSINGHPUR",
    "acNumber": 118,
    "acName": "GOTEGAON",
    "partNumber": 46,
    "partName": "DEVARI KALA",
    "lat": 22.92814215,
    "lon": 79.56887654539298
  },
  {
    "partId": 98590,
    "stateCode": "S12",
    "stateName": "Madhya Pradesh",
    "districtCode": "S1227",
    "districtName": "NARSINGHPUR",
    "acNumber": 118,
    "acName": "GOTEGAON",
    "partNumber": 47,
    "partName": "KARAKBEL",
    "lat": 22.9920078,
    "lon": 79.3413121
  },
  {
    "partId": 98625,
    "stateCode": "S12",
    "stateName": "Madhya Pradesh",
    "districtCode": "S1227",
    "districtName": "NARSINGHPUR",
    "acNumber": 118,
    "acName": "GOTEGAON",
    "partNumber": 48,
    "partName": "KARAKABEL",
    "lat": 22.92814215,
    "lon": 79.56887654539298
  },
  {
    "partId": 98432,
    "stateCode": "S12",
    "stateName": "Madhya Pradesh",
    "districtCode": "S1227",
    "districtName": "NARSINGHPUR",
    "acNumber": 118,
    "acName": "GOTEGAON",
    "partNumber": 49,
    "partName": "PIPARIYA MUSHARAN",
    "lat": 22.950382644230768,
    "lon": 79.47211033837247
  },
  {
    "partId": 98637,
    "stateCode": "S12",
    "stateName": "Madhya Pradesh",
    "districtCode": "S1227",
    "districtName": "NARSINGHPUR",
    "acNumber": 118,
    "acName": "GOTEGAON",
    "partNumber": 50,
    "partName": "AKOLA",
    "lat": 23.044370649999998,
    "lon": 79.36108699039202
  },
  {
    "partId": 98477,
    "stateCode": "S12",
    "stateName": "Madhya Pradesh",
    "districtCode": "S1227",
    "districtName": "NARSINGHPUR",
    "acNumber": 118,
    "acName": "GOTEGAON",
    "partNumber": 51,
    "partName": "KANDHARPUR",
    "lat": 23.03623,
    "lon": 79.3512476
  },
  {
    "partId": 98467,
    "stateCode": "S12",
    "stateName": "Madhya Pradesh",
    "districtCode": "S1227",
    "districtName": "NARSINGHPUR",
    "acNumber": 118,
    "acName": "GOTEGAON",
    "partNumber": 52,
    "partName": "KHAMARIYA",
    "lat": 23.09515725,
    "lon": 79.55630744318356
  },
  {
    "partId": 98478,
    "stateCode": "S12",
    "stateName": "Madhya Pradesh",
    "districtCode": "S1227",
    "districtName": "NARSINGHPUR",
    "acNumber": 118,
    "acName": "GOTEGAON",
    "partNumber": 53,
    "partName": "THEMI",
    "lat": 23.0195824,
    "lon": 79.3354565
  },
  {
    "partId": 98523,
    "stateCode": "S12",
    "stateName": "Madhya Pradesh",
    "districtCode": "S1227",
    "districtName": "NARSINGHPUR",
    "acNumber": 118,
    "acName": "GOTEGAON",
    "partNumber": 54,
    "partName": "THEMI",
    "lat": 23.0195824,
    "lon": 79.3354565
  },
  {
    "partId": 98524,
    "stateCode": "S12",
    "stateName": "Madhya Pradesh",
    "districtCode": "S1227",
    "districtName": "NARSINGHPUR",
    "acNumber": 118,
    "acName": "GOTEGAON",
    "partNumber": 55,
    "partName": "BADGUVA",
    "lat": 22.92814215,
    "lon": 79.56887654539298
  },
  {
    "partId": 98575,
    "stateCode": "S12",
    "stateName": "Madhya Pradesh",
    "districtCode": "S1227",
    "districtName": "NARSINGHPUR",
    "acNumber": 118,
    "acName": "GOTEGAON",
    "partNumber": 56,
    "partName": "MALAHPIPARIYA",
    "lat": 22.92814215,
    "lon": 79.56887654539298
  },
  {
    "partId": 98466,
    "stateCode": "S12",
    "stateName": "Madhya Pradesh",
    "districtCode": "S1227",
    "districtName": "NARSINGHPUR",
    "acNumber": 118,
    "acName": "GOTEGAON",
    "partNumber": 57,
    "partName": "MALAH PIPARIYA",
    "lat": 22.92814215,
    "lon": 79.56887654539298
  },
  {
    "partId": 98444,
    "stateCode": "S12",
    "stateName": "Madhya Pradesh",
    "districtCode": "S1227",
    "districtName": "NARSINGHPUR",
    "acNumber": 118,
    "acName": "GOTEGAON",
    "partNumber": 58,
    "partName": "NAYAGAON",
    "lat": 22.9684898,
    "lon": 78.878317155466
  },
  {
    "partId": 98405,
    "stateCode": "S12",
    "stateName": "Madhya Pradesh",
    "districtCode": "S1227",
    "districtName": "NARSINGHPUR",
    "acNumber": 118,
    "acName": "GOTEGAON",
    "partNumber": 59,
    "partName": "NAYAGAON",
    "lat": 22.9684898,
    "lon": 78.878317155466
  },
  {
    "partId": 98474,
    "stateCode": "S12",
    "stateName": "Madhya Pradesh",
    "districtCode": "S1227",
    "districtName": "NARSINGHPUR",
    "acNumber": 118,
    "acName": "GOTEGAON",
    "partNumber": 60,
    "partName": "MACHWARA",
    "lat": 23.017085549999997,
    "lon": 79.29036219054515
  },
  {
    "partId": 98554,
    "stateCode": "S12",
    "stateName": "Madhya Pradesh",
    "districtCode": "S1227",
    "districtName": "NARSINGHPUR",
    "acNumber": 118,
    "acName": "GOTEGAON",
    "partNumber": 61,
    "partName": "BARGI",
    "lat": 23.003806599999997,
    "lon": 79.30482736855672
  },
  {
    "partId": 98555,
    "stateCode": "S12",
    "stateName": "Madhya Pradesh",
    "districtCode": "S1227",
    "districtName": "NARSINGHPUR",
    "acNumber": 118,
    "acName": "GOTEGAON",
    "partNumber": 62,
    "partName": "BELKHEDA",
    "lat": 22.92814215,
    "lon": 79.56887654539298
  },
  {
    "partId": 98513,
    "stateCode": "S12",
    "stateName": "Madhya Pradesh",
    "districtCode": "S1227",
    "districtName": "NARSINGHPUR",
    "acNumber": 118,
    "acName": "GOTEGAON",
    "partNumber": 63,
    "partName": "MALHOUA",
    "lat": 22.92814215,
    "lon": 79.56887654539298
  },
  {
    "partId": 98514,
    "stateCode": "S12",
    "stateName": "Madhya Pradesh",
    "districtCode": "S1227",
    "districtName": "NARSINGHPUR",
    "acNumber": 118,
    "acName": "GOTEGAON",
    "partNumber": 64,
    "partName": "JHIRIKHURD",
    "lat": 22.92814215,
    "lon": 79.56887654539298
  },
  {
    "partId": 98403,
    "stateCode": "S12",
    "stateName": "Madhya Pradesh",
    "districtCode": "S1227",
    "districtName": "NARSINGHPUR",
    "acNumber": 118,
    "acName": "GOTEGAON",
    "partNumber": 65,
    "partName": "GHATPINDARAI",
    "lat": 22.92814215,
    "lon": 79.56887654539298
  },
  {
    "partId": 98519,
    "stateCode": "S12",
    "stateName": "Madhya Pradesh",
    "districtCode": "S1227",
    "districtName": "NARSINGHPUR",
    "acNumber": 118,
    "acName": "GOTEGAON",
    "partNumber": 66,
    "partName": "DONGARGAON",
    "lat": 23.11443965,
    "lon": 79.26000022211525
  },
  {
    "partId": 98520,
    "stateCode": "S12",
    "stateName": "Madhya Pradesh",
    "districtCode": "S1227",
    "districtName": "NARSINGHPUR",
    "acNumber": 118,
    "acName": "GOTEGAON",
    "partNumber": 67,
    "partName": "ANDIYA",
    "lat": 23.0434391,
    "lon": 78.94884244323144
  },
  {
    "partId": 98521,
    "stateCode": "S12",
    "stateName": "Madhya Pradesh",
    "districtCode": "S1227",
    "districtName": "NARSINGHPUR",
    "acNumber": 118,
    "acName": "GOTEGAON",
    "partNumber": 68,
    "partName": "SURAJGAON",
    "lat": 22.961171,
    "lon": 79.23475351791136
  },
  {
    "partId": 98534,
    "stateCode": "S12",
    "stateName": "Madhya Pradesh",
    "districtCode": "S1227",
    "districtName": "NARSINGHPUR",
    "acNumber": 118,
    "acName": "GOTEGAON",
    "partNumber": 69,
    "partName": "PANJRA",
    "lat": 22.79417385,
    "lon": 79.40533278434901
  },
  {
    "partId": 98446,
    "stateCode": "S12",
    "stateName": "Madhya Pradesh",
    "districtCode": "S1227",
    "districtName": "NARSINGHPUR",
    "acNumber": 118,
    "acName": "GOTEGAON",
    "partNumber": 70,
    "partName": "GOTEGAON",
    "lat": 22.92814215,
    "lon": 79.56887654539298
  },
  {
    "partId": 98516,
    "stateCode": "S12",
    "stateName": "Madhya Pradesh",
    "districtCode": "S1227",
    "districtName": "NARSINGHPUR",
    "acNumber": 118,
    "acName": "GOTEGAON",
    "partNumber": 71,
    "partName": "DOKARGHAT",
    "lat": 22.9390141,
    "lon": 79.2541865
  },
  {
    "partId": 98517,
    "stateCode": "S12",
    "stateName": "Madhya Pradesh",
    "districtCode": "S1227",
    "districtName": "NARSINGHPUR",
    "acNumber": 118,
    "acName": "GOTEGAON",
    "partNumber": 72,
    "partName": "MUDIYA",
    "lat": 22.92814215,
    "lon": 79.56887654539298
  },
  {
    "partId": 98493,
    "stateCode": "S12",
    "stateName": "Madhya Pradesh",
    "districtCode": "S1227",
    "districtName": "NARSINGHPUR",
    "acNumber": 118,
    "acName": "GOTEGAON",
    "partNumber": 73,
    "partName": "DANGIDHANA",
    "lat": 22.9172078,
    "lon": 79.27579262158207
  },
  {
    "partId": 98494,
    "stateCode": "S12",
    "stateName": "Madhya Pradesh",
    "districtCode": "S1227",
    "districtName": "NARSINGHPUR",
    "acNumber": 118,
    "acName": "GOTEGAON",
    "partNumber": 74,
    "partName": "MURALIPONDI",
    "lat": 22.92814215,
    "lon": 79.56887654539298
  },
  {
    "partId": 98526,
    "stateCode": "S12",
    "stateName": "Madhya Pradesh",
    "districtCode": "S1227",
    "districtName": "NARSINGHPUR",
    "acNumber": 118,
    "acName": "GOTEGAON",
    "partNumber": 75,
    "partName": "BAIHARPONDI",
    "lat": 22.92814215,
    "lon": 79.56887654539298
  },
  {
    "partId": 98409,
    "stateCode": "S12",
    "stateName": "Madhya Pradesh",
    "districtCode": "S1227",
    "districtName": "NARSINGHPUR",
    "acNumber": 118,
    "acName": "GOTEGAON",
    "partNumber": 76,
    "partName": "BAGAPOUDI",
    "lat": 22.92814215,
    "lon": 79.56887654539298
  },
  {
    "partId": 98410,
    "stateCode": "S12",
    "stateName": "Madhya Pradesh",
    "districtCode": "S1227",
    "districtName": "NARSINGHPUR",
    "acNumber": 118,
    "acName": "GOTEGAON",
    "partNumber": 77,
    "partName": "BHARWARA",
    "lat": 22.94458375,
    "lon": 79.27478010399983
  },
  {
    "partId": 98411,
    "stateCode": "S12",
    "stateName": "Madhya Pradesh",
    "districtCode": "S1227",
    "districtName": "NARSINGHPUR",
    "acNumber": 118,
    "acName": "GOTEGAON",
    "partNumber": 78,
    "partName": "PANSI",
    "lat": 22.958921,
    "lon": 79.277470293756
  },
  {
    "partId": 98465,
    "stateCode": "S12",
    "stateName": "Madhya Pradesh",
    "districtCode": "S1227",
    "districtName": "NARSINGHPUR",
    "acNumber": 118,
    "acName": "GOTEGAON",
    "partNumber": 79,
    "partName": "SINGRAMPUR",
    "lat": 22.9584751,
    "lon": 79.29488346745973
  },
  {
    "partId": 98412,
    "stateCode": "S12",
    "stateName": "Madhya Pradesh",
    "districtCode": "S1227",
    "districtName": "NARSINGHPUR",
    "acNumber": 118,
    "acName": "GOTEGAON",
    "partNumber": 80,
    "partName": "BAMHANI",
    "lat": 22.873312249999998,
    "lon": 79.53901026799852
  },
  {
    "partId": 98504,
    "stateCode": "S12",
    "stateName": "Madhya Pradesh",
    "districtCode": "S1227",
    "districtName": "NARSINGHPUR",
    "acNumber": 118,
    "acName": "GOTEGAON",
    "partNumber": 81,
    "partName": "KAPKHEDA",
    "lat": 22.92814215,
    "lon": 79.56887654539298
  },
  {
    "partId": 98581,
    "stateCode": "S12",
    "stateName": "Madhya Pradesh",
    "districtCode": "S1227",
    "districtName": "NARSINGHPUR",
    "acNumber": 118,
    "acName": "GOTEGAON",
    "partNumber": 82,
    "partName": "BOUCHHAR",
    "lat": 22.92814215,
    "lon": 79.56887654539298
  },
  {
    "partId": 98568,
    "stateCode": "S12",
    "stateName": "Madhya Pradesh",
    "districtCode": "S1227",
    "districtName": "NARSINGHPUR",
    "acNumber": 118,
    "acName": "GOTEGAON",
    "partNumber": 83,
    "partName": "BOUCHHAR",
    "lat": 22.92814215,
    "lon": 79.56887654539298
  },
  {
    "partId": 98583,
    "stateCode": "S12",
    "stateName": "Madhya Pradesh",
    "districtCode": "S1227",
    "districtName": "NARSINGHPUR",
    "acNumber": 118,
    "acName": "GOTEGAON",
    "partNumber": 84,
    "partName": "BOUCHHAR",
    "lat": 22.92814215,
    "lon": 79.56887654539298
  },
  {
    "partId": 98489,
    "stateCode": "S12",
    "stateName": "Madhya Pradesh",
    "districtCode": "S1227",
    "districtName": "NARSINGHPUR",
    "acNumber": 118,
    "acName": "GOTEGAON",
    "partNumber": 85,
    "partName": "LUHARI",
    "lat": 23.00248775,
    "lon": 79.31872019029643
  },
  {
    "partId": 98608,
    "stateCode": "S12",
    "stateName": "Madhya Pradesh",
    "districtCode": "S1227",
    "districtName": "NARSINGHPUR",
    "acNumber": 118,
    "acName": "GOTEGAON",
    "partNumber": 86,
    "partName": "BASANPANI",
    "lat": 22.9644737,
    "lon": 79.34715962618003
  },
  {
    "partId": 98649,
    "stateCode": "S12",
    "stateName": "Madhya Pradesh",
    "districtCode": "S1227",
    "districtName": "NARSINGHPUR",
    "acNumber": 118,
    "acName": "GOTEGAON",
    "partNumber": 87,
    "partName": "BASANPANI",
    "lat": 22.950382644230768,
    "lon": 79.47211033837247
  },
  {
    "partId": 98584,
    "stateCode": "S12",
    "stateName": "Madhya Pradesh",
    "districtCode": "S1227",
    "districtName": "NARSINGHPUR",
    "acNumber": 118,
    "acName": "GOTEGAON",
    "partNumber": 88,
    "partName": "MEKH",
    "lat": 22.98372945,
    "lon": 79.37031350574226
  },
  {
    "partId": 98397,
    "stateCode": "S12",
    "stateName": "Madhya Pradesh",
    "districtCode": "S1227",
    "districtName": "NARSINGHPUR",
    "acNumber": 118,
    "acName": "GOTEGAON",
    "partNumber": 89,
    "partName": "MEKH",
    "lat": 22.98372945,
    "lon": 79.37031350574226
  },
  {
    "partId": 98531,
    "stateCode": "S12",
    "stateName": "Madhya Pradesh",
    "districtCode": "S1227",
    "districtName": "NARSINGHPUR",
    "acNumber": 118,
    "acName": "GOTEGAON",
    "partNumber": 90,
    "partName": "MANEGAON",
    "lat": 22.950382644230768,
    "lon": 79.47211033837247
  },
  {
    "partId": 98594,
    "stateCode": "S12",
    "stateName": "Madhya Pradesh",
    "districtCode": "S1227",
    "districtName": "NARSINGHPUR",
    "acNumber": 118,
    "acName": "GOTEGAON",
    "partNumber": 91,
    "partName": "IMALIYA",
    "lat": 22.92814215,
    "lon": 79.56887654539298
  },
  {
    "partId": 98394,
    "stateCode": "S12",
    "stateName": "Madhya Pradesh",
    "districtCode": "S1227",
    "districtName": "NARSINGHPUR",
    "acNumber": 118,
    "acName": "GOTEGAON",
    "partNumber": 92,
    "partName": "KAMATI",
    "lat": 22.92814215,
    "lon": 79.56887654539298
  },
  {
    "partId": 98542,
    "stateCode": "S12",
    "stateName": "Madhya Pradesh",
    "districtCode": "S1227",
    "districtName": "NARSINGHPUR",
    "acNumber": 118,
    "acName": "GOTEGAON",
    "partNumber": 93,
    "partName": "BAROUDA",
    "lat": 22.950382644230768,
    "lon": 79.47211033837247
  },
  {
    "partId": 98471,
    "stateCode": "S12",
    "stateName": "Madhya Pradesh",
    "districtCode": "S1227",
    "districtName": "NARSINGHPUR",
    "acNumber": 118,
    "acName": "GOTEGAON",
    "partNumber": 94,
    "partName": "SAHAJPURA",
    "lat": 23.00120205,
    "lon": 79.47328733007987
  },
  {
    "partId": 98472,
    "stateCode": "S12",
    "stateName": "Madhya Pradesh",
    "districtCode": "S1227",
    "districtName": "NARSINGHPUR",
    "acNumber": 118,
    "acName": "GOTEGAON",
    "partNumber": 95,
    "partName": "GOTEGAONKHEDA",
    "lat": 22.92814215,
    "lon": 79.56887654539298
  },