[
  {
    "partId": 110884,
    "stateCode": "S12",
    "stateName": "Madhya Pradesh",
    "districtCode": "S1236",
    "districtName": "RAJGARH",
    "acNumber": 161,
    "acName": "BIAORA",
    "partNumber": 1,
    "partName": "CHATHA",
    "lat": 23.70131825,
    "lon": 76.86484293453104
  },
  {
    "partId": 110982,
    "stateCode": "S12",
    "stateName": "Madhya Pradesh",
    "districtCode": "S1236",
    "districtName": "RAJGARH",
    "acNumber": 161,
    "acName": "BIAORA",
    "partNumber": 2,
    "partName": "BANJARI",
    "lat": 23.7288423,
    "lon": 76.9822955
  },
  {
    "partId": 110885,
    "stateCode": "S12",
    "stateName": "Madhya Pradesh",
    "districtCode": "S1236",
    "districtName": "RAJGARH",
    "acNumber": 161,
    "acName": "BIAORA",
    "partNumber": 3,
    "partName": "KHANPURA",
    "lat": 23.8572484,
    "lon": 76.7287302
  },
  {
    "partId": 110855,
    "stateCode": "S12",
    "stateName": "Madhya Pradesh",
    "districtCode": "S1236",
    "districtName": "RAJGARH",
    "acNumber": 161,
    "acName": "BIAORA",
    "partNumber": 4,
    "partName": "MOI",
    "lat": 24.0043821,
    "lon": 76.47937084737889
  },
  {
    "partId": 110886,
    "stateCode": "S12",
    "stateName": "Madhya Pradesh",
    "districtCode": "S1236",
    "districtName": "RAJGARH",
    "acNumber": 161,
    "acName": "BIAORA",
    "partNumber": 5,
    "partName": "ARANYA",
    "lat": 23.9419189,
    "lon": 76.9195747
  },
  {
    "partId": 110887,
    "stateCode": "S12",
    "stateName": "Madhya Pradesh",
    "districtCode": "S1236",
    "districtName": "RAJGARH",
    "acNumber": 161,
    "acName": "BIAORA",
    "partNumber": 6,
    "partName": "MOYA",
    "lat": 23.9504005,
    "lon": 76.8988895
  },
  {
    "partId": 110888,
    "stateCode": "S12",
    "stateName": "Madhya Pradesh",
    "districtCode": "S1236",
    "districtName": "RAJGARH",
    "acNumber": 161,
    "acName": "BIAORA",
    "partNumber": 7,
    "partName": "CHAMARI",
    "lat": 23.8809953,
    "lon": 76.58856634306827
  },
  {
    "partId": 110986,
    "stateCode": "S12",
    "stateName": "Madhya Pradesh",
    "districtCode": "S1236",
    "districtName": "RAJGARH",
    "acNumber": 161,
    "acName": "BIAORA",
    "partNumber": 8,
    "partName": "KHANKRA SABALA",
    "lat": 23.9140506,
    "lon": 76.92953663823248
  },
  {
    "partId": 110987,
    "stateCode": "S12",
    "stateName": "Madhya Pradesh",
    "districtCode": "S1236",
    "districtName": "RAJGARH",
    "acNumber": 161,
    "acName": "BIAORA",
    "partNumber": 9,
    "partName": "PEEPALBAY",
    "lat": 23.9140506,
    "lon": 76.92953663823248
  },
  {
    "partId": 110713,
    "stateCode": "S12",
    "stateName": "Madhya Pradesh",
    "districtCode": "S1236",
    "districtName": "RAJGARH",
    "acNumber": 161,
    "acName": "BIAORA",
    "partNumber": 10,
    "partName": "BINYAKHEDI",
    "lat": 23.9140506,
    "lon": 76.92953663823248
  },
  {
    "partId": 110988,
    "stateCode": "S12",
    "stateName": "Madhya Pradesh",
    "districtCode": "S1236",
    "districtName": "RAJGARH",
    "acNumber": 161,
    "acName": "BIAORA",
    "partNumber": 11,
    "partName": "KATARIYAKHEDI",
    "lat": 23.9140506,
    "lon": 76.92953663823248
  },
  {
    "partId": 110989,
    "stateCode": "S12",
    "stateName": "Madhya Pradesh",
    "districtCode": "S1236",
    "districtName": "RAJGARH",
    "acNumber": 161,
    "acName": "BIAORA",
    "partNumber": 12,
    "partName": "NAYAPURA",
    "lat": 24.237105800000002,
    "lon": 76.67113186895115
  },
  {
    "partId": 110997,
    "stateCode": "S12",
    "stateName": "Madhya Pradesh",
    "districtCode": "S1236",
    "districtName": "RAJGARH",
    "acNumber": 161,
    "acName": "BIAORA",
    "partNumber": 13,
    "partName": "JAMONIYAGHATA",
    "lat": 23.9140506,
    "lon": 76.92953663823248
  },
  {
    "partId": 110990,
    "stateCode": "S12",
    "stateName": "Madhya Pradesh",
    "districtCode": "S1236",
    "districtName": "RAJGARH",
    "acNumber": 161,
    "acName": "BIAORA",
    "partNumber": 14,
    "partName": "KHURI",
    "lat": 23.92608375,
    "lon": 76.88238422727068
  },
  {
    "partId": 110892,
    "stateCode": "S12",
    "stateName": "Madhya Pradesh",
    "districtCode": "S1236",
    "districtName": "RAJGARH",
    "acNumber": 161,
    "acName": "BIAORA",
    "partNumber": 15,
    "partName": "KHURI",
    "lat": 23.92608375,
    "lon": 76.88238422727068
  },
  {
    "partId": 110991,
    "stateCode": "S12",
    "stateName": "Madhya Pradesh",
    "districtCode": "S1236",
    "districtName": "RAJGARH",
    "acNumber": 161,
    "acName": "BIAORA",
    "partNumber": 16,
    "partName": "MOHANI PURA",
    "lat": 23.9140506,
    "lon": 76.92953663823248
  },
  {
    "partId": 110992,
    "stateCode": "S12",
    "stateName": "Madhya Pradesh",
    "districtCode": "S1236",
    "districtName": "RAJGARH",
    "acNumber": 161,
    "acName": "BIAORA",
    "partNumber": 17,
    "partName": "MALYAHEDI",
    "lat": 23.9140506,
    "lon": 76.92953663823248
  },
  {
    "partId": 110856,
    "stateCode": "S12",
    "stateName": "Madhya Pradesh",
    "districtCode": "S1236",
    "districtName": "RAJGARH",
    "acNumber": 161,
    "acName": "BIAORA",
    "partNumber": 18,
    "partName": "BHADKYA",
    "lat": 23.9071824,
    "lon": 76.852659
  },
  {
    "partId": 110960,
    "stateCode": "S12",
    "stateName": "Madhya Pradesh",
    "districtCode": "S1236",
    "districtName": "RAJGARH",
    "acNumber": 161,
    "acName": "BIAORA",
    "partNumber": 19,
    "partName": "MULTANAPURA",
    "lat": 23.9140506,
    "lon": 76.92953663823248
  },
  {
    "partId": 110961,
    "stateCode": "S12",
    "stateName": "Madhya Pradesh",
    "districtCode": "S1236",
    "districtName": "RAJGARH",
    "acNumber": 161,
    "acName": "BIAORA",
    "partNumber": 20,
    "partName": "MULATANAPURA",
    "lat": 23.9140506,
    "lon": 76.92953663823248
  },
  {
    "partId": 110962,
    "stateCode": "S12",
    "stateName": "Madhya Pradesh",
    "districtCode": "S1236",
    "districtName": "RAJGARH",
    "acNumber": 161,
    "acName": "BIAORA",
    "partNumber": 21,
    "partName": "PADONIYA",
    "lat": 23.9140506,
    "lon": 76.92953663823248
  },
  {
    "partId": 110963,
    "stateCode": "S12",
    "stateName": "Madhya Pradesh",
    "districtCode": "S1236",
    "districtName": "RAJGARH",
    "acNumber": 161,
    "acName": "BIAORA",
    "partNumber": 22,
    "partName": "PADONIYA",
    "lat": 23.9140506,
    "lon": 76.92953663823248
  },
  {
    "partId": 110964,
    "stateCode": "S12",
    "stateName": "Madhya Pradesh",
    "districtCode": "S1236",
    "districtName": "RAJGARH",
    "acNumber": 161,
    "acName": "BIAORA",
    "partNumber": 23,
    "partName": "KACHANARIYA",
    "lat": 23.9140506,
    "lon": 76.92953663823248
  },
  {
    "partId": 110965,
    "stateCode": "S12",
    "stateName": "Madhya Pradesh",
    "districtCode": "S1236",
    "districtName": "RAJGARH",
    "acNumber": 161,
    "acName": "BIAORA",
    "partNumber": 24,
    "partName": "KACHANARIYA",
    "lat": 23.9140506,
    "lon": 76.92953663823248
  },
  {
    "partId": 110966,
    "stateCode": "S12",
    "stateName": "Madhya Pradesh",
    "districtCode": "S1236",
    "districtName": "RAJGARH",
    "acNumber": 161,
    "acName": "BIAORA",
    "partNumber": 25,
    "partName": "BALCHIDI",
    "lat": 23.8530683,
    "lon": 76.8794918
  },
  {
    "partId": 110967,
    "stateCode": "S12",
    "stateName": "Madhya Pradesh",
    "districtCode": "S1236",
    "districtName": "RAJGARH",
    "acNumber": 161,
    "acName": "BIAORA",
    "partNumber": 26,
    "partName": "PARSULIYA",
    "lat": 23.8562279,
    "lon": 76.8508136
  },
  {
    "partId": 110981,
    "stateCode": "S12",
    "stateName": "Madhya Pradesh",
    "districtCode": "S1236",
    "districtName": "RAJGARH",
    "acNumber": 161,
    "acName": "BIAORA",
    "partNumber": 27,
    "partName": "PARASULIYA",
    "lat": 23.9140506,
    "lon": 76.92953663823248
  },
  {
    "partId": 110936,
    "stateCode": "S12",
    "stateName": "Madhya Pradesh",
    "districtCode": "S1236",
    "districtName": "RAJGARH",
    "acNumber": 161,
    "acName": "BIAORA",
    "partNumber": 28,
    "partName": "BARGYA",
    "lat": 23.8280246,
    "lon": 76.8623256
  },
  {
    "partId": 110937,
    "stateCode": "S12",
    "stateName": "Madhya Pradesh",
    "districtCode": "S1236",
    "districtName": "RAJGARH",
    "acNumber": 161,
    "acName": "BIAORA",
    "partNumber": 29,
    "partName": "SHAHPURA",
    "lat": 23.799817400000002,
    "lon": 76.86877719862375
  },
  {
    "partId": 110938,
    "stateCode": "S12",
    "stateName": "Madhya Pradesh",
    "districtCode": "S1236",
    "districtName": "RAJGARH",
    "acNumber": 161,
    "acName": "BIAORA",
    "partNumber": 30,
    "partName": "PANALI",
    "lat": 23.8038398,
    "lon": 76.8417692
  },
  {
    "partId": 110857,
    "stateCode": "S12",
    "stateName": "Madhya Pradesh",
    "districtCode": "S1236",
    "districtName": "RAJGARH",
    "acNumber": 161,
    "acName": "BIAORA",
    "partNumber": 31,
    "partName": "GUJRIBEY",
    "lat": 23.7971057,
    "lon": 76.8289804
  },
  {
    "partId": 110910,
    "stateCode": "S12",
    "stateName": "Madhya Pradesh",
    "districtCode": "S1236",
    "districtName": "RAJGARH",
    "acNumber": 161,
    "acName": "BIAORA",
    "partNumber": 32,
    "partName": "BHATAKHEDI",
    "lat": 23.9140506,
    "lon": 76.92953663823248
  },
  {
    "partId": 110911,
    "stateCode": "S12",
    "stateName": "Madhya Pradesh",
    "districtCode": "S1236",
    "districtName": "RAJGARH",
    "acNumber": 161,
    "acName": "BIAORA",
    "partNumber": 33,
    "partName": "NAPLIYAKHEDI",
    "lat": 23.9140506,
    "lon": 76.92953663823248
  },
  {
    "partId": 110912,
    "stateCode": "S12",
    "stateName": "Madhya Pradesh",
    "districtCode": "S1236",
    "districtName": "RAJGARH",
    "acNumber": 161,
    "acName": "BIAORA",
    "partNumber": 34,
    "partName": "DAMDIYA",
    "lat": 23.9140506,
    "lon": 76.92953663823248
  },
  {
    "partId": 110913,
    "stateCode": "S12",
    "stateName": "Madhya Pradesh",
    "districtCode": "S1236",
    "districtName": "RAJGARH",
    "acNumber": 161,
    "acName": "BIAORA",
    "partNumber": 35,
    "partName": "DULTARIYA",
    "lat": 23.9140506,
    "lon": 76.92953663823248
  },
  {
    "partId": 110717,
    "stateCode": "S12",
    "stateName": "Madhya Pradesh",
    "districtCode": "S1236",
    "districtName": "RAJGARH",
    "acNumber": 161,
    "acName": "BIAORA",
    "partNumber": 36,
    "partName": "BHOJPURIYA",
    "lat": 23.9140506,
    "lon": 76.92953663823248
  },
  {
    "partId": 110980,
    "stateCode": "S12",
    "stateName": "Madhya Pradesh",
    "districtCode": "S1236",
    "districtName": "RAJGARH",
    "acNumber": 161,
    "acName": "BIAORA",
    "partNumber": 37,
    "partName": "BHOJPURIYA",
    "lat": 23.9140506,
    "lon": 76.92953663823248
  },
  {
    "partId": 110718,
    "stateCode": "S12",
    "stateName": "Madhya Pradesh",
    "districtCode": "S1236",
    "districtName": "RAJGARH",
    "acNumber": 161,
    "acName": "BIAORA",
    "partNumber": 38,
    "partName": "DEVALAKHEDA",
    "lat": 23.9140506,
    "lon": 76.92953663823248
  },
  {
    "partId": 110719,
    "stateCode": "S12",
    "stateName": "Madhya Pradesh",
    "districtCode": "S1236",
    "districtName": "RAJGARH",
    "acNumber": 161,
    "acName": "BIAORA",
    "partNumber": 39,
    "partName": "PUNARKHEDI",
    "lat": 23.9140506,
    "lon": 76.92953663823248
  },
  {
    "partId": 110891,
    "stateCode": "S12",
    "stateName": "Madhya Pradesh",
    "districtCode": "S1236",
    "districtName": "RAJGARH",
    "acNumber": 161,
    "acName": "BIAORA",
    "partNumber": 40,
    "partName": "PUNARAKHEDI",
    "lat": 23.9140506,
    "lon": 76.92953663823248
  },
  {
    "partId": 110720,
    "stateCode": "S12",
    "stateName": "Madhya Pradesh",
    "districtCode": "S1236",
    "districtName": "RAJGARH",
    "acNumber": 161,
    "acName": "BIAORA",
    "partNumber": 41,
    "partName": "BHILAVADAYI",
    "lat": 23.9140506,
    "lon": 76.92953663823248
  },
  {
    "partId": 110721,
    "stateCode": "S12",
    "stateName": "Madhya Pradesh",
    "districtCode": "S1236",
    "districtName": "RAJGARH",
    "acNumber": 161,
    "acName": "BIAORA",
    "partNumber": 42,
    "partName": "BHEELAVADIYA",
    "lat": 23.9140506,
    "lon": 76.92953663823248
  },
  {
    "partId": 110722,
    "stateCode": "S12",
    "stateName": "Madhya Pradesh",
    "districtCode": "S1236",
    "districtName": "RAJGARH",
    "acNumber": 161,
    "acName": "BIAORA",
    "partNumber": 43,
    "partName": "RALAYATI",
    "lat": 23.6885077,
    "lon": 76.7020797
  },
  {
    "partId": 110723,
    "stateCode": "S12",
    "stateName": "Madhya Pradesh",
    "districtCode": "S1236",
    "districtName": "RAJGARH",
    "acNumber": 161,
    "acName": "BIAORA",
    "partNumber": 44,
    "partName": "RAJPURA",
    "lat": 24.08440005,
    "lon": 76.58274173745521
  },
  {
    "partId": 110724,
    "stateCode": "S12",
    "stateName": "Madhya Pradesh",
    "districtCode": "S1236",
    "districtName": "RAJGARH",
    "acNumber": 161,
    "acName": "BIAORA",
    "partNumber": 45,
    "partName": "JARAKADIYAKHEDI",
    "lat": 23.9140506,
    "lon": 76.92953663823248
  },
  {
    "partId": 110858,
    "stateCode": "S12",
    "stateName": "Madhya Pradesh",
    "districtCode": "S1236",
    "districtName": "RAJGARH",
    "acNumber": 161,
    "acName": "BIAORA",
    "partNumber": 46,
    "partName": "SUNDARAHEDA",
    "lat": 23.9140506,
    "lon": 76.92953663823248
  },
  {
    "partId": 110725,
    "stateCode": "S12",
    "stateName": "Madhya Pradesh",
    "districtCode": "S1236",
    "districtName": "RAJGARH",
    "acNumber": 161,
    "acName": "BIAORA",
    "partNumber": 47,
    "partName": "MORCHAKHEDI",
    "lat": 23.9140506,
    "lon": 76.92953663823248
  },
  {
    "partId": 110726,
    "stateCode": "S12",
    "stateName": "Madhya Pradesh",
    "districtCode": "S1236",
    "districtName": "RAJGARH",
    "acNumber": 161,
    "acName": "BIAORA",
    "partNumber": 48,
    "partName": "KHAJURIYA",
    "lat": 23.6674495,
    "lon": 77.02355664435728
  },
  {
    "partId": 110727,
    "stateCode": "S12",
    "stateName": "Madhya Pradesh",
    "districtCode": "S1236",
    "districtName": "RAJGARH",
    "acNumber": 161,
    "acName": "BIAORA",
    "partNumber": 49,
    "partName": "KHAJURIYA",
    "lat": 23.6674495,
    "lon": 77.02355664435728
  },
  {
    "partId": 110728,
    "stateCode": "S12",
    "stateName": "Madhya Pradesh",
    "districtCode": "S1236",
    "districtName": "RAJGARH",
    "acNumber": 161,
    "acName": "BIAORA",
    "partNumber": 50,
    "partName": "PIPALAHELA",
    "lat": 23.9140506,
    "lon": 76.92953663823248
  },
  {
    "partId": 110729,
    "stateCode": "S12",
    "stateName": "Madhya Pradesh",
    "districtCode": "S1236",
    "districtName": "RAJGARH",
    "acNumber": 161,
    "acName": "BIAORA",
    "partNumber": 51,
    "partName": "PIPALAHELA",
    "lat": 23.9140506,
    "lon": 76.92953663823248
  },
  {
    "partId": 110730,
    "stateCode": "S12",
    "stateName": "Madhya Pradesh",
    "districtCode": "S1236",
    "districtName": "RAJGARH",
    "acNumber": 161,
    "acName": "BIAORA",
    "partNumber": 52,
    "partName": "LASUDALIYA GURJAR",
    "lat": 23.9140506,
    "lon": 76.92953663823248
  },
  {
    "partId": 110731,
    "stateCode": "S12",
    "stateName": "Madhya Pradesh",
    "districtCode": "S1236",
    "districtName": "RAJGARH",
    "acNumber": 161,
    "acName": "BIAORA",
    "partNumber": 53,
    "partName": "BHURA",
    "lat": 23.6216423,
    "lon": 76.5235948
  },
  {
    "partId": 110732,
    "stateCode": "S12",
    "stateName": "Madhya Pradesh",
    "districtCode": "S1236",
    "districtName": "RAJGARH",
    "acNumber": 161,
    "acName": "BIAORA",
    "partNumber": 54,
    "partName": "SILAPATI BHAI JAGIR",
    "lat": 23.9140506,
    "lon": 76.92953663823248
  },
  {
    "partId": 110733,
    "stateCode": "S12",
    "stateName": "Madhya Pradesh",
    "districtCode": "S1236",
    "districtName": "RAJGARH",
    "acNumber": 161,
    "acName": "BIAORA",
    "partNumber": 55,
    "partName": "BAHADURPURA",
    "lat": 23.89245035,
    "lon": 76.91686616075523
  },
  {
    "partId": 110734,
    "stateCode": "S12",
    "stateName": "Madhya Pradesh",
    "districtCode": "S1236",
    "districtName": "RAJGARH",
    "acNumber": 161,
    "acName": "BIAORA",
    "partNumber": 56,
    "partName": "DHAKORI",
    "lat": 23.8970598,
    "lon": 76.9523191
  },
  {
    "partId": 110735,
    "stateCode": "S12",
    "stateName": "Madhya Pradesh",
    "districtCode": "S1236",
    "districtName": "RAJGARH",
    "acNumber": 161,
    "acName": "BIAORA",
    "partNumber": 57,
    "partName": "HABIPURA",
    "lat": 23.9140506,
    "lon": 76.92953663823248
  },
  {
    "partId": 110859,
    "stateCode": "S12",
    "stateName": "Madhya Pradesh",
    "districtCode": "S1236",
    "districtName": "RAJGARH",
    "acNumber": 161,
    "acName": "BIAORA",
    "partNumber": 58,
    "partName": "BYAVARA",
    "lat": 23.9140506,
    "lon": 76.92953663823248
  },
  {
    "partId": 110736,
    "stateCode": "S12",
    "stateName": "Madhya Pradesh",
    "districtCode": "S1236",
    "districtName": "RAJGARH",
    "acNumber": 161,
    "acName": "BIAORA",
    "partNumber": 59,
    "partName": "BYAVARA",
    "lat": 23.9140506,
    "lon": 76.92953663823248
  },
  {
    "partId": 110737,
    "stateCode": "S12",
    "stateName": "Madhya Pradesh",
    "districtCode": "S1236",
    "districtName": "RAJGARH",
    "acNumber": 161,
    "acName": "BIAORA",
    "partNumber": 60,
    "partName": "BYAVARA",
    "lat": 23.9140506,
    "lon": 76.92953663823248
  },
  {
    "partId": 110854,
    "stateCode": "S12",
    "stateName": "Madhya Pradesh",
    "districtCode": "S1236",
    "districtName": "RAJGARH",
    "acNumber": 161,
    "acName": "BIAORA",
    "partNumber": 61,
    "partName": "BYAVARA",
    "lat": 23.9140506,
    "lon": 76.92953663823248
  },
  {
    "partId": 110738,
    "stateCode": "S12",
    "stateName": "Madhya Pradesh",
    "districtCode": "S1236",
    "districtName": "RAJGARH",
    "acNumber": 161,
    "acName": "BIAORA",
    "partNumber": 62,
    "partName": "BYAVARA",
    "lat": 23.9140506,
    "lon": 76.92953663823248
  },
  {
    "partId": 110979,
    "stateCode": "S12",
    "stateName": "Madhya Pradesh",
    "districtCode": "S1236",
    "districtName": "RAJGARH",
    "acNumber": 161,
    "acName": "BIAORA",
    "partNumber": 63,
    "partName": "BYAVARA",
    "lat": 23.9140506,
    "lon": 76.92953663823248
  },
  {
    "partId": 110853,
    "stateCode": "S12",
    "stateName": "Madhya Pradesh",
    "districtCode": "S1236",
    "districtName": "RAJGARH",
    "acNumber": 161,
    "acName": "BIAORA",
    "partNumber": 64,
    "partName": "BYAVARA",
    "lat": 23.9140506,
    "lon": 76.92953663823248
  },
  {
    "partId": 110739,
    "stateCode": "S12",
    "stateName": "Madhya Pradesh",
    "districtCode": "S1236",
    "districtName": "RAJGARH",
    "acNumber": 161,
    "acName": "BIAORA",
    "partNumber": 65,
    "partName": "BYAVARA",
    "lat": 23.9140506,
    "lon": 76.92953663823248
  },
  {
    "partId": 110740,
    "stateCode": "S12",
    "stateName": "Madhya Pradesh",
    "districtCode": "S1236",
    "districtName": "RAJGARH",
    "acNumber": 161,
    "acName": "BIAORA",
    "partNumber": 66,
    "partName": "BYAVARA",
    "lat": 23.9140506,
    "lon": 76.92953663823248
  },
  {
    "partId": 110998,
    "stateCode": "S12",
    "stateName": "Madhya Pradesh",
    "districtCode": "S1236",
    "districtName": "RAJGARH",
    "acNumber": 161,
    "acName": "BIAORA",
    "partNumber": 67,
    "partName": "BIAORA",
    "lat": 23.9140506,
    "lon": 76.92953663823248
  },
  {
    "partId": 110852,
    "stateCode": "S12",
    "stateName": "Madhya Pradesh",
    "districtCode": "S1236",
    "districtName": "RAJGARH",
    "acNumber": 161,
    "acName": "BIAORA",
    "partNumber": 68,
    "partName": "BYAVARA",
    "lat": 23.9140506,
    "lon": 76.92953663823248
  },
  {
    "partId": 110741,
    "stateCode": "S12",
    "stateName": "Madhya Pradesh",
    "districtCode": "S1236",
    "districtName": "RAJGARH",
    "acNumber": 161,
    "acName": "BIAORA",
    "partNumber": 69,
    "partName": "BYAVARA",
    "lat": 23.9140506,
    "lon": 76.92953663823248
  },
  {
    "partId": 110978,
    "stateCode": "S12",
    "stateName": "Madhya Pradesh",
    "districtCode": "S1236",
    "districtName": "RAJGARH",
    "acNumber": 161,
    "acName": "BIAORA",
    "partNumber": 70,
    "partName": "BYAVARA",
    "lat": 23.9140506,
    "lon": 76.92953663823248
  },
  {
    "partId": 110742,
    "stateCode": "S12",
    "stateName": "Madhya Pradesh",
    "districtCode": "S1236",
    "districtName": "RAJGARH",
    "acNumber": 161,
    "acName": "BIAORA",
    "partNumber": 71,
    "partName": "BYAVARA",
    "lat": 23.9140506,
    "lon": 76.92953663823248
  },
  {
    "partId": 110743,
    "stateCode": "S12",
    "stateName": "Madhya Pradesh",
    "districtCode": "S1236",
    "districtName": "RAJGARH",
    "acNumber": 161,
    "acName": "BIAORA",
    "partNumber": 72,
    "partName": "BYAVARA",
    "lat": 23.9140506,
    "lon": 76.92953663823248
  },
  {
    "partId": 110744,
    "stateCode": "S12",
    "stateName": "Madhya Pradesh",
    "districtCode": "S1236",
    "districtName": "RAJGARH",
    "acNumber": 161,
    "acName": "BIAORA",
    "partNumber": 73,
    "partName": "BYAVARA",
    "lat": 23.9140506,
    "lon": 76.92953663823248
  },
  {
    "partId": 110977,
    "stateCode": "S12",
    "stateName": "Madhya Pradesh",
    "districtCode": "S1236",
    "districtName": "RAJGARH",
    "acNumber": 161,
    "acName": "BIAORA",
    "partNumber": 74,
    "partName": "BYAVARA",
    "lat": 23.9140506,
    "lon": 76.92953663823248
  },
  {
    "partId": 110745,
    "stateCode": "S12",
    "stateName": "Madhya Pradesh",
    "districtCode": "S1236",
    "districtName": "RAJGARH",
    "acNumber": 161,
    "acName": "BIAORA",
    "partNumber": 75,
    "partName": "BYAVARA",
    "lat": 23.9140506,
    "lon": 76.92953663823248
  },
  {
    "partId": 110903,
    "stateCode": "S12",
    "stateName": "Madhya Pradesh",
    "districtCode": "S1236",
    "districtName": "RAJGARH",
    "acNumber": 161,
    "acName": "BIAORA",
    "partNumber": 76,
    "partName": "BYAVARA",
    "lat": 23.9140506,
    "lon": 76.92953663823248
  },
  {
    "partId": 110746,
    "stateCode": "S12",
    "stateName": "Madhya Pradesh",
    "districtCode": "S1236",
    "districtName": "RAJGARH",
    "acNumber": 161,
    "acName": "BIAORA",
    "partNumber": 77,
    "partName": "BYAVARA",
    "lat": 23.9140506,
    "lon": 76.92953663823248
  },
  {
    "partId": 110860,
    "stateCode": "S12",
    "stateName": "Madhya Pradesh",
    "districtCode": "S1236",
    "districtName": "RAJGARH",
    "acNumber": 161,
    "acName": "BIAORA",
    "partNumber": 78,
    "partName": "BYAVARA",
    "lat": 23.9140506,
    "lon": 76.92953663823248
  },
  {
    "partId": 110747,
    "stateCode": "S12",
    "stateName": "Madhya Pradesh",
    "districtCode": "S1236",
    "districtName": "RAJGARH",
    "acNumber": 161,
    "acName": "BIAORA",
    "partNumber": 79,
    "partName": "BYAVARA",
    "lat": 23.9140506,
    "lon": 76.92953663823248
  },
  {
    "partId": 110748,
    "stateCode": "S12",
    "stateName": "Madhya Pradesh",
    "districtCode": "S1236",
    "districtName": "RAJGARH",
    "acNumber": 161,
    "acName": "BIAORA",
    "partNumber": 80,
    "partName": "BYAVARA",
    "lat": 23.9140506,
    "lon": 76.92953663823248
  },
  {
    "partId": 110749,
    "stateCode": "S12",
    "stateName": "Madhya Pradesh",
    "districtCode": "S1236",
    "districtName": "RAJGARH",
    "acNumber": 161,
    "acName": "BIAORA",
    "partNumber": 81,
    "partName": "BYAVARA",
    "lat": 23.9140506,
    "lon": 76.92953663823248
  },
  {
    "partId": 110750,
    "stateCode": "S12",
    "stateName": "Madhya Pradesh",
    "districtCode": "S1236",
    "districtName": "RAJGARH",
    "acNumber": 161,
    "acName": "BIAORA",
    "partNumber": 82,
    "partName": "BYAVARA",
    "lat": 23.9140506,
    "lon": 76.92953663823248
  },
  {
    "partId": 110902,
    "stateCode": "S12",
    "stateName": "Madhya Pradesh",
    "districtCode": "S1236",
    "districtName": "RAJGARH",
    "acNumber": 161,
    "acName": "BIAORA",
    "partNumber": 83,
    "partName": "BYAVARA",
    "lat": 23.9140506,
    "lon": 76.92953663823248
  },
  {
    "partId": 110751,
    "stateCode": "S12",
    "stateName": "Madhya Pradesh",
    "districtCode": "S1236",
    "districtName": "RAJGARH",
    "acNumber": 161,
    "acName": "BIAORA",
    "partNumber": 84,
    "partName": "BYAVARA",
    "lat": 23.9140506,
    "lon": 76.92953663823248
  },
  {
    "partId": 110752,
    "stateCode": "S12",
    "stateName": "Madhya Pradesh",
    "districtCode": "S1236",
    "districtName": "RAJGARH",
    "acNumber": 161,
    "acName": "BIAORA",
    "partNumber": 85,
    "partName": "BYAVARA",
    "lat": 23.9140506,
    "lon": 76.92953663823248
  },
  {
    "partId": 110851,
    "stateCode": "S12",
    "stateName": "Madhya Pradesh",
    "districtCode": "S1236",
    "districtName": "RAJGARH",
    "acNumber": 161,
    "acName": "BIAORA",
    "partNumber": 86,
    "partName": "BYAVARA",
    "lat": 23.9140506,
    "lon": 76.92953663823248
  },
  {
    "partId": 110753,
    "stateCode": "S12",
    "stateName": "Madhya Pradesh",
    "districtCode": "S1236",
    "districtName": "RAJGARH",
    "acNumber": 161,
    "acName": "BIAORA",
    "partNumber": 87,
    "partName": "BYAVARA",
    "lat": 23.9140506,
    "lon": 76.92953663823248
  },
  {
    "partId": 110901,
    "stateCode": "S12",
    "stateName": "Madhya Pradesh",
    "districtCode": "S1236",
    "districtName": "RAJGARH",
    "acNumber": 161,
    "acName": "BIAORA",
    "partNumber": 88,
    "partName": "BYAVARA",
    "lat": 23.9140506,
    "lon": 76.92953663823248
  },
  {
    "partId": 110754,
    "stateCode": "S12",
    "stateName": "Madhya Pradesh",
    "districtCode": "S1236",
    "districtName": "RAJGARH",
    "acNumber": 161,
    "acName": "BIAORA",
    "partNumber": 89,
    "partName": "BIAORA",
    "lat": 23.9140506,
    "lon": 76.92953663823248
  },
  {
    "partId": 110900,
    "stateCode": "S12",
    "stateName": "Madhya Pradesh",
    "districtCode": "S1236",
    "districtName": "RAJGARH",
    "acNumber": 161,
    "acName": "BIAORA",
    "partNumber": 90,
    "partName": "BIAORA",
    "lat": 23.9140506,
    "lon": 76.92953663823248
  },
  {
    "partId": 110755,
    "stateCode": "S12",
    "stateName": "Madhya Pradesh",
    "districtCode": "S1236",
    "districtName": "RAJGARH",
    "acNumber": 161,
    "acName": "BIAORA",
    "partNumber": 91,
    "partName": "BIAORA",
    "lat": 23.9140506,
    "lon": 76.92953663823248
  },
  {
    "partId": 110899,
    "stateCode": "S12",
    "stateName": "Madhya Pradesh",
    "districtCode": "S1236",
    "districtName": "RAJGARH",
    "acNumber": 161,
    "acName": "BIAORA",
    "partNumber": 92,
    "partName": "BIAORA",
    "lat": 23.9140506,
    "lon": 76.92953663823248
  },
  {
    "partId": 110756,
    "stateCode": "S12",
    "stateName": "Madhya Pradesh",
    "districtCode": "S1236",
    "districtName": "RAJGARH",
    "acNumber": 161,
    "acName": "BIAORA",
    "partNumber": 93,
    "partName": "BIAORA",
    "lat": 23.9140506,
    "lon": 76.92953663823248
  },
  {
    "partId": 110898,
    "stateCode": "S12",
    "stateName": "Madhya Pradesh",
    "districtCode": "S1236",
    "districtName": "RAJGARH",
    "acNumber": 161,
    "acName": "BIAORA",
    "partNumber": 94,
    "partName": "BIAORA",
    "lat": 23.9140506,
    "lon": 76.92953663823248
  },
  {
    "partId": 110757,
    "stateCode": "S12",
    "stateName": "Madhya Pradesh",
    "districtCode": "S1236",
    "districtName": "RAJGARH",
    "acNumber": 161,
    "acName": "BIAORA",
    "partNumber": 95,
    "partName": "BARAKHEDA",
    "lat": 23.9140506,
    "lon": 76.92953663823248
  },
  {
    "partId": 110716,
    "stateCode": "S12",
    "stateName": "Madhya Pradesh",
    "districtCode": "S1236",
    "districtName": "RAJGARH",
    "acNumber": 161,
    "acName": "BIAORA",
    "partNumber": 96,
    "partName": "BARAKHEDA",
    "lat": 23.9140506,
    "lon": 76.92953663823248
  },
  {
    "partId": 110758,
    "stateCode": "S12",
    "stateName": "Madhya Pradesh",
    "districtCode": "S1236",
    "districtName": "RAJGARH",
    "acNumber": 161,
    "acName": "BIAORA",
    "partNumber": 97,
    "partName": "LODIPURA",
    "lat": 23.7803181,
    "lon": 77.1515536
  },
  {
    "partId": 110759,
    "stateCode": "S12",
    "stateName": "Madhya Pradesh",
    "districtCode": "S1236",
    "districtName": "RAJGARH",
    "acNumber": 161,
    "acName": "BIAORA",
    "partNumber": 98,
    "partName": "DHAKORA",
    "lat": 23.906716657586205,
    "lon": 76.92642429752954
  },
  {
    "partId": 110850,
    "stateCode": "S12",
    "stateName": "Madhya Pradesh",
    "districtCode": "S1236",
    "districtName": "RAJGARH",
    "acNumber": 161,
    "acName": "BIAORA",
    "partNumber": 99,
    "partName": "DHAKORA",
    "lat": 23.87167065,
    "lon": 76.77447033719486
  },
  {
    "partId": 110760,
    "stateCode": "S12",
    "stateName": "Madhya Pradesh",
    "districtCode": "S1236",
    "districtName": "RAJGARH",
    "acNumber": 161,
    "acName": "BIAORA",
    "partNumber": 100,
    "partName": "KODIYAKHEDI",
    "lat": 23.87167065,
    "lon": 76.77447033719486
  },
  {
    "partId": 110761,
    "stateCode": "S12",
    "stateName": "Madhya Pradesh",
    "districtCode": "S1236",
    "districtName": "RAJGARH",
    "acNumber": 161,
    "acName": "BIAORA",
    "partNumber": 101,
    "partName": "KHARETIYA",
    "lat": 23.906716657586205,
    "lon": 76.92642429752954
  },
  {
    "partId": 110762,
    "stateCode": "S12",
    "stateName": "Madhya Pradesh",
    "districtCode": "S1236",
    "districtName": "RAJGARH",
    "acNumber": 161,
    "acName": "BIAORA",
    "partNumber": 102,
    "partName": "TALAVALI",
    "lat": 23.9140506,
    "lon": 76.92953663823248
  },
  {
    "partId": 110763,
    "stateCode": "S12",
    "stateName": "Madhya Pradesh",
    "districtCode": "S1236",
    "districtName": "RAJGARH",
    "acNumber": 161,
    "acName": "BIAORA",
    "partNumber": 103,
    "partName": "JEPALA",
    "lat": 23.9140506,
    "lon": 76.92953663823248
  },
  {
    "partId": 110764,
    "stateCode": "S12",
    "stateName": "Madhya Pradesh",
    "districtCode": "S1236",
    "districtName": "RAJGARH",
    "acNumber": 161,
    "acName": "BIAORA",
    "partNumber": 104,
    "partName": "JEPALI",
    "lat": 23.9140506,
    "lon": 76.92953663823248
  },
  {
    "partId": 110765,
    "stateCode": "S12",
    "stateName": "Madhya Pradesh",
    "districtCode": "S1236",
    "districtName": "RAJGARH",
    "acNumber": 161,
    "acName": "BIAORA",
    "partNumber": 105,
    "partName": "NIVANYA",
    "lat": 23.9140506,
    "lon": 76.92953663823248
  },
  {
    "partId": 110766,
    "stateCode": "S12",
    "stateName": "Madhya Pradesh",
    "districtCode": "S1236",
    "districtName": "RAJGARH",
    "acNumber": 161,
    "acName": "BIAORA",
    "partNumber": 106,
    "partName": "NARIYAVE",
    "lat": 23.9140506,
    "lon": 76.92953663823248
  },
  {
    "partId": 110861,
    "stateCode": "S12",
    "stateName": "Madhya Pradesh",
    "districtCode": "S1236",
    "districtName": "RAJGARH",
    "acNumber": 161,
    "acName": "BIAORA",
    "partNumber": 107,
    "partName": "KANSOR KHURD",
    "lat": 23.906716657586205,
    "lon": 76.92642429752954
  },
  {
    "partId": 110767,
    "stateCode": "S12",
    "stateName": "Madhya Pradesh",
    "districtCode": "S1236",
    "districtName": "RAJGARH",
    "acNumber": 161,
    "acName": "BIAORA",
    "partNumber": 108,
    "partName": "KANSOR KALA",
    "lat": 23.9140506,
    "lon": 76.92953663823248
  },
  {
    "partId": 110768,
    "stateCode": "S12",
    "stateName": "Madhya Pradesh",
    "districtCode": "S1236",
    "districtName": "RAJGARH",
    "acNumber": 161,
    "acName": "BIAORA",
    "partNumber": 109,
    "partName": "DOBADA",
    "lat": 23.7974395,
    "lon": 76.5376603
  },
  {
    "partId": 110769,
    "stateCode": "S12",
    "stateName": "Madhya Pradesh",
    "districtCode": "S1236",
    "districtName": "RAJGARH",
    "acNumber": 161,
    "acName": "BIAORA",
    "partNumber": 110,
    "partName": "JAGANIYAPURA",
    "lat": 23.9140506,
    "lon": 76.92953663823248
  },
  {
    "partId": 110770,
    "stateCode": "S12",
    "stateName": "Madhya Pradesh",
    "districtCode": "S1236",
    "districtName": "RAJGARH",
    "acNumber": 161,
    "acName": "BIAORA",
    "partNumber": 111,
    "partName": "ALAMAPURA",
    "lat": 23.9140506,
    "lon": 76.92953663823248
  },
  {
    "partId": 110771,
    "stateCode": "S12",
    "stateName": "Madhya Pradesh",
    "districtCode": "S1236",
    "districtName": "RAJGARH",
    "acNumber": 161,
    "acName": "BIAORA",
    "partNumber": 112,
    "partName": "SINGAPURA",
    "lat": 23.9955939,
    "lon": 77.0075297
  },
  {
    "partId": 110772,
    "stateCode": "S12",
    "stateName": "Madhya Pradesh",
    "districtCode": "S1236",
    "districtName": "RAJGARH",
    "acNumber": 161,
    "acName": "BIAORA",
    "partNumber": 113,
    "partName": "SILAPATI BARAVAL",
    "lat": 23.9140506,
    "lon": 76.92953663823248
  },
  {
    "partId": 110914,
    "stateCode": "S12",
    "stateName": "Madhya Pradesh",
    "districtCode": "S1236",
    "districtName": "RAJGARH",
    "acNumber": 161,
    "acName": "BIAORA",
    "partNumber": 114,
    "partName": "NETHATHARI",
    "lat": 23.9140506,
    "lon": 76.92953663823248
  },
  {
    "partId": 110915,
    "stateCode": "S12",
    "stateName": "Madhya Pradesh",
    "districtCode": "S1236",
    "districtName": "RAJGARH",
    "acNumber": 161,
    "acName": "BIAORA",
    "partNumber": 115,
    "partName": "TONKA",
    "lat": 24.002279,
    "lon": 77.04496055305758
  },
  {
    "partId": 110916,
    "stateCode": "S12",
    "stateName": "Madhya Pradesh",
    "districtCode": "S1236",
    "districtName": "RAJGARH",
    "acNumber": 161,
    "acName": "BIAORA",
    "partNumber": 116,
    "partName": "BISONYA",
    "lat": 23.9140506,
    "lon": 76.92953663823248
  },
  {
    "partId": 110909,
    "stateCode": "S12",
    "stateName": "Madhya Pradesh",
    "districtCode": "S1236",
    "districtName": "RAJGARH",
    "acNumber": 161,
    "acName": "BIAORA",
    "partNumber": 117,
    "partName": "BISONIYA",
    "lat": 23.98361115,
    "lon": 77.05720476246583
  },
  {
    "partId": 110917,
    "stateCode": "S12",
    "stateName": "Madhya Pradesh",
    "districtCode": "S1236",
    "districtName": "RAJGARH",
    "acNumber": 161,
    "acName": "BIAORA",
    "partNumber": 118,
    "partName": "TARENA",
    "lat": 23.82855175,
    "lon": 77.14944198778208
  },
  {
    "partId": 110918,
    "stateCode": "S12",
    "stateName": "Madhya Pradesh",
    "districtCode": "S1236",
    "districtName": "RAJGARH",
    "acNumber": 161,
    "acName": "BIAORA",
    "partNumber": 119,
    "partName": "NAPANERA",
    "lat": 24.0308042,
    "lon": 77.08337462874228
  },
  {
    "partId": 110897,
    "stateCode": "S12",
    "stateName": "Madhya Pradesh",
    "districtCode": "S1236",
    "districtName": "RAJGARH",
    "acNumber": 161,
    "acName": "BIAORA",
    "partNumber": 120,
    "partName": "BHUKANI",
    "lat": 23.9140506,
    "lon": 76.92953663823248
  },
  {
    "partId": 110862,
    "stateCode": "S12",
    "stateName": "Madhya Pradesh",
    "districtCode": "S1236",
    "districtName": "RAJGARH",
    "acNumber": 161,
    "acName": "BIAORA",
    "partNumber": 121,
    "partName": "SARASYABE",
    "lat": 23.9140506,
    "lon": 76.92953663823248
  },
  {
    "partId": 110999,
    "stateCode": "S12",
    "stateName": "Madhya Pradesh",
    "districtCode": "S1236",
    "districtName": "RAJGARH",
    "acNumber": 161,
    "acName": "BIAORA",
    "partNumber": 122,
    "partName": "KANDIYAKHEDI",
    "lat": 23.9140506,
    "lon": 76.92953663823248
  },
  {
    "partId": 110894,
    "stateCode": "S12",
    "stateName": "Madhya Pradesh",
    "districtCode": "S1236",
    "districtName": "RAJGARH",
    "acNumber": 161,
    "acName": "BIAORA",
    "partNumber": 123,
    "partName": "KADIYA GURJAR",
    "lat": 23.9140506,
    "lon": 76.92953663823248
  },
  {
    "partId": 110919,
    "stateCode": "S12",
    "stateName": "Madhya Pradesh",
    "districtCode": "S1236",
    "districtName": "RAJGARH",
    "acNumber": 161,
    "acName": "BIAORA",
    "partNumber": 124,
    "partName": "AMARAGADH",
    "lat": 23.9140506,
    "lon": 76.92953663823248
  },
  {
    "partId": 110920,
    "stateCode": "S12",
    "stateName": "Madhya Pradesh",
    "districtCode": "S1236",
    "districtName": "RAJGARH",
    "acNumber": 161,
    "acName": "BIAORA",
    "partNumber": 125,
    "partName": "NEVAJ",
    "lat": 23.87167065,
    "lon": 76.77447033719486
  },
  {
    "partId": 110921,
    "stateCode": "S12",
    "stateName": "Madhya Pradesh",
    "districtCode": "S1236",
    "districtName": "RAJGARH",
    "acNumber": 161,
    "acName": "BIAORA",
    "partNumber": 126,
    "partName": "NEVALI",
    "lat": 23.9140506,
    "lon": 76.92953663823248
  },
  {
    "partId": 110922,
    "stateCode": "S12",
    "stateName": "Madhya Pradesh",
    "districtCode": "S1236",
    "districtName": "RAJGARH",
    "acNumber": 161,
    "acName": "BIAORA",
    "partNumber": 127,
    "partName": "BASKHO",
    "lat": 23.9140506,
    "lon": 76.92953663823248
  },
  {
    "partId": 110715,
    "stateCode": "S12",
    "stateName": "Madhya Pradesh",
    "districtCode": "S1236",
    "districtName": "RAJGARH",
    "acNumber": 161,
    "acName": "BIAORA",
    "partNumber": 128,
    "partName": "KHUCHNI",
    "lat": 23.9140506,
    "lon": 76.92953663823248
  },
  {
    "partId": 110923,
    "stateCode": "S12",
    "stateName": "Madhya Pradesh",
    "districtCode": "S1236",
    "districtName": "RAJGARH",
    "acNumber": 161,
    "acName": "BIAORA",
    "partNumber": 129,
    "partName": "KANED",
    "lat": 24.0803206,
    "lon": 77.1470689
  },
  {
    "partId": 110712,
    "stateCode": "S12",
    "stateName": "Madhya Pradesh",
    "districtCode": "S1236",
    "districtName": "RAJGARH",
    "acNumber": 161,
    "acName": "BIAORA",
    "partNumber": 130,
    "partName": "RELAI",
    "lat": 24.072925,
    "lon": 77.1734297
  },
  {
    "partId": 110924,
    "stateCode": "S12",
    "stateName": "Madhya Pradesh",
    "districtCode": "S1236",
    "districtName": "RAJGARH",
    "acNumber": 161,
    "acName": "BIAORA",
    "partNumber": 131,
    "partName": "PIPALYA PEDAT",
    "lat": 23.9140506,
    "lon": 76.92953663823248
  },
  {
    "partId": 110925,
    "stateCode": "S12",
    "stateName": "Madhya Pradesh",
    "districtCode": "S1236",
    "districtName": "RAJGARH",
    "acNumber": 161,
    "acName": "BIAORA",
    "partNumber": 132,
    "partName": "RAYAPURIYA",
    "lat": 23.87167065,
    "lon": 76.77447033719486
  },
  {
    "partId": 110926,
    "stateCode": "S12",
    "stateName": "Madhya Pradesh",
    "districtCode": "S1236",
    "districtName": "RAJGARH",
    "acNumber": 161,
    "acName": "BIAORA",
    "partNumber": 133,
    "partName": "GOLAKHEDA",
    "lat": 24.0400316,
    "lon": 77.1185893
  },
  {
    "partId": 111000,
    "stateCode": "S12",
    "stateName": "Madhya Pradesh",
    "districtCode": "S1236",
    "districtName": "RAJGARH",
    "acNumber": 161,
    "acName": "BIAORA",
    "partNumber": 134,
    "partName": "DEHRIKHEDA",
    "lat": 24.0459741,
    "lon": 77.102201
  },
  {
    "partId": 110927,
    "stateCode": "S12",
    "stateName": "Madhya Pradesh",
    "districtCode": "S1236",
    "districtName": "RAJGARH",
    "acNumber": 161,
    "acName": "BIAORA",
    "partNumber": 135,
    "partName": "NALAJHIRI",
    "lat": 23.9140506,
    "lon": 76.92953663823248
  },
  {
    "partId": 110928,
    "stateCode": "S12",
    "stateName": "Madhya Pradesh",
    "districtCode": "S1236",
    "districtName": "RAJGARH",
    "acNumber": 161,
    "acName": "BIAORA",
    "partNumber": 136,
    "partName": "BEDABE",
    "lat": 24.0241036,
    "lon": 77.0860219
  },
  {
    "partId": 110929,
    "stateCode": "S12",
    "stateName": "Madhya Pradesh",
    "districtCode": "S1236",
    "districtName": "RAJGARH",
    "acNumber": 161,
    "acName": "BIAORA",
    "partNumber": 137,
    "partName": "MODABADALI",
    "lat": 23.9140506,
    "lon": 76.92953663823248
  },
  {
    "partId": 110863,
    "stateCode": "S12",
    "stateName": "Madhya Pradesh",
    "districtCode": "S1236",
    "districtName": "RAJGARH",
    "acNumber": 161,
    "acName": "BIAORA",
    "partNumber": 138,
    "partName": "SUTHALIYA",
    "lat": 23.9956454,
    "lon": 77.1391216
  },
  {
    "partId": 110908,
    "stateCode": "S12",
    "stateName": "Madhya Pradesh",
    "districtCode": "S1236",
    "districtName": "RAJGARH",
    "acNumber": 161,
    "acName": "BIAORA",
    "partNumber": 139,
    "partName": "SUTHALIYA",
    "lat": 23.9956454,
    "lon": 77.1391216
  },
  {
    "partId": 110896,
    "stateCode": "S12",
    "stateName": "Madhya Pradesh",
    "districtCode": "S1236",
    "districtName": "RAJGARH",
    "acNumber": 161,
    "acName": "BIAORA",
    "partNumber": 140,
    "partName": "SUTHALIYA",
    "lat": 23.9956454,
    "lon": 77.1391216
  },
  {
    "partId": 110828,
    "stateCode": "S12",
    "stateName": "Madhya Pradesh",
    "districtCode": "S1236",
    "districtName": "RAJGARH",
    "acNumber": 161,
    "acName": "BIAORA",
    "partNumber": 141,
    "partName": "SUTHALIYA",
    "lat": 23.9956454,
    "lon": 77.1391216
  },
  {
    "partId": 110829,
    "stateCode": "S12",
    "stateName": "Madhya Pradesh",
    "districtCode": "S1236",
    "districtName": "RAJGARH",
    "acNumber": 161,
    "acName": "BIAORA",
    "partNumber": 142,
    "partName": "SUTHALIYA",
    "lat": 23.87167065,
    "lon": 76.77447033719486
  },
  {
    "partId": 110830,
    "stateCode": "S12",
    "stateName": "Madhya Pradesh",
    "districtCode": "S1236",
    "districtName": "RAJGARH",
    "acNumber": 161,
    "acName": "BIAORA",
    "partNumber": 143,
    "partName": "SUTHALIYA",
    "lat": 23.9956454,
    "lon": 77.1391216
  },
  {
    "partId": 110831,
    "stateCode": "S12",
    "stateName": "Madhya Pradesh",
    "districtCode": "S1236",
    "districtName": "RAJGARH",
    "acNumber": 161,
    "acName": "BIAORA",
    "partNumber": 144,
    "partName": "KHANOTA",
    "lat": 24.0197979,
    "lon": 77.15029942484179
  },
  {
    "partId": 110907,
    "stateCode": "S12",
    "stateName": "Madhya Pradesh",
    "districtCode": "S1236",
    "districtName": "RAJGARH",
    "acNumber": 161,
    "acName": "BIAORA",
    "partNumber": 145,
    "partName": "KHANOTA",
    "lat": 24.0197979,
    "lon": 77.15029942484179
  },
  {
    "partId": 110832,
    "stateCode": "S12",
    "stateName": "Madhya Pradesh",
    "districtCode": "S1236",
    "districtName": "RAJGARH",
    "acNumber": 161,
    "acName": "BIAORA",
    "partNumber": 146,
    "partName": "PARSANA",
    "lat": 24.0383512,
    "lon": 77.1795988
  },
  {
    "partId": 110868,
    "stateCode": "S12",
    "stateName": "Madhya Pradesh",
    "districtCode": "S1236",
    "districtName": "RAJGARH",
    "acNumber": 161,
    "acName": "BIAORA",
    "partNumber": 147,
    "partName": "PAHADAGADH",
    "lat": 23.9140506,
    "lon": 76.92953663823248
  },
  {
    "partId": 110959,
    "stateCode": "S12",
    "stateName": "Madhya Pradesh",
    "districtCode": "S1236",
    "districtName": "RAJGARH",
    "acNumber": 161,
    "acName": "BIAORA",
    "partNumber": 148,
    "partName": "PAHADAGADH",
    "lat": 23.9140506,
    "lon": 76.92953663823248
  },
  {
    "partId": 110869,
    "stateCode": "S12",
    "stateName": "Madhya Pradesh",
    "districtCode": "S1236",
    "districtName": "RAJGARH",
    "acNumber": 161,
    "acName": "BIAORA",
    "partNumber": 149,
    "partName": "PARALAPURA",
    "lat": 23.9140506,
    "lon": 76.92953663823248
  },
  {
    "partId": 110958,
    "stateCode": "S12",
    "stateName": "Madhya Pradesh",
    "districtCode": "S1236",
    "districtName": "RAJGARH",
    "acNumber": 161,
    "acName": "BIAORA",
    "partNumber": 150,
    "partName": "PARLAPURA",
    "lat": 23.9140506,
    "lon": 76.92953663823248
  },
  {
    "partId": 110870,
    "stateCode": "S12",
    "stateName": "Madhya Pradesh",
    "districtCode": "S1236",
    "districtName": "RAJGARH",
    "acNumber": 161,
    "acName": "BIAORA",
    "partNumber": 151,
    "partName": "PARADHANI KUNDAL",
    "lat": 23.9140506,
    "lon": 76.92953663823248
  },
  {
    "partId": 110871,
    "stateCode": "S12",
    "stateName": "Madhya Pradesh",
    "districtCode": "S1236",
    "districtName": "RAJGARH",
    "acNumber": 161,
    "acName": "BIAORA",
    "partNumber": 152,
    "partName": "NARI",
    "lat": 23.9666329,
    "lon": 77.09116353151157
  },
  {
    "partId": 110957,
    "stateCode": "S12",
    "stateName": "Madhya Pradesh",
    "districtCode": "S1236",
    "districtName": "RAJGARH",
    "acNumber": 161,
    "acName": "BIAORA",
    "partNumber": 153,
    "partName": "NARBE",
    "lat": 23.9140506,
    "lon": 76.92953663823248
  },
  {
    "partId": 110872,
    "stateCode": "S12",
    "stateName": "Madhya Pradesh",
    "districtCode": "S1236",
    "districtName": "RAJGARH",
    "acNumber": 161,
    "acName": "BIAORA",
    "partNumber": 154,
    "partName": "GORADHAN PURA",
    "lat": 23.9140506,
    "lon": 76.92953663823248
  },
  {
    "partId": 110873,
    "stateCode": "S12",
    "stateName": "Madhya Pradesh",
    "districtCode": "S1236",
    "districtName": "RAJGARH",
    "acNumber": 161,
    "acName": "BIAORA",
    "partNumber": 155,
    "partName": "GINDORAHAT",
    "lat": 23.9140506,
    "lon": 76.92953663823248
  },
  {
    "partId": 110874,
    "stateCode": "S12",
    "stateName": "Madhya Pradesh",
    "districtCode": "S1236",
    "districtName": "RAJGARH",
    "acNumber": 161,
    "acName": "BIAORA",
    "partNumber": 156,
    "partName": "GINDORAHAT",
    "lat": 23.9140506,
    "lon": 76.92953663823248
  },
  {
    "partId": 110875,
    "stateCode": "S12",
    "stateName": "Madhya Pradesh",
    "districtCode": "S1236",
    "districtName": "RAJGARH",
    "acNumber": 161,
    "acName": "BIAORA",
    "partNumber": 157,
    "partName": "PIPALYAKHEDI",
    "lat": 23.9140506,
    "lon": 76.92953663823248
  },
  {
    "partId": 110841,
    "stateCode": "S12",
    "stateName": "Madhya Pradesh",
    "districtCode": "S1236",
    "districtName": "RAJGARH",
    "acNumber": 161,
    "acName": "BIAORA",
    "partNumber": 158,
    "partName": "KOLUKHEDI",
    "lat": 23.9140506,
    "lon": 76.92953663823248
  },
  {
    "partId": 110842,
    "stateCode": "S12",
    "stateName": "Madhya Pradesh",
    "districtCode": "S1236",
    "districtName": "RAJGARH",
    "acNumber": 161,
    "acName": "BIAORA",
    "partNumber": 159,
    "partName": "BORADA",
    "lat": 23.9140506,
    "lon": 76.92953663823248
  },
  {
    "partId": 110843,
    "stateCode": "S12",
    "stateName": "Madhya Pradesh",
    "districtCode": "S1236",
    "districtName": "RAJGARH",
    "acNumber": 161,
    "acName": "BIAORA",
    "partNumber": 160,
    "partName": "MAU",
    "lat": 23.9472803,
    "lon": 77.13025410852705
  },
  {
    "partId": 110844,
    "stateCode": "S12",
    "stateName": "Madhya Pradesh",
    "districtCode": "S1236",
    "districtName": "RAJGARH",
    "acNumber": 161,
    "acName": "BIAORA",
    "partNumber": 161,
    "partName": "MAU",
    "lat": 23.9472803,
    "lon": 77.13025410852705
  },
  {
    "partId": 110906,
    "stateCode": "S12",
    "stateName": "Madhya Pradesh",
    "districtCode": "S1236",
    "districtName": "RAJGARH",
    "acNumber": 161,
    "acName": "BIAORA",
    "partNumber": 162,
    "partName": "MAU",
    "lat": 23.9472803,
    "lon": 77.13025410852705
  },
  {
    "partId": 110845,
    "stateCode": "S12",
    "stateName": "Madhya Pradesh",
    "districtCode": "S1236",
    "districtName": "RAJGARH",
    "acNumber": 161,
    "acName": "BIAORA",
    "partNumber": 163,
    "partName": "BERAD",
    "lat": 23.96297,
    "lon": 77.1685588
  },
  {
    "partId": 110846,
    "stateCode": "S12",
    "stateName": "Madhya Pradesh",
    "districtCode": "S1236",
    "districtName": "RAJGARH",
    "acNumber": 161,
    "acName": "BIAORA",
    "partNumber": 164,
    "partName": "GUJARAKHEDI KALA",
    "lat": 23.9140506,
    "lon": 76.92953663823248
  },
  {
    "partId": 110847,
    "stateCode": "S12",
    "stateName": "Madhya Pradesh",
    "districtCode": "S1236",
    "districtName": "RAJGARH",
    "acNumber": 161,
    "acName": "BIAORA",
    "partNumber": 165,
    "partName": "NIVARA",
    "lat": 23.9140506,
    "lon": 76.92953663823248
  },
  {
    "partId": 110848,
    "stateCode": "S12",
    "stateName": "Madhya Pradesh",
    "districtCode": "S1236",
    "districtName": "RAJGARH",
    "acNumber": 161,
    "acName": "BIAORA",
    "partNumber": 166,
    "partName": "SALARIYAKHEDI",
    "lat": 23.9140506,
    "lon": 76.92953663823248
  },
  {
    "partId": 110849,
    "stateCode": "S12",
    "stateName": "Madhya Pradesh",
    "districtCode": "S1236",
    "districtName": "RAJGARH",
    "acNumber": 161,
    "acName": "BIAORA",
    "partNumber": 167,
    "partName": "HANSAROD",
    "lat": 23.9140506,
    "lon": 76.92953663823248
  },
  {
    "partId": 110905,
    "stateCode": "S12",
    "stateName": "Madhya Pradesh",
    "districtCode": "S1236",
    "districtName": "RAJGARH",
    "acNumber": 161,
    "acName": "BIAORA",
    "partNumber": 168,
    "partName": "HANSAROD",
    "lat": 23.9140506,
    "lon": 76.92953663823248
  },
  {
    "partId": 110932,
    "stateCode": "S12",
    "stateName": "Madhya Pradesh",
    "districtCode": "S1236",
    "districtName": "RAJGARH",
    "acNumber": 161,
    "acName": "BIAORA",
    "partNumber": 169,
    "partName": "SALEHAPUR",
    "lat": 23.9140506,
    "lon": 76.92953663823248
  },
  {
    "partId": 110876,
    "stateCode": "S12",
    "stateName": "Madhya Pradesh",
    "districtCode": "S1236",
    "districtName": "RAJGARH",
    "acNumber": 161,
    "acName": "BIAORA",
    "partNumber": 170,
    "partName": "TODI",
    "lat": 23.9144404,
    "lon": 77.1753931
  },
  {
    "partId": 110933,
    "stateCode": "S12",
    "stateName": "Madhya Pradesh",
    "districtCode": "S1236",
    "districtName": "RAJGARH",
    "acNumber": 161,
    "acName": "BIAORA",
    "partNumber": 171,
    "partName": "TODI",
    "lat": 23.9144404,
    "lon": 77.1753931
  },
  {
    "partId": 110934,
    "stateCode": "S12",
    "stateName": "Madhya Pradesh",
    "districtCode": "S1236",
    "districtName": "RAJGARH",
    "acNumber": 161,
    "acName": "BIAORA",
    "partNumber": 172,
    "partName": "KADIYAHAT",
    "lat": 23.9140506,
    "lon": 76.92953663823248
  },
  {
    "partId": 110956,
    "stateCode": "S12",
    "stateName": "Madhya Pradesh",
    "districtCode": "S1236",
    "districtName": "RAJGARH",
    "acNumber": 161,
    "acName": "BIAORA",
    "partNumber": 173,
    "partName": "KADIYAHAT",
    "lat": 23.87167065,
    "lon": 76.77447033719486
  },
  {
    "partId": 110935,
    "stateCode": "S12",
    "stateName": "Madhya Pradesh",
    "districtCode": "S1236",
    "districtName": "RAJGARH",
    "acNumber": 161,
    "acName": "BIAORA",
    "partNumber": 174,
    "partName": "KANKARIYA GURJAR",
    "lat": 23.9140506,
    "lon": 76.92953663823248
  },
  {
    "partId": 110968,
    "stateCode": "S12",
    "stateName": "Madhya Pradesh",
    "districtCode": "S1236",
    "districtName": "RAJGARH",
    "acNumber": 161,
    "acName": "BIAORA",
    "partNumber": 175,
    "partName": "SEMALAPAR",
    "lat": 23.9140506,
    "lon": 76.92953663823248
  },
  {
    "partId": 110969,
    "stateCode": "S12",
    "stateName": "Madhya Pradesh",
    "districtCode": "S1236",
    "districtName": "RAJGARH",
    "acNumber": 161,
    "acName": "BIAORA",
    "partNumber": 176,
    "partName": "KANARAKHEDI",
    "lat": 23.9140506,
    "lon": 76.92953663823248
  },
  {
    "partId": 110970,
    "stateCode": "S12",
    "stateName": "Madhya Pradesh",
    "districtCode": "S1236",
    "districtName": "RAJGARH",
    "acNumber": 161,
    "acName": "BIAORA",
    "partNumber": 177,
    "partName": "SILAKHEDA",
    "lat": 23.9140506,
    "lon": 76.92953663823248
  },
  {
    "partId": 110955,
    "stateCode": "S12",
    "stateName": "Madhya Pradesh",
    "districtCode": "S1236",
    "districtName": "RAJGARH",
    "acNumber": 161,
    "acName": "BIAORA",
    "partNumber": 178,
    "partName": "SILAKHEDA",
    "lat": 23.9140506,
    "lon": 76.92953663823248
  },
  {
    "partId": 110971,
    "stateCode": "S12",
    "stateName": "Madhya Pradesh",
    "districtCode": "S1236",
    "districtName": "RAJGARH",
    "acNumber": 161,
    "acName": "BIAORA",
    "partNumber": 179,
    "partName": "KISHANGARH",
    "lat": 23.78206255,
    "lon": 77.2065423324824
  },
  {
    "partId": 110972,
    "stateCode": "S12",
    "stateName": "Madhya Pradesh",
    "districtCode": "S1236",
    "districtName": "RAJGARH",
    "acNumber": 161,
    "acName": "BIAORA",
    "partNumber": 180,
    "partName": "BHAVANS",
    "lat": 23.9140506,
    "lon": 76.92953663823248
  },
  {
    "partId": 110890,
    "stateCode": "S12",
    "stateName": "Madhya Pradesh",
    "districtCode": "S1236",
    "districtName": "RAJGARH",
    "acNumber": 161,
    "acName": "BIAORA",
    "partNumber": 181,
    "partName": "BHAVANS",
    "lat": 23.9140506,
    "lon": 76.92953663823248
  },
  {
    "partId": 110973,
    "stateCode": "S12",
    "stateName": "Madhya Pradesh",
    "districtCode": "S1236",
    "districtName": "RAJGARH",
    "acNumber": 161,
    "acName": "BIAORA",
    "partNumber": 182,
    "partName": "SADALI",
    "lat": 23.9140506,
    "lon": 76.92953663823248
  },
  {
    "partId": 110974,
    "stateCode": "S12",
    "stateName": "Madhya Pradesh",
    "districtCode": "S1236",
    "districtName": "RAJGARH",
    "acNumber": 161,
    "acName": "BIAORA",
    "partNumber": 183,
    "partName": "TUAKHEDI",
    "lat": 23.9140506,
    "lon": 76.92953663823248
  },
  {
    "partId": 110773,
    "stateCode": "S12",
    "stateName": "Madhya Pradesh",
    "districtCode": "S1236",
    "districtName": "RAJGARH",
    "acNumber": 161,
    "acName": "BIAORA",
    "partNumber": 184,
    "partName": "LAKHANAVAS",
    "lat": 23.9140506,
    "lon": 76.92953663823248
  },
  {
    "partId": 110877,
    "stateCode": "S12",
    "stateName": "Madhya Pradesh",
    "districtCode": "S1236",
    "districtName": "RAJGARH",
    "acNumber": 161,
    "acName": "BIAORA",
    "partNumber": 185,
    "partName": "LAKHANAVAS",
    "lat": 23.9140506,
    "lon": 76.92953663823248
  },
  {
    "partId": 110774,
    "stateCode": "S12",
    "stateName": "Madhya Pradesh",
    "districtCode": "S1236",
    "districtName": "RAJGARH",
    "acNumber": 161,
    "acName": "BIAORA",
    "partNumber": 186,
    "partName": "PADALI GUSANI",
    "lat": 23.9140506,
    "lon": 76.92953663823248
  },
  {
    "partId": 111001,
    "stateCode": "S12",
    "stateName": "Madhya Pradesh",
    "districtCode": "S1236",
    "districtName": "RAJGARH",
    "acNumber": 161,
    "acName": "BIAORA",
    "partNumber": 187,
    "partName": "NALIYAKHEDI",
    "lat": 23.9140506,
    "lon": 76.92953663823248
  },
  {
    "partId": 110775,
    "stateCode": "S12",
    "stateName": "Madhya Pradesh",
    "districtCode": "S1236",
    "districtName": "RAJGARH",
    "acNumber": 161,
    "acName": "BIAORA",
    "partNumber": 188,
    "partName": "KHEJADA MAHARAJA",
    "lat": 23.9140506,
    "lon": 76.92953663823248
  },
  {
    "partId": 110776,
    "stateCode": "S12",
    "stateName": "Madhya Pradesh",
    "districtCode": "S1236",
    "districtName": "RAJGARH",
    "acNumber": 161,
    "acName": "BIAORA",
    "partNumber": 189,
    "partName": "BAGAVAJ",
    "lat": 23.9140506,
    "lon": 76.92953663823248
  },
  {
    "partId": 110777,
    "stateCode": "S12",
    "stateName": "Madhya Pradesh",
    "districtCode": "S1236",
    "districtName": "RAJGARH",
    "acNumber": 161,
    "acName": "BIAORA",
    "partNumber": 190,
    "partName": "MAHARAJAKHEDA",
    "lat": 23.9140506,
    "lon": 76.92953663823248
  },
  {
    "partId": 110778,
    "stateCode": "S12",
    "stateName": "Madhya Pradesh",
    "districtCode": "S1236",
    "districtName": "RAJGARH",
    "acNumber": 161,
    "acName": "BIAORA",
    "partNumber": 191,
    "partName": "NADANAPUR",
    "lat": 23.9140506,
    "lon": 76.92953663823248
  },
  {
    "partId": 110779,
    "stateCode": "S12",
    "stateName": "Madhya Pradesh",
    "districtCode": "S1236",
    "districtName": "RAJGARH",
    "acNumber": 161,
    "acName": "BIAORA",
    "partNumber": 192,
    "partName": "GANGAHONI",
    "lat": 23.738104,
    "lon": 76.7406285
  },
  {
    "partId": 110780,
    "stateCode": "S12",
    "stateName": "Madhya Pradesh",
    "districtCode": "S1236",
    "districtName": "RAJGARH",
    "acNumber": 161,
    "acName": "BIAORA",
    "partNumber": 193,
    "partName": "GANGAHONI",
    "lat": 23.738104,
    "lon": 76.7406285
  },
  {
    "partId": 110781,
    "stateCode": "S12",
    "stateName": "Madhya Pradesh",
    "districtCode": "S1236",
    "districtName": "RAJGARH",
    "acNumber": 161,
    "acName": "BIAORA",
    "partNumber": 194,
    "partName": "BERIYAKHEDI",
    "lat": 23.9140506,
    "lon": 76.92953663823248
  },
  {
    "partId": 110782,
    "stateCode": "S12",
    "stateName": "Madhya Pradesh",
    "districtCode": "S1236",
    "districtName": "RAJGARH",
    "acNumber": 161,
    "acName": "BIAORA",
    "partNumber": 195,
    "partName": "UMARED",
    "lat": 23.9140506,
    "lon": 76.92953663823248
  },
  {
    "partId": 110783,
    "stateCode": "S12",
    "stateName": "Madhya Pradesh",
    "districtCode": "S1236",
    "districtName": "RAJGARH",
    "acNumber": 161,
    "acName": "BIAORA",
    "partNumber": 196,
    "partName": "TARENA",
    "lat": 23.82855175,
    "lon": 77.14944198778208
  },
  {
    "partId": 110878,
    "stateCode": "S12",
    "stateName": "Madhya Pradesh",
    "districtCode": "S1236",
    "districtName": "RAJGARH",
    "acNumber": 161,
    "acName": "BIAORA",
    "partNumber": 197,
    "partName": "TARENI",
    "lat": 23.87167065,
    "lon": 76.77447033719486
  },
  {
    "partId": 110784,
    "stateCode": "S12",
    "stateName": "Madhya Pradesh",
    "districtCode": "S1236",
    "districtName": "RAJGARH",
    "acNumber": 161,
    "acName": "BIAORA",
    "partNumber": 198,
    "partName": "SUNDARAPURA",
    "lat": 23.9140506,
    "lon": 76.92953663823248
  },
  {
    "partId": 110893,
    "stateCode": "S12",
    "stateName": "Madhya Pradesh",
    "districtCode": "S1236",
    "districtName": "RAJGARH",
    "acNumber": 161,
    "acName": "BIAORA",
    "partNumber": 199,
    "partName": "LODIPURA",
    "lat": 23.7803181,
    "lon": 77.1515536
  },
  {
    "partId": 110785,
    "stateCode": "S12",
    "stateName": "Madhya Pradesh",
    "districtCode": "S1236",
    "districtName": "RAJGARH",
    "acNumber": 161,
    "acName": "BIAORA",
    "partNumber": 200,
    "partName": "KUNDIKHEDA",
    "lat": 23.9140506,
    "lon": 76.92953663823248
  },
  {
    "partId": 111002,
    "stateCode": "S12",
    "stateName": "Madhya Pradesh",
    "districtCode": "S1236",
    "districtName": "RAJGARH",
    "acNumber": 161,
    "acName": "BIAORA",
    "partNumber": 201,
    "partName": "DHAND",
    "lat": 24.0780872,
    "lon": 77.0966864
  },
  {
    "partId": 110786,
    "stateCode": "S12",
    "stateName": "Madhya Pradesh",
    "districtCode": "S1236",
    "districtName": "RAJGARH",
    "acNumber": 161,
    "acName": "BIAORA",
    "partNumber": 202,
    "partName": "AGAR",
    "lat": 23.7913656,
    "lon": 77.07683049931619
  },
  {
    "partId": 110714,
    "stateCode": "S12",
    "stateName": "Madhya Pradesh",
    "districtCode": "S1236",
    "districtName": "RAJGARH",
    "acNumber": 161,
    "acName": "BIAORA",
    "partNumber": 203,
    "partName": "AGAR",
    "lat": 23.7913656,
    "lon": 77.07683049931619
  },
  {
    "partId": 110787,
    "stateCode": "S12",
    "stateName": "Madhya Pradesh",
    "districtCode": "S1236",
    "districtName": "RAJGARH",
    "acNumber": 161,
    "acName": "BIAORA",
    "partNumber": 204,
    "partName": "AGAR",
    "lat": 23.7913656,
    "lon": 77.07683049931619
  },
  {
    "partId": 110954,
    "stateCode": "S12",
    "stateName": "Madhya Pradesh",
    "districtCode": "S1236",
    "districtName": "RAJGARH",
    "acNumber": 161,
    "acName": "BIAORA",
    "partNumber": 205,
    "partName": "AGAR",
    "lat": 23.7913656,
    "lon": 77.07683049931619
  },
  {
    "partId": 110788,
    "stateCode": "S12",
    "stateName": "Madhya Pradesh",
    "districtCode": "S1236",
    "districtName": "RAJGARH",
    "acNumber": 161,
    "acName": "BIAORA",
    "partNumber": 206,
    "partName": "MOTIPURA",
    "lat": 24.0885748,
    "lon": 76.54214986356516
  },
  {
    "partId": 110953,
    "stateCode": "S12",
    "stateName": "Madhya Pradesh",
    "districtCode": "S1236",
    "districtName": "RAJGARH",
    "acNumber": 161,
    "acName": "BIAORA",
    "partNumber": 207,
    "partName": "KHARETIYA KHURD",
    "lat": 23.78075045,
    "lon": 77.02772321126102
  },
  {
    "partId": 110789,
    "stateCode": "S12",
    "stateName": "Madhya Pradesh",
    "districtCode": "S1236",
    "districtName": "RAJGARH",
    "acNumber": 161,
    "acName": "BIAORA",
    "partNumber": 208,
    "partName": "AMALYAHAT",
    "lat": 23.9140506,
    "lon": 76.92953663823248
  },
  {
    "partId": 110790,
    "stateCode": "S12",
    "stateName": "Madhya Pradesh",
    "districtCode": "S1236",
    "districtName": "RAJGARH",
    "acNumber": 161,
    "acName": "BIAORA",
    "partNumber": 209,
    "partName": "BARAKHEDI",
    "lat": 23.9140506,
    "lon": 76.92953663823248
  },
  {
    "partId": 111003,
    "stateCode": "S12",
    "stateName": "Madhya Pradesh",
    "districtCode": "S1236",
    "districtName": "RAJGARH",
    "acNumber": 161,
    "acName": "BIAORA",
    "partNumber": 210,
    "partName": "BAMULIYA",
    "lat": 23.7956742,
    "lon": 77.03559088591985
  },
  {
    "partId": 110791,
    "stateCode": "S12",
    "stateName": "Madhya Pradesh",
    "districtCode": "S1236",
    "districtName": "RAJGARH",
    "acNumber": 161,
    "acName": "BIAORA",
    "partNumber": 211,
    "partName": "CHUKALYA",
    "lat": 23.8146469,
    "lon": 77.0623433
  },
  {
    "partId": 110792,
    "stateCode": "S12",
    "stateName": "Madhya Pradesh",
    "districtCode": "S1236",
    "districtName": "RAJGARH",
    "acNumber": 161,
    "acName": "BIAORA",
    "partNumber": 212,
    "partName": "MALAVAR",
    "lat": 23.9140506,
    "lon": 76.92953663823248
  },
  {
    "partId": 110952,
    "stateCode": "S12",
    "stateName": "Madhya Pradesh",
    "districtCode": "S1236",
    "districtName": "RAJGARH",
    "acNumber": 161,
    "acName": "BIAORA",
    "partNumber": 213,
    "partName": "MALAVAR",
    "lat": 23.87167065,
    "lon": 76.77447033719486
  },
  {
    "partId": 110793,
    "stateCode": "S12",
    "stateName": "Madhya Pradesh",
    "districtCode": "S1236",
    "districtName": "RAJGARH",
    "acNumber": 161,
    "acName": "BIAORA",
    "partNumber": 214,
    "partName": "MALAVAR",
    "lat": 23.87167065,
    "lon": 76.77447033719486
  },
  {
    "partId": 110794,
    "stateCode": "S12",
    "stateName": "Madhya Pradesh",
    "districtCode": "S1236",
    "districtName": "RAJGARH",
    "acNumber": 161,
    "acName": "BIAORA",
    "partNumber": 215,
    "partName": "PATALA PANI",
    "lat": 23.9140506,
    "lon": 76.92953663823248
  },
  {
    "partId": 110795,
    "stateCode": "S12",
    "stateName": "Madhya Pradesh",
    "districtCode": "S1236",
    "districtName": "RAJGARH",
    "acNumber": 161,
    "acName": "BIAORA",
    "partNumber": 216,
    "partName": "BHATAPURA",
    "lat": 23.9140506,
    "lon": 76.92953663823248
  },
  {
    "partId": 110879,
    "stateCode": "S12",
    "stateName": "Madhya Pradesh",
    "districtCode": "S1236",
    "districtName": "RAJGARH",
    "acNumber": 161,
    "acName": "BIAORA",
    "partNumber": 217,
    "partName": "SHAMASHERAPURA",
    "lat": 23.9140506,
    "lon": 76.92953663823248
  },
  {
    "partId": 110796,
    "stateCode": "S12",
    "stateName": "Madhya Pradesh",
    "districtCode": "S1236",
    "districtName": "RAJGARH",
    "acNumber": 161,
    "acName": "BIAORA",
    "partNumber": 218,
    "partName": "MORIKHO",
    "lat": 23.9140506,
    "lon": 76.92953663823248
  },
  {
    "partId": 110797,
    "stateCode": "S12",
    "stateName": "Madhya Pradesh",
    "districtCode": "S1236",
    "districtName": "RAJGARH",
    "acNumber": 161,
    "acName": "BIAORA",
    "partNumber": 219,
    "partName": "MANAKI",
    "lat": 23.9140506,
    "lon": 76.92953663823248
  },
  {
    "partId": 110798,
    "stateCode": "S12",
    "stateName": "Madhya Pradesh",
    "districtCode": "S1236",
    "districtName": "RAJGARH",
    "acNumber": 161,
    "acName": "BIAORA",
    "partNumber": 220,
    "partName": "BHAGORA",
    "lat": 23.87167065,
    "lon": 76.77447033719486
  },
  {
    "partId": 110799,
    "stateCode": "S12",
    "stateName": "Madhya Pradesh",
    "districtCode": "S1236",
    "districtName": "RAJGARH",
    "acNumber": 161,
    "acName": "BIAORA",
    "partNumber": 221,
    "partName": "CHACHAKHEDI",
    "lat": 23.9140506,
    "lon": 76.92953663823248
  },
  {
    "partId": 110800,
    "stateCode": "S12",
    "stateName": "Madhya Pradesh",
    "districtCode": "S1236",
    "districtName": "RAJGARH",
    "acNumber": 161,
    "acName": "BIAORA",
    "partNumber": 222,
    "partName": "LUHARI",
    "lat": 23.9465765,
    "lon": 77.0178401
  },
  {
    "partId": 110801,
    "stateCode": "S12",
    "stateName": "Madhya Pradesh",
    "districtCode": "S1236",
    "districtName": "RAJGARH",
    "acNumber": 161,
    "acName": "BIAORA",
    "partNumber": 223,
    "partName": "BAILAS",
    "lat": 23.9140506,
    "lon": 76.92953663823248
  },
  {
    "partId": 110802,
    "stateCode": "S12",
    "stateName": "Madhya Pradesh",
    "districtCode": "S1236",
    "districtName": "RAJGARH",
    "acNumber": 161,
    "acName": "BIAORA",
    "partNumber": 224,
    "partName": "JHARAKHEDA",
    "lat": 23.9140506,
    "lon": 76.92953663823248
  },
  {
    "partId": 110889,
    "stateCode": "S12",
    "stateName": "Madhya Pradesh",
    "districtCode": "S1236",
    "districtName": "RAJGARH",
    "acNumber": 161,
    "acName": "BIAORA",
    "partNumber": 225,
    "partName": "CHARKHEDI",
    "lat": 23.9140506,
    "lon": 76.92953663823248
  },
  {
    "partId": 110803,
    "stateCode": "S12",
    "stateName": "Madhya Pradesh",
    "districtCode": "S1236",
    "districtName": "RAJGARH",
    "acNumber": 161,
    "acName": "BIAORA",
    "partNumber": 226,
    "partName": "PADALI MAHARAJA",
    "lat": 23.9140506,
    "lon": 76.92953663823248
  },
  {
    "partId": 110804,
    "stateCode": "S12",
    "stateName": "Madhya Pradesh",
    "districtCode": "S1236",
    "districtName": "RAJGARH",
    "acNumber": 161,
    "acName": "BIAORA",
    "partNumber": 227,
    "partName": "GINDORAMINA",
    "lat": 23.9140506,
    "lon": 76.92953663823248
  },
  {
    "partId": 110951,
    "stateCode": "S12",
    "stateName": "Madhya Pradesh",
    "districtCode": "S1236",
    "districtName": "RAJGARH",
    "acNumber": 161,
    "acName": "BIAORA",
    "partNumber": 228,
    "partName": "GINDORAMINA",
    "lat": 23.87167065,
    "lon": 76.77447033719486
  },
  {
    "partId": 110805,
    "stateCode": "S12",
    "stateName": "Madhya Pradesh",
    "districtCode": "S1236",
    "districtName": "RAJGARH",
    "acNumber": 161,
    "acName": "BIAORA",
    "partNumber": 229,
    "partName": "ATARALIYA",
    "lat": 23.9140506,
    "lon": 76.92953663823248
  },
  {
    "partId": 110806,
    "stateCode": "S12",
    "stateName": "Madhya Pradesh",
    "districtCode": "S1236",
    "districtName": "RAJGARH",
    "acNumber": 161,
    "acName": "BIAORA",
    "partNumber": 230,
    "partName": "BAGORI",
    "lat": 23.86410755,
    "lon": 76.96898776905792
  },
  {
    "partId": 110880,
    "stateCode": "S12",
    "stateName": "Madhya Pradesh",
    "districtCode": "S1236",
    "districtName": "RAJGARH",
    "acNumber": 161,
    "acName": "BIAORA",
    "partNumber": 231,
    "partName": "BARAKHEDI",
    "lat": 23.9140506,
    "lon": 76.92953663823248
  },
  {
    "partId": 110807,
    "stateCode": "S12",
    "stateName": "Madhya Pradesh",
    "districtCode": "S1236",
    "districtName": "RAJGARH",
    "acNumber": 161,
    "acName": "BIAORA",
    "partNumber": 232,
    "partName": "BAIHEDA",
    "lat": 23.8393695,
    "lon": 76.940732
  },
  {
    "partId": 110985,
    "stateCode": "S12",
    "stateName": "Madhya Pradesh",
    "districtCode": "S1236",
    "districtName": "RAJGARH",
    "acNumber": 161,
    "acName": "BIAORA",
    "partNumber": 233,
    "partName": "BAIHEDA",
    "lat": 23.8393695,
    "lon": 76.940732
  },
  {
    "partId": 110808,
    "stateCode": "S12",
    "stateName": "Madhya Pradesh",
    "districtCode": "S1236",
    "districtName": "RAJGARH",
    "acNumber": 161,
    "acName": "BIAORA",
    "partNumber": 234,
    "partName": "BARWAN",
    "lat": 23.8379563,
    "lon": 76.9738626
  },
  {
    "partId": 110809,
    "stateCode": "S12",
    "stateName": "Madhya Pradesh",
    "districtCode": "S1236",
    "districtName": "RAJGARH",
    "acNumber": 161,
    "acName": "BIAORA",
    "partNumber": 235,
    "partName": "BARABAN",
    "lat": 23.9140506,
    "lon": 76.92953663823248
  },
  {
    "partId": 110810,
    "stateCode": "S12",
    "stateName": "Madhya Pradesh",
    "districtCode": "S1236",
    "districtName": "RAJGARH",
    "acNumber": 161,
    "acName": "BIAORA",
    "partNumber": 236,
    "partName": "KHAKARA TEJA",
    "lat": 23.9140506,
    "lon": 76.92953663823248
  },
  {
    "partId": 111004,
    "stateCode": "S12",
    "stateName": "Madhya Pradesh",
    "districtCode": "S1236",
    "districtName": "RAJGARH",
    "acNumber": 161,
    "acName": "BIAORA",
    "partNumber": 237,
    "partName": "KHANKRAGANDI",
    "lat": 23.9140506,
    "lon": 76.92953663823248
  },
  {
    "partId": 110811,
    "stateCode": "S12",
    "stateName": "Madhya Pradesh",
    "districtCode": "S1236",
    "districtName": "RAJGARH",
    "acNumber": 161,
    "acName": "BIAORA",
    "partNumber": 238,
    "partName": "BHAGAVATIPUR",
    "lat": 23.9140506,
    "lon": 76.92953663823248
  },
  {
    "partId": 110812,
    "stateCode": "S12",
    "stateName": "Madhya Pradesh",
    "districtCode": "S1236",
    "districtName": "RAJGARH",
    "acNumber": 161,
    "acName": "BIAORA",
    "partNumber": 239,
    "partName": "JAMI",
    "lat": 23.8600211,
    "lon": 77.02639059234775
  },
  {
    "partId": 110950,
    "stateCode": "S12",
    "stateName": "Madhya Pradesh",
    "districtCode": "S1236",
    "districtName": "RAJGARH",
    "acNumber": 161,
    "acName": "BIAORA",
    "partNumber": 240,
    "partName": "BHILKHEDI",
    "lat": 23.9140506,
    "lon": 76.92953663823248
  },
  {
    "partId": 110813,
    "stateCode": "S12",
    "stateName": "Madhya Pradesh",
    "districtCode": "S1236",
    "districtName": "RAJGARH",
    "acNumber": 161,
    "acName": "BIAORA",
    "partNumber": 241,
    "partName": "TALAVADA MAHARAJA",
    "lat": 23.9140506,
    "lon": 76.92953663823248
  },
  {
    "partId": 110814,
    "stateCode": "S12",
    "stateName": "Madhya Pradesh",
    "districtCode": "S1236",
    "districtName": "RAJGARH",
    "acNumber": 161,
    "acName": "BIAORA",
    "partNumber": 242,
    "partName": "JAMONIYA",
    "lat": 23.8561494,
    "lon": 77.0402312
  },
  {
    "partId": 110815,
    "stateCode": "S12",
    "stateName": "Madhya Pradesh",
    "districtCode": "S1236",
    "districtName": "RAJGARH",
    "acNumber": 161,
    "acName": "BIAORA",
    "partNumber": 243,
    "partName": "DEVAKHEDI",
    "lat": 23.9085556,
    "lon": 76.5096473
  },
  {
    "partId": 110816,
    "stateCode": "S12",
    "stateName": "Madhya Pradesh",
    "districtCode": "S1236",
    "districtName": "RAJGARH",
    "acNumber": 161,
    "acName": "BIAORA",
    "partNumber": 244,
    "partName": "BORADA",
    "lat": 23.9140506,
    "lon": 76.92953663823248
  },
  {
    "partId": 110817,
    "stateCode": "S12",
    "stateName": "Madhya Pradesh",
    "districtCode": "S1236",
    "districtName": "RAJGARH",
    "acNumber": 161,
    "acName": "BIAORA",
    "partNumber": 245,
    "partName": "KHEDIKUSHALAPURA",
    "lat": 23.9140506,
    "lon": 76.92953663823248
  },
  {
    "partId": 110881,
    "stateCode": "S12",
    "stateName": "Madhya Pradesh",
    "districtCode": "S1236",
    "districtName": "RAJGARH",
    "acNumber": 161,
    "acName": "BIAORA",
    "partNumber": 246,
    "partName": "BUDHAKHEDA",
    "lat": 23.87167065,
    "lon": 76.77447033719486
  },
  {
    "partId": 110818,
    "stateCode": "S12",
    "stateName": "Madhya Pradesh",
    "districtCode": "S1236",
    "districtName": "RAJGARH",
    "acNumber": 161,
    "acName": "BIAORA",
    "partNumber": 247,
    "partName": "ARANYA",
    "lat": 23.87167065,
    "lon": 76.77447033719486
  },
  {
    "partId": 110819,
    "stateCode": "S12",
    "stateName": "Madhya Pradesh",
    "districtCode": "S1236",
    "districtName": "RAJGARH",
    "acNumber": 161,
    "acName": "BIAORA",
    "partNumber": 248,
    "partName": "MUWALIYA DANGI",
    "lat": 23.8155401,
    "lon": 76.9959855
  },
  {
    "partId": 110820,
    "stateCode": "S12",
    "stateName": "Madhya Pradesh",
    "districtCode": "S1236",
    "districtName": "RAJGARH",
    "acNumber": 161,
    "acName": "BIAORA",
    "partNumber": 249,
    "partName": "TALODI",
    "lat": 23.8078644,
    "lon": 76.9356894
  },
  {
    "partId": 110949,
    "stateCode": "S12",
    "stateName": "Madhya Pradesh",
    "districtCode": "S1236",
    "districtName": "RAJGARH",
    "acNumber": 161,
    "acName": "BIAORA",
    "partNumber": 250,
    "partName": "DHURLA",
    "lat": 23.8151868,
    "lon": 76.9477272
  },
  {
    "partId": 110821,
    "stateCode": "S12",
    "stateName": "Madhya Pradesh",
    "districtCode": "S1236",
    "districtName": "RAJGARH",
    "acNumber": 161,
    "acName": "BIAORA",
    "partNumber": 251,
    "partName": "LASUDALI MAHARAJA",
    "lat": 23.9140506,
    "lon": 76.92953663823248
  },
  {
    "partId": 110948,
    "stateCode": "S12",
    "stateName": "Madhya Pradesh",
    "districtCode": "S1236",
    "districtName": "RAJGARH",
    "acNumber": 161,
    "acName": "BIAORA",
    "partNumber": 252,
    "partName": "LASUDALI MAHARAJA",
    "lat": 23.9140506,
    "lon": 76.92953663823248
  },
  {
    "partId": 110822,
    "stateCode": "S12",
    "stateName": "Madhya Pradesh",
    "districtCode": "S1236",
    "districtName": "RAJGARH",
    "acNumber": 161,
    "acName": "BIAORA",
    "partNumber": 253,
    "partName": "PAGARA",
    "lat": 23.7822228,
    "lon": 76.9592929
  },
  {
    "partId": 110823,
    "stateCode": "S12",
    "stateName": "Madhya Pradesh",
    "districtCode": "S1236",
    "districtName": "RAJGARH",
    "acNumber": 161,
    "acName": "BIAORA",
    "partNumber": 254,
    "partName": "NALAKHEDA",
    "lat": 23.9140506,
    "lon": 76.92953663823248
  },
  {
    "partId": 110824,
    "stateCode": "S12",
    "stateName": "Madhya Pradesh",
    "districtCode": "S1236",
    "districtName": "RAJGARH",
    "acNumber": 161,
    "acName": "BIAORA",
    "partNumber": 255,
    "partName": "MOI",
    "lat": 24.0043821,
    "lon": 76.47937084737889
  },
  {
    "partId": 110825,
    "stateCode": "S12",
    "stateName": "Madhya Pradesh",
    "districtCode": "S1236",
    "districtName": "RAJGARH",
    "acNumber": 161,
    "acName": "BIAORA",
    "partNumber": 256,
    "partName": "KHANPURA",
    "lat": 23.8572484,
    "lon": 76.7287302
  },
  {
    "partId": 110984,
    "stateCode": "S12",
    "stateName": "Madhya Pradesh",
    "districtCode": "S1236",
    "districtName": "RAJGARH",
    "acNumber": 161,
    "acName": "BIAORA",
    "partNumber": 257,
    "partName": "KHANPURA",
    "lat": 23.8572484,
    "lon": 76.7287302
  },
  {
    "partId": 110826,
    "stateCode": "S12",
    "stateName": "Madhya Pradesh",
    "districtCode": "S1236",
    "districtName": "RAJGARH",
    "acNumber": 161,
    "acName": "BIAORA",
    "partNumber": 258,
    "partName": "SONAKACHCHH",
    "lat": 23.9140506,
    "lon": 76.92953663823248
  },
  {
    "partId": 110827,
    "stateCode": "S12",
    "stateName": "Madhya Pradesh",
    "districtCode": "S1236",
    "districtName": "RAJGARH",
    "acNumber": 161,
    "acName": "BIAORA",
    "partNumber": 259,
    "partName": "SONAKACHCHH",
    "lat": 23.9140506,
    "lon": 76.92953663823248
  },
  {
    "partId": 110895,
    "stateCode": "S12",
    "stateName": "Madhya Pradesh",
    "districtCode": "S1236",
    "districtName": "RAJGARH",
    "acNumber": 161,
    "acName": "BIAORA",
    "partNumber": 260,
    "partName": "PALASI",
    "lat": 23.754797250000003,
    "lon": 76.98445116832151
  },
  {
    "partId": 110993,
    "stateCode": "S12",
    "stateName": "Madhya Pradesh",
    "districtCode": "S1236",
    "districtName": "RAJGARH",
    "acNumber": 161,
    "acName": "BIAORA",
    "partNumber": 261,
    "partName": "PIPALYA DHAKAD",
    "lat": 23.9140506,
    "lon": 76.92953663823248
  },
  {
    "partId": 110947,
    "stateCode": "S12",
    "stateName": "Madhya Pradesh",
    "districtCode": "S1236",
    "districtName": "RAJGARH",
    "acNumber": 161,
    "acName": "BIAORA",
    "partNumber": 262,
    "partName": "RANJEETPURA",
    "lat": 23.9140506,
    "lon": 76.92953663823248
  },
  {
    "partId": 110882,
    "stateCode": "S12",
    "stateName": "Madhya Pradesh",
    "districtCode": "S1236",
    "districtName": "RAJGARH",
    "acNumber": 161,
    "acName": "BIAORA",
    "partNumber": 263,
    "partName": "BHOJAPURIYA",
    "lat": 23.9140506,
    "lon": 76.92953663823248
  },
  {
    "partId": 110994,
    "stateCode": "S12",
    "stateName": "Madhya Pradesh",
    "districtCode": "S1236",
    "districtName": "RAJGARH",
    "acNumber": 161,
    "acName": "BIAORA",
    "partNumber": 264,
    "partName": "BAIRASIYA",
    "lat": 23.9140506,
    "lon": 76.92953663823248
  },
  {
    "partId": 110946,
    "stateCode": "S12",
    "stateName": "Madhya Pradesh",
    "districtCode": "S1236",
    "districtName": "RAJGARH",
    "acNumber": 161,
    "acName": "BIAORA",
    "partNumber": 265,
    "partName": "BAIRASIYA",
    "lat": 23.9140506,
    "lon": 76.92953663823248
  },
  {
    "partId": 110995,
    "stateCode": "S12",
    "stateName": "Madhya Pradesh",
    "districtCode": "S1236",
    "districtName": "RAJGARH",
    "acNumber": 161,
    "acName": "BIAORA",
    "partNumber": 266,
    "partName": "BAIRASIYA",
    "lat": 23.9140506,
    "lon": 76.92953663823248
  },
  {
    "partId": 110996,
    "stateCode": "S12",
    "stateName": "Madhya Pradesh",
    "districtCode": "S1236",
    "districtName": "RAJGARH",
    "acNumber": 161,
    "acName": "BIAORA",
    "partNumber": 267,
    "partName": "MUDALA BAJRANG",
    "lat": 23.9140506,
    "lon": 76.92953663823248
  },
  {
    "partId": 110930,
    "stateCode": "S12",
    "stateName": "Madhya Pradesh",
    "districtCode": "S1236",
    "districtName": "RAJGARH",
    "acNumber": 161,
    "acName": "BIAORA",
    "partNumber": 268,
    "partName": "BHAVANIPURA",
    "lat": 23.9140506,
    "lon": 76.92953663823248
  },
  {
    "partId": 110904,
    "stateCode": "S12",
    "stateName": "Madhya Pradesh",
    "districtCode": "S1236",
    "districtName": "RAJGARH",
    "acNumber": 161,
    "acName": "BIAORA",
    "partNumber": 269,
    "partName": "KADIYACHANDRAWAT",
    "lat": 23.9140506,
    "lon": 76.92953663823248
  },
  {
    "partId": 110931,
    "stateCode": "S12",
    "stateName": "Madhya Pradesh",
    "districtCode": "S1236",
    "districtName": "RAJGARH",
    "acNumber": 161,
    "acName": "BIAORA",
    "partNumber": 270,
    "partName": "MUDALI",
    "lat": 23.9140506,
    "lon": 76.92953663823248
  },
  {
    "partId": 110864,
    "stateCode": "S12",
    "stateName": "Madhya Pradesh",
    "districtCode": "S1236",
    "districtName": "RAJGARH",
    "acNumber": 161,
    "acName": "BIAORA",
    "partNumber": 271,
    "partName": "PIPALYA BAG",
    "lat": 23.9140506,
    "lon": 76.92953663823248
  },
  {
    "partId": 110945,
    "stateCode": "S12",
    "stateName": "Madhya Pradesh",
    "districtCode": "S1236",
    "districtName": "RAJGARH",
    "acNumber": 161,
    "acName": "BIAORA",
    "partNumber": 272,
    "partName": "KOLUKHEDI",
    "lat": 23.9140506,
    "lon": 76.92953663823248
  },
  {
    "partId": 110865,
    "stateCode": "S12",
    "stateName": "Madhya Pradesh",
    "districtCode": "S1236",
    "districtName": "RAJGARH",
    "acNumber": 161,
    "acName": "BIAORA",
    "partNumber": 273,
    "partName": "PADALYA BANA",
    "lat": 23.87167065,
    "lon": 76.77447033719486
  },
  {
    "partId": 110866,
    "stateCode": "S12",
    "stateName": "Madhya Pradesh",
    "districtCode": "S1236",
    "districtName": "RAJGARH",
    "acNumber": 161,
    "acName": "BIAORA",
    "partNumber": 274,
    "partName": "KADIYAMITRASEN",
    "lat": 23.9140506,
    "lon": 76.92953663823248
  },
  {
    "partId": 110867,
    "stateCode": "S12",
    "stateName": "Madhya Pradesh",
    "districtCode": "S1236",
    "districtName": "RAJGARH",
    "acNumber": 161,
    "acName": "BIAORA",
    "partNumber": 275,
    "partName": "ANDAL HEDA",
    "lat": 23.9140506,
    "lon": 76.92953663823248
  },
  {
    "partId": 110944,
    "stateCode": "S12",
    "stateName": "Madhya Pradesh",
    "districtCode": "S1236",
    "districtName": "RAJGARH",
    "acNumber": 161,
    "acName": "BIAORA",
    "partNumber": 276,
    "partName": "ANDAL HEDA",
    "lat": 23.9140506,
    "lon": 76.92953663823248
  },
  {
    "partId": 110833,
    "stateCode": "S12",
    "stateName": "Madhya Pradesh",
    "districtCode": "S1236",
    "districtName": "RAJGARH",
    "acNumber": 161,
    "acName": "BIAORA",
    "partNumber": 277,
    "partName": "SHANKAR PURA",
    "lat": 23.9140506,
    "lon": 76.92953663823248
  },
  {
    "partId": 110834,
    "stateCode": "S12",
    "stateName": "Madhya Pradesh",
    "districtCode": "S1236",
    "districtName": "RAJGARH",
    "acNumber": 161,
    "acName": "BIAORA",
    "partNumber": 278,
    "partName": "GADIYA",
    "lat": 24.10060285,
    "lon": 76.6053643438751
  },
  {
    "partId": 110983,
    "stateCode": "S12",
    "stateName": "Madhya Pradesh",
    "districtCode": "S1236",
    "districtName": "RAJGARH",
    "acNumber": 161,
    "acName": "BIAORA",
    "partNumber": 279,
    "partName": "GADIYA",
    "lat": 24.10060285,
    "lon": 76.6053643438751
  },
  {
    "partId": 110835,
    "stateCode": "S12",
    "stateName": "Madhya Pradesh",
    "districtCode": "S1236",
    "districtName": "RAJGARH",
    "acNumber": 161,
    "acName": "BIAORA",
    "partNumber": 280,
    "partName": "CHAINPURA KALA",
    "lat": 23.9140506,
    "lon": 76.92953663823248
  },
  {
    "partId": 110836,
    "stateCode": "S12",
    "stateName": "Madhya Pradesh",
    "districtCode": "S1236",
    "districtName": "RAJGARH",
    "acNumber": 161,
    "acName": "BIAORA",
    "partNumber": 281,
    "partName": "CHARPUPA",
    "lat": 23.9140506,
    "lon": 76.92953663823248
  },
  {
    "partId": 110837,
    "stateCode": "S12",
    "stateName": "Madhya Pradesh",
    "districtCode": "S1236",
    "districtName": "RAJGARH",
    "acNumber": 161,
    "acName": "BIAORA",
    "partNumber": 282,
    "partName": "MANAPURADAIV",
    "lat": 23.9140506,
    "lon": 76.92953663823248
  },
  {
    "partId": 110838,
    "stateCode": "S12",
    "stateName": "Madhya Pradesh",
    "districtCode": "S1236",
    "districtName": "RAJGARH",
    "acNumber": 161,
    "acName": "BIAORA",
    "partNumber": 283,
    "partName": "PANJRI",
    "lat": 23.738920299999997,
    "lon": 77.14178947193092
  },
  {
    "partId": 110943,
    "stateCode": "S12",
    "stateName": "Madhya Pradesh",
    "districtCode": "S1236",
    "districtName": "RAJGARH",
    "acNumber": 161,
    "acName": "BIAORA",
    "partNumber": 284,
    "partName": "MITHTHHANPUR",
    "lat": 23.9140506,
    "lon": 76.92953663823248
  },
  {
    "partId": 110839,
    "stateCode": "S12",
    "stateName": "Madhya Pradesh",
    "districtCode": "S1236",
    "districtName": "RAJGARH",
    "acNumber": 161,
    "acName": "BIAORA",
    "partNumber": 285,
    "partName": "PANJARA",
    "lat": 23.9140506,
    "lon": 76.92953663823248
  },
  {
    "partId": 110840,
    "stateCode": "S12",
    "stateName": "Madhya Pradesh",
    "districtCode": "S1236",
    "districtName": "RAJGARH",
    "acNumber": 161,
    "acName": "BIAORA",
    "partNumber": 286,
    "partName": "PURABARAYATHA",
    "lat": 23.87167065,
    "lon": 76.77447033719486
  },
  {
    "partId": 110942,
    "stateCode": "S12",
    "stateName": "Madhya Pradesh",
    "districtCode": "S1236",
    "districtName": "RAJGARH",
    "acNumber": 161,
    "acName": "BIAORA",
    "partNumber": 287,
    "partName": "BADODIYA JAGIR",
    "lat": 23.9140506,
    "lon": 76.92953663823248
  },
  {
    "partId": 110975,
    "stateCode": "S12",
    "stateName": "Madhya Pradesh",
    "districtCode": "S1236",
    "districtName": "RAJGARH",
    "acNumber": 161,
    "acName": "BIAORA",
    "partNumber": 288,
    "partName": "SAVANSI",
    "lat": 23.9140506,
    "lon": 76.92953663823248
  },
  {
    "partId": 110883,
    "stateCode": "S12",
    "stateName": "Madhya Pradesh",
    "districtCode": "S1236",
    "districtName": "RAJGARH",
    "acNumber": 161,
    "acName": "BIAORA",
    "partNumber": 289,
    "partName": "BARAYATHA JAGIR",
    "lat": 23.9140506,
    "lon": 76.92953663823248
  },
  {
    "partId": 110976,
    "stateCode": "S12",
    "stateName": "Madhya Pradesh",
    "districtCode": "S1236",
    "districtName": "RAJGARH",
    "acNumber": 161,
    "acName": "BIAORA",
    "partNumber": 290,
    "partName": "NINOR",
    "lat": 23.9140506,
    "lon": 76.92953663823248
  },
  {
    "partId": 110939,
    "stateCode": "S12",
    "stateName": "Madhya Pradesh",
    "districtCode": "S1236",
    "districtName": "RAJGARH",
    "acNumber": 161,
    "acName": "BIAORA",
    "partNumber": 291,
    "partName": "RAMGARH",
    "lat": 24.16904345,
    "lon": 76.39868547356517
  },
  {
    "partId": 110940,
    "stateCode": "S12",
    "stateName": "Madhya Pradesh",
    "districtCode": "S1236",
    "districtName": "RAJGARH",
    "acNumber": 161,
    "acName": "BIAORA",
    "partNumber": 292,
    "partName": "VIJAYAGADH",
    "lat": 23.9140506,
    "lon": 76.92953663823248
  },
  {
    "partId": 110941,
    "stateCode": "S12",
    "stateName": "Madhya Pradesh",
    "districtCode": "S1236",
    "districtName": "RAJGARH",
    "acNumber": 161,
    "acName": "BIAORA",
    "partNumber": 293,
    "partName": "RAGHUNATHAPURA",
    "lat": 23.9140506,
    "lon": 76.92953663823248
  },
  {
    "partId": 111478,
    "stateCode": "S12",
    "stateName": "Madhya Pradesh",
    "districtCode": "S1236",
    "districtName": "RAJGARH",
    "acNumber": 163,
    "acName": "KHILCHIPUR",
    "partNumber": 1,
    "partName": "DHANODA",
    "lat": 24.2023585,
    "lon": 76.23071602932959
  },
  {
    "partId": 111320,
    "stateCode": "S12",
    "stateName": "Madhya Pradesh",
    "districtCode": "S1236",
    "districtName": "RAJGARH",
    "acNumber": 163,
    "acName": "KHILCHIPUR",
    "partNumber": 2,
    "partName": "DHANODA",
    "lat": 24.2023585,
    "lon": 76.23071602932959
  },
  {
    "partId": 111479,
    "stateCode": "S12",
    "stateName": "Madhya Pradesh",
    "districtCode": "S1236",
    "districtName": "RAJGARH",
    "acNumber": 163,
    "acName": "KHILCHIPUR",
    "partNumber": 3,
    "partName": "JETHALI",
    "lat": 24.03447745,
    "lon": 76.5768551033463
  },
  {
    "partId": 111491,
    "stateCode": "S12",
    "stateName": "Madhya Pradesh",
    "districtCode": "S1236",
    "districtName": "RAJGARH",
    "acNumber": 163,
    "acName": "KHILCHIPUR",
    "partNumber": 4,
    "partName": "JIRIYAKHEDI",
    "lat": 24.03447745,
    "lon": 76.5768551033463
  },
  {
    "partId": 111492,
    "stateCode": "S12",
    "stateName": "Madhya Pradesh",
    "districtCode": "S1236",
    "districtName": "RAJGARH",
    "acNumber": 163,
    "acName": "KHILCHIPUR",
    "partNumber": 5,
    "partName": "BHAGORA",
    "lat": 23.92976955,
    "lon": 77.05257693939105
  },
  {
    "partId": 111319,
    "stateCode": "S12",
    "stateName": "Madhya Pradesh",
    "districtCode": "S1236",
    "districtName": "RAJGARH",
    "acNumber": 163,
    "acName": "KHILCHIPUR",
    "partNumber": 6,
    "partName": "BHAGORA",
    "lat": 23.92976955,
    "lon": 77.05257693939105
  },
  {
    "partId": 111493,
    "stateCode": "S12",
    "stateName": "Madhya Pradesh",
    "districtCode": "S1236",
    "districtName": "RAJGARH",
    "acNumber": 163,
    "acName": "KHILCHIPUR",
    "partNumber": 7,
    "partName": "BHAGORIN",
    "lat": 24.03447745,
    "lon": 76.5768551033463
  },
  {
    "partId": 111494,
    "stateCode": "S12",
    "stateName": "Madhya Pradesh",
    "districtCode": "S1236",
    "districtName": "RAJGARH",
    "acNumber": 163,
    "acName": "KHILCHIPUR",
    "partNumber": 8,
    "partName": "BANDA JAGIR",
    "lat": 24.03447745,
    "lon": 76.5768551033463
  },
  {
    "partId": 111495,
    "stateCode": "S12",
    "stateName": "Madhya Pradesh",
    "districtCode": "S1236",
    "districtName": "RAJGARH",
    "acNumber": 163,
    "acName": "KHILCHIPUR",
    "partNumber": 9,
    "partName": "GHOGHATAPUR",
    "lat": 24.03447745,
    "lon": 76.5768551033463
  },
  {
    "partId": 111379,
    "stateCode": "S12",
    "stateName": "Madhya Pradesh",
    "districtCode": "S1236",
    "districtName": "RAJGARH",
    "acNumber": 163,
    "acName": "KHILCHIPUR",
    "partNumber": 10,
    "partName": "GHOGHATAPUR",
    "lat": 24.03447745,
    "lon": 76.5768551033463
  },
  {
    "partId": 111480,
    "stateCode": "S12",
    "stateName": "Madhya Pradesh",
    "districtCode": "S1236",
    "districtName": "RAJGARH",
    "acNumber": 163,
    "acName": "KHILCHIPUR",
    "partNumber": 11,
    "partName": "GHOGHATAPUR",
    "lat": 24.03447745,
    "lon": 76.5768551033463
  },
  {
    "partId": 111378,
    "stateCode": "S12",
    "stateName": "Madhya Pradesh",
    "districtCode": "S1236",
    "districtName": "RAJGARH",
    "acNumber": 163,
    "acName": "KHILCHIPUR",
    "partNumber": 12,
    "partName": "GHOGHATAPUR",
    "lat": 24.03447745,
    "lon": 76.5768551033463
  },
  {
    "partId": 111321,
    "stateCode": "S12",
    "stateName": "Madhya Pradesh",
    "districtCode": "S1236",
    "districtName": "RAJGARH",
    "acNumber": 163,
    "acName": "KHILCHIPUR",
    "partNumber": 13,
    "partName": "KUNDIKHEDA",
    "lat": 24.03447745,
    "lon": 76.5768551033463
  },
  {
    "partId": 111481,
    "stateCode": "S12",
    "stateName": "Madhya Pradesh",
    "districtCode": "S1236",
    "districtName": "RAJGARH",
    "acNumber": 163,
    "acName": "KHILCHIPUR",
    "partNumber": 14,
    "partName": "JHARANYA",
    "lat": 24.1818951,
    "lon": 76.3091469
  },
  {
    "partId": 111482,
    "stateCode": "S12",
    "stateName": "Madhya Pradesh",
    "districtCode": "S1236",
    "districtName": "RAJGARH",
    "acNumber": 163,
    "acName": "KHILCHIPUR",
    "partNumber": 15,
    "partName": "JHARANI",
    "lat": 24.03447745,
    "lon": 76.5768551033463
  },
  {
    "partId": 111483,
    "stateCode": "S12",
    "stateName": "Madhya Pradesh",
    "districtCode": "S1236",
    "districtName": "RAJGARH",
    "acNumber": 163,
    "acName": "KHILCHIPUR",
    "partNumber": 16,
    "partName": "BAVADIKHEDA",
    "lat": 24.03447745,
    "lon": 76.5768551033463
  },
  {
    "partId": 111484,
    "stateCode": "S12",
    "stateName": "Madhya Pradesh",
    "districtCode": "S1236",
    "districtName": "RAJGARH",
    "acNumber": 163,
    "acName": "KHILCHIPUR",
    "partNumber": 17,
    "partName": "AGARIYA",
    "lat": 24.2353283,
    "lon": 76.31285919612864
  },
  {
    "partId": 111511,
    "stateCode": "S12",
    "stateName": "Madhya Pradesh",
    "districtCode": "S1236",
    "districtName": "RAJGARH",
    "acNumber": 163,
    "acName": "KHILCHIPUR",
    "partNumber": 18,
    "partName": "SUNDARAPURA",
    "lat": 24.03447745,
    "lon": 76.5768551033463
  },
  {
    "partId": 111512,
    "stateCode": "S12",
    "stateName": "Madhya Pradesh",
    "districtCode": "S1236",
    "districtName": "RAJGARH",
    "acNumber": 163,
    "acName": "KHILCHIPUR",
    "partNumber": 19,
    "partName": "KISHANAPURA",
    "lat": 24.03447745,
    "lon": 76.5768551033463
  },
  {
    "partId": 111513,
    "stateCode": "S12",
    "stateName": "Madhya Pradesh",
    "districtCode": "S1236",
    "districtName": "RAJGARH",
    "acNumber": 163,
    "acName": "KHILCHIPUR",
    "partNumber": 20,
    "partName": "GADIYA",
    "lat": 24.10060285,
    "lon": 76.6053643438751
  },
  {
    "partId": 111322,
    "stateCode": "S12",
    "stateName": "Madhya Pradesh",
    "districtCode": "S1236",
    "districtName": "RAJGARH",
    "acNumber": 163,
    "acName": "KHILCHIPUR",
    "partNumber": 21,
    "partName": "KUMADA",
    "lat": 24.03447745,
    "lon": 76.5768551033463
  },
  {
    "partId": 111463,
    "stateCode": "S12",
    "stateName": "Madhya Pradesh",
    "districtCode": "S1236",
    "districtName": "RAJGARH",
    "acNumber": 163,
    "acName": "KHILCHIPUR",
    "partNumber": 22,
    "partName": "ADAMAPURA",
    "lat": 24.03447745,
    "lon": 76.5768551033463
  },
  {
    "partId": 111323,
    "stateCode": "S12",
    "stateName": "Madhya Pradesh",
    "districtCode": "S1236",
    "districtName": "RAJGARH",
    "acNumber": 163,
    "acName": "KHILCHIPUR",
    "partNumber": 23,
    "partName": "RAJAPURAKHEDA",
    "lat": 24.03447745,
    "lon": 76.5768551033463
  },
  {
    "partId": 111324,
    "stateCode": "S12",
    "stateName": "Madhya Pradesh",
    "districtCode": "S1236",
    "districtName": "RAJGARH",
    "acNumber": 163,
    "acName": "KHILCHIPUR",
    "partNumber": 24,
    "partName": "KUMADI",
    "lat": 24.03447745,
    "lon": 76.5768551033463
  },
  {
    "partId": 111334,
    "stateCode": "S12",
    "stateName": "Madhya Pradesh",
    "districtCode": "S1236",
    "districtName": "RAJGARH",
    "acNumber": 163,
    "acName": "KHILCHIPUR",
    "partNumber": 25,
    "partName": "RAJPURA",
    "lat": 24.08440005,
    "lon": 76.58274173745521
  },
  {
    "partId": 111335,
    "stateCode": "S12",
    "stateName": "Madhya Pradesh",
    "districtCode": "S1236",
    "districtName": "RAJGARH",
    "acNumber": 163,
    "acName": "KHILCHIPUR",
    "partNumber": 26,
    "partName": "BATEDIYA",
    "lat": 24.03447745,
    "lon": 76.5768551033463
  },
  {
    "partId": 111336,
    "stateCode": "S12",
    "stateName": "Madhya Pradesh",
    "districtCode": "S1236",
    "districtName": "RAJGARH",
    "acNumber": 163,
    "acName": "KHILCHIPUR",
    "partNumber": 27,
    "partName": "GADAGACH",
    "lat": 24.03447745,
    "lon": 76.5768551033463
  },
  {
    "partId": 111337,
    "stateCode": "S12",
    "stateName": "Madhya Pradesh",
    "districtCode": "S1236",
    "districtName": "RAJGARH",
    "acNumber": 163,
    "acName": "KHILCHIPUR",
    "partNumber": 28,
    "partName": "MUKUNDAPURA",
    "lat": 24.03447745,
    "lon": 76.5768551033463
  },
  {
    "partId": 111338,
    "stateCode": "S12",
    "stateName": "Madhya Pradesh",
    "districtCode": "S1236",
    "districtName": "RAJGARH",
    "acNumber": 163,
    "acName": "KHILCHIPUR",
    "partNumber": 29,
    "partName": "BHADAKA",
    "lat": 24.03447745,
    "lon": 76.5768551033463
  },
  {
    "partId": 111339,
    "stateCode": "S12",
    "stateName": "Madhya Pradesh",
    "districtCode": "S1236",
    "districtName": "RAJGARH",
    "acNumber": 163,
    "acName": "KHILCHIPUR",
    "partNumber": 30,
    "partName": "ARANYA",
    "lat": 23.9419189,
    "lon": 76.9195747
  },
  {
    "partId": 111340,
    "stateCode": "S12",
    "stateName": "Madhya Pradesh",
    "districtCode": "S1236",
    "districtName": "RAJGARH",
    "acNumber": 163,
    "acName": "KHILCHIPUR",
    "partNumber": 31,
    "partName": "UCHAVADA",
    "lat": 24.03447745,
    "lon": 76.5768551033463
  },
  {
    "partId": 111341,
    "stateCode": "S12",
    "stateName": "Madhya Pradesh",
    "districtCode": "S1236",
    "districtName": "RAJGARH",
    "acNumber": 163,
    "acName": "KHILCHIPUR",
    "partNumber": 32,
    "partName": "RAMGARH",
    "lat": 24.16904345,
    "lon": 76.39868547356517
  },
  {
    "partId": 111377,
    "stateCode": "S12",
    "stateName": "Madhya Pradesh",
    "districtCode": "S1236",
    "districtName": "RAJGARH",
    "acNumber": 163,
    "acName": "KHILCHIPUR",
    "partNumber": 33,
    "partName": "RAMGARH",
    "lat": 24.16904345,
    "lon": 76.39868547356517
  },
  {
    "partId": 111342,
    "stateCode": "S12",
    "stateName": "Madhya Pradesh",
    "districtCode": "S1236",
    "districtName": "RAJGARH",
    "acNumber": 163,
    "acName": "KHILCHIPUR",
    "partNumber": 34,
    "partName": "RAMGARH",
    "lat": 23.87167065,
    "lon": 76.77447033719486
  },
  {
    "partId": 111376,
    "stateCode": "S12",
    "stateName": "Madhya Pradesh",
    "districtCode": "S1236",
    "districtName": "RAJGARH",
    "acNumber": 163,
    "acName": "KHILCHIPUR",
    "partNumber": 35,
    "partName": "RAMGARH",
    "lat": 23.87167065,
    "lon": 76.77447033719486
  },
  {
    "partId": 111464,
    "stateCode": "S12",
    "stateName": "Madhya Pradesh",
    "districtCode": "S1236",
    "districtName": "RAJGARH",
    "acNumber": 163,
    "acName": "KHILCHIPUR",
    "partNumber": 36,
    "partName": "LAKHOUNI",
    "lat": 24.03447745,
    "lon": 76.5768551033463
  },
  {
    "partId": 111343,
    "stateCode": "S12",
    "stateName": "Madhya Pradesh",
    "districtCode": "S1236",
    "districtName": "RAJGARH",
    "acNumber": 163,
    "acName": "KHILCHIPUR",
    "partNumber": 37,
    "partName": "LAKHONI",
    "lat": 24.13877215,
    "lon": 76.38992736208462
  },
  {
    "partId": 111223,
    "stateCode": "S12",
    "stateName": "Madhya Pradesh",
    "districtCode": "S1236",
    "districtName": "RAJGARH",
    "acNumber": 163,
    "acName": "KHILCHIPUR",
    "partNumber": 38,
    "partName": "LAKHONI",
    "lat": 24.13877215,
    "lon": 76.38992736208462
  },
  {
    "partId": 111443,
    "stateCode": "S12",
    "stateName": "Madhya Pradesh",
    "districtCode": "S1236",
    "districtName": "RAJGARH",
    "acNumber": 163,
    "acName": "KHILCHIPUR",
    "partNumber": 39,
    "partName": "GULKHEDI",
    "lat": 24.03447745,
    "lon": 76.5768551033463
  },
  {
    "partId": 111475,
    "stateCode": "S12",
    "stateName": "Madhya Pradesh",
    "districtCode": "S1236",
    "districtName": "RAJGARH",
    "acNumber": 163,
    "acName": "KHILCHIPUR",
    "partNumber": 40,
    "partName": "DANTIYA",
    "lat": 24.03447745,
    "lon": 76.5768551033463
  },
  {
    "partId": 111444,
    "stateCode": "S12",
    "stateName": "Madhya Pradesh",
    "districtCode": "S1236",
    "districtName": "RAJGARH",
    "acNumber": 163,
    "acName": "KHILCHIPUR",
    "partNumber": 41,
    "partName": "BRAHMANAGANV",
    "lat": 24.03447745,
    "lon": 76.5768551033463
  },
  {
    "partId": 111445,
    "stateCode": "S12",
    "stateName": "Madhya Pradesh",
    "districtCode": "S1236",
    "districtName": "RAJGARH",
    "acNumber": 163,
    "acName": "KHILCHIPUR",
    "partNumber": 42,
    "partName": "BRAHMANAGANV",
    "lat": 24.03447745,
    "lon": 76.5768551033463
  },