[
  {
    "partId": 64997,
    "stateCode": "S12",
    "stateName": "Madhya Pradesh",
    "districtCode": "S1226",
    "districtName": "SEONI",
    "acNumber": 114,
    "acName": "BARGHAT",
    "partNumber": 1,
    "partName": "CHAKKI KHAMRIA",
    "lat": 22.0288467,
    "lon": 79.7438467143195
  },
  {
    "partId": 65017,
    "stateCode": "S12",
    "stateName": "Madhya Pradesh",
    "districtCode": "S1226",
    "districtName": "SEONI",
    "acNumber": 114,
    "acName": "BARGHAT",
    "partNumber": 2,
    "partName": "CHAKKI KHAMARIA",
    "lat": 22.0288467,
    "lon": 79.7438467143195
  },
  {
    "partId": 65018,
    "stateCode": "S12",
    "stateName": "Madhya Pradesh",
    "districtCode": "S1226",
    "districtName": "SEONI",
    "acNumber": 114,
    "acName": "BARGHAT",
    "partNumber": 3,
    "partName": "KATANGI BANJAR",
    "lat": 22.0288467,
    "lon": 79.7438467143195
  },
  {
    "partId": 64616,
    "stateCode": "S12",
    "stateName": "Madhya Pradesh",
    "districtCode": "S1226",
    "districtName": "SEONI",
    "acNumber": 114,
    "acName": "BARGHAT",
    "partNumber": 4,
    "partName": "BADALPAR",
    "lat": 21.92130935,
    "lon": 79.43627572400945
  },
  {
    "partId": 64617,
    "stateCode": "S12",
    "stateName": "Madhya Pradesh",
    "districtCode": "S1226",
    "districtName": "SEONI",
    "acNumber": 114,
    "acName": "BARGHAT",
    "partNumber": 5,
    "partName": "JOGIWADA",
    "lat": 22.0288467,
    "lon": 79.7438467143195
  },
  {
    "partId": 65171,
    "stateCode": "S12",
    "stateName": "Madhya Pradesh",
    "districtCode": "S1226",
    "districtName": "SEONI",
    "acNumber": 114,
    "acName": "BARGHAT",
    "partNumber": 6,
    "partName": "BELPETH",
    "lat": 22.0288467,
    "lon": 79.7438467143195
  },
  {
    "partId": 64839,
    "stateCode": "S12",
    "stateName": "Madhya Pradesh",
    "districtCode": "S1226",
    "districtName": "SEONI",
    "acNumber": 114,
    "acName": "BARGHAT",
    "partNumber": 7,
    "partName": "BELPETH",
    "lat": 22.0288467,
    "lon": 79.7438467143195
  },
  {
    "partId": 65473,
    "stateCode": "S12",
    "stateName": "Madhya Pradesh",
    "districtCode": "S1226",
    "districtName": "SEONI",
    "acNumber": 114,
    "acName": "BARGHAT",
    "partNumber": 8,
    "partName": "GHOGHARI",
    "lat": 22.617720849999998,
    "lon": 79.75605005977462
  },
  {
    "partId": 65474,
    "stateCode": "S12",
    "stateName": "Madhya Pradesh",
    "districtCode": "S1226",
    "districtName": "SEONI",
    "acNumber": 114,
    "acName": "BARGHAT",
    "partNumber": 9,
    "partName": "GWARI",
    "lat": 22.542392999999997,
    "lon": 79.7506011194084
  },
  {
    "partId": 64837,
    "stateCode": "S12",
    "stateName": "Madhya Pradesh",
    "districtCode": "S1226",
    "districtName": "SEONI",
    "acNumber": 114,
    "acName": "BARGHAT",
    "partNumber": 10,
    "partName": "BUDDI",
    "lat": 21.917541749999998,
    "lon": 79.38486010877766
  },
  {
    "partId": 65475,
    "stateCode": "S12",
    "stateName": "Madhya Pradesh",
    "districtCode": "S1226",
    "districtName": "SEONI",
    "acNumber": 114,
    "acName": "BARGHAT",
    "partNumber": 11,
    "partName": "SAGAR",
    "lat": 22.3359116,
    "lon": 79.63998283517762
  },
  {
    "partId": 65476,
    "stateCode": "S12",
    "stateName": "Madhya Pradesh",
    "districtCode": "S1226",
    "districtName": "SEONI",
    "acNumber": 114,
    "acName": "BARGHAT",
    "partNumber": 12,
    "partName": "SAPAPAR",
    "lat": 21.9164327,
    "lon": 79.41326842452551
  },
  {
    "partId": 65477,
    "stateCode": "S12",
    "stateName": "Madhya Pradesh",
    "districtCode": "S1226",
    "districtName": "SEONI",
    "acNumber": 114,
    "acName": "BARGHAT",
    "partNumber": 13,
    "partName": "KOTKASA",
    "lat": 21.9186537,
    "lon": 79.39059690738192
  },
  {
    "partId": 65481,
    "stateCode": "S12",
    "stateName": "Madhya Pradesh",
    "districtCode": "S1226",
    "districtName": "SEONI",
    "acNumber": 114,
    "acName": "BARGHAT",
    "partNumber": 14,
    "partName": "BADALPAR",
    "lat": 21.92130935,
    "lon": 79.43627572400945
  },
  {
    "partId": 65502,
    "stateCode": "S12",
    "stateName": "Madhya Pradesh",
    "districtCode": "S1226",
    "districtName": "SEONI",
    "acNumber": 114,
    "acName": "BARGHAT",
    "partNumber": 15,
    "partName": "BADALPAR",
    "lat": 21.92130935,
    "lon": 79.43627572400945
  },
  {
    "partId": 65482,
    "stateCode": "S12",
    "stateName": "Madhya Pradesh",
    "districtCode": "S1226",
    "districtName": "SEONI",
    "acNumber": 114,
    "acName": "BARGHAT",
    "partNumber": 16,
    "partName": "DOOUNDAYER",
    "lat": 22.0288467,
    "lon": 79.7438467143195
  },
  {
    "partId": 65483,
    "stateCode": "S12",
    "stateName": "Madhya Pradesh",
    "districtCode": "S1226",
    "districtName": "SEONI",
    "acNumber": 114,
    "acName": "BARGHAT",
    "partNumber": 17,
    "partName": "DUNGARIYA",
    "lat": 22.71831195,
    "lon": 79.60464200626674
  },
  {
    "partId": 65484,
    "stateCode": "S12",
    "stateName": "Madhya Pradesh",
    "districtCode": "S1226",
    "districtName": "SEONI",
    "acNumber": 114,
    "acName": "BARGHAT",
    "partNumber": 18,
    "partName": "KHANKHARA",
    "lat": 22.0288467,
    "lon": 79.7438467143195
  },
  {
    "partId": 65485,
    "stateCode": "S12",
    "stateName": "Madhya Pradesh",
    "districtCode": "S1226",
    "districtName": "SEONI",
    "acNumber": 114,
    "acName": "BARGHAT",
    "partNumber": 19,
    "partName": "BHALIWADA",
    "lat": 22.0288467,
    "lon": 79.7438467143195
  },
  {
    "partId": 65172,
    "stateCode": "S12",
    "stateName": "Madhya Pradesh",
    "districtCode": "S1226",
    "districtName": "SEONI",
    "acNumber": 114,
    "acName": "BARGHAT",
    "partNumber": 20,
    "partName": "SILLOUR",
    "lat": 22.0288467,
    "lon": 79.7438467143195
  },
  {
    "partId": 65501,
    "stateCode": "S12",
    "stateName": "Madhya Pradesh",
    "districtCode": "S1226",
    "districtName": "SEONI",
    "acNumber": 114,
    "acName": "BARGHAT",
    "partNumber": 21,
    "partName": "SILLOUR",
    "lat": 22.0288467,
    "lon": 79.7438467143195
  },
  {
    "partId": 65486,
    "stateCode": "S12",
    "stateName": "Madhya Pradesh",
    "districtCode": "S1226",
    "districtName": "SEONI",
    "acNumber": 114,
    "acName": "BARGHAT",
    "partNumber": 22,
    "partName": "SARASDOL",
    "lat": 22.70010215,
    "lon": 79.93628800953731
  },
  {
    "partId": 65487,
    "stateCode": "S12",
    "stateName": "Madhya Pradesh",
    "districtCode": "S1226",
    "districtName": "SEONI",
    "acNumber": 114,
    "acName": "BARGHAT",
    "partNumber": 23,
    "partName": "AMGAON",
    "lat": 22.03588575,
    "lon": 79.59894087554952
  },
  {
    "partId": 65488,
    "stateCode": "S12",
    "stateName": "Madhya Pradesh",
    "districtCode": "S1226",
    "districtName": "SEONI",
    "acNumber": 114,
    "acName": "BARGHAT",
    "partNumber": 24,
    "partName": "THANVARJHODI",
    "lat": 22.0288467,
    "lon": 79.7438467143195
  },
  {
    "partId": 64843,
    "stateCode": "S12",
    "stateName": "Madhya Pradesh",
    "districtCode": "S1226",
    "districtName": "SEONI",
    "acNumber": 114,
    "acName": "BARGHAT",
    "partNumber": 25,
    "partName": "KALBODI",
    "lat": 22.0288467,
    "lon": 79.7438467143195
  },
  {
    "partId": 65489,
    "stateCode": "S12",
    "stateName": "Madhya Pradesh",
    "districtCode": "S1226",
    "districtName": "SEONI",
    "acNumber": 114,
    "acName": "BARGHAT",
    "partNumber": 26,
    "partName": "SUKTARA RAIYAT",
    "lat": 22.0288467,
    "lon": 79.7438467143195
  },
  {
    "partId": 65341,
    "stateCode": "S12",
    "stateName": "Madhya Pradesh",
    "districtCode": "S1226",
    "districtName": "SEONI",
    "acNumber": 114,
    "acName": "BARGHAT",
    "partNumber": 27,
    "partName": "GONDEGAON",
    "lat": 21.93453485,
    "lon": 79.53432730238407
  },
  {
    "partId": 65342,
    "stateCode": "S12",
    "stateName": "Madhya Pradesh",
    "districtCode": "S1226",
    "districtName": "SEONI",
    "acNumber": 114,
    "acName": "BARGHAT",
    "partNumber": 28,
    "partName": "BELGAON",
    "lat": 21.9458063,
    "lon": 79.5431329034827
  },
  {
    "partId": 65459,
    "stateCode": "S12",
    "stateName": "Madhya Pradesh",
    "districtCode": "S1226",
    "districtName": "SEONI",
    "acNumber": 114,
    "acName": "BARGHAT",
    "partNumber": 29,
    "partName": "CHHITAPAR",
    "lat": 22.643079399999998,
    "lon": 79.94344908191542
  },
  {
    "partId": 64619,
    "stateCode": "S12",
    "stateName": "Madhya Pradesh",
    "districtCode": "S1226",
    "districtName": "SEONI",
    "acNumber": 114,
    "acName": "BARGHAT",
    "partNumber": 30,
    "partName": "KHAPA",
    "lat": 22.5877194,
    "lon": 79.86296458109314
  },
  {
    "partId": 65460,
    "stateCode": "S12",
    "stateName": "Madhya Pradesh",
    "districtCode": "S1226",
    "districtName": "SEONI",
    "acNumber": 114,
    "acName": "BARGHAT",
    "partNumber": 31,
    "partName": "PARTAPUR",
    "lat": 22.8113797,
    "lon": 79.71750622659104
  },
  {
    "partId": 65016,
    "stateCode": "S12",
    "stateName": "Madhya Pradesh",
    "districtCode": "S1226",
    "districtName": "SEONI",
    "acNumber": 114,
    "acName": "BARGHAT",
    "partNumber": 32,
    "partName": "RAJOLA",
    "lat": 22.8344898,
    "lon": 79.8717485874713
  },
  {
    "partId": 64988,
    "stateCode": "S12",
    "stateName": "Madhya Pradesh",
    "districtCode": "S1226",
    "districtName": "SEONI",
    "acNumber": 114,
    "acName": "BARGHAT",
    "partNumber": 33,
    "partName": "LAVASARRA",
    "lat": 22.0288467,
    "lon": 79.7438467143195
  },
  {
    "partId": 65173,
    "stateCode": "S12",
    "stateName": "Madhya Pradesh",
    "districtCode": "S1226",
    "districtName": "SEONI",
    "acNumber": 114,
    "acName": "BARGHAT",
    "partNumber": 34,
    "partName": "BADGAON",
    "lat": 22.0288467,
    "lon": 79.7438467143195
  },
  {
    "partId": 64989,
    "stateCode": "S12",
    "stateName": "Madhya Pradesh",
    "districtCode": "S1226",
    "districtName": "SEONI",
    "acNumber": 114,
    "acName": "BARGHAT",
    "partNumber": 35,
    "partName": "BAKODI",
    "lat": 22.0288467,
    "lon": 79.7438467143195
  },
  {
    "partId": 64990,
    "stateCode": "S12",
    "stateName": "Madhya Pradesh",
    "districtCode": "S1226",
    "districtName": "SEONI",
    "acNumber": 114,
    "acName": "BARGHAT",
    "partNumber": 36,
    "partName": "BATAMA",
    "lat": 21.97310375,
    "lon": 79.59515774605558
  },
  {
    "partId": 64991,
    "stateCode": "S12",
    "stateName": "Madhya Pradesh",
    "districtCode": "S1226",
    "districtName": "SEONI",
    "acNumber": 114,
    "acName": "BARGHAT",
    "partNumber": 37,
    "partName": "TUIYAPAR",
    "lat": 21.94040505,
    "lon": 79.6280335274655
  },
  {
    "partId": 64992,
    "stateCode": "S12",
    "stateName": "Madhya Pradesh",
    "districtCode": "S1226",
    "districtName": "SEONI",
    "acNumber": 114,
    "acName": "BARGHAT",
    "partNumber": 38,
    "partName": "DUNGARIYA",
    "lat": 22.71831195,
    "lon": 79.60464200626674
  },
  {
    "partId": 64993,
    "stateCode": "S12",
    "stateName": "Madhya Pradesh",
    "districtCode": "S1226",
    "districtName": "SEONI",
    "acNumber": 114,
    "acName": "BARGHAT",
    "partNumber": 39,
    "partName": "DALAL",
    "lat": 21.964133699999998,
    "lon": 79.64913346021959
  },
  {
    "partId": 64994,
    "stateCode": "S12",
    "stateName": "Madhya Pradesh",
    "districtCode": "S1226",
    "districtName": "SEONI",
    "acNumber": 114,
    "acName": "BARGHAT",
    "partNumber": 40,
    "partName": "MUNDAPAR",
    "lat": 22.55325455,
    "lon": 79.66079050891256
  },
  {
    "partId": 64995,
    "stateCode": "S12",
    "stateName": "Madhya Pradesh",
    "districtCode": "S1226",
    "districtName": "SEONI",
    "acNumber": 114,
    "acName": "BARGHAT",
    "partNumber": 41,
    "partName": "DARASIKALA",
    "lat": 22.0288467,
    "lon": 79.7438467143195
  },
  {
    "partId": 64998,
    "stateCode": "S12",
    "stateName": "Madhya Pradesh",
    "districtCode": "S1226",
    "districtName": "SEONI",
    "acNumber": 114,
    "acName": "BARGHAT",
    "partNumber": 42,
    "partName": "DUNDASEONI",
    "lat": 22.2811694,
    "lon": 79.81839798833664
  },
  {
    "partId": 64999,
    "stateCode": "S12",
    "stateName": "Madhya Pradesh",
    "districtCode": "S1226",
    "districtName": "SEONI",
    "acNumber": 114,
    "acName": "BARGHAT",
    "partNumber": 43,
    "partName": "JHALAGONDI",
    "lat": 21.89754475,
    "lon": 79.67511809234335
  },
  {
    "partId": 64972,
    "stateCode": "S12",
    "stateName": "Madhya Pradesh",
    "districtCode": "S1226",
    "districtName": "SEONI",
    "acNumber": 114,
    "acName": "BARGHAT",
    "partNumber": 44,
    "partName": "ATARWANI",
    "lat": 22.0288467,
    "lon": 79.7438467143195
  },
  {
    "partId": 65000,
    "stateCode": "S12",
    "stateName": "Madhya Pradesh",
    "districtCode": "S1226",
    "districtName": "SEONI",
    "acNumber": 114,
    "acName": "BARGHAT",
    "partNumber": 45,
    "partName": "KHAPA",
    "lat": 22.5877194,
    "lon": 79.86296458109314
  },
  {
    "partId": 65001,
    "stateCode": "S12",
    "stateName": "Madhya Pradesh",
    "districtCode": "S1226",
    "districtName": "SEONI",
    "acNumber": 114,
    "acName": "BARGHAT",
    "partNumber": 46,
    "partName": "DARASIKHURD",
    "lat": 22.0288467,
    "lon": 79.7438467143195
  },
  {
    "partId": 65174,
    "stateCode": "S12",
    "stateName": "Madhya Pradesh",
    "districtCode": "S1226",
    "districtName": "SEONI",
    "acNumber": 114,
    "acName": "BARGHAT",
    "partNumber": 47,
    "partName": "DHOBISARRA",
    "lat": 22.114102850000002,
    "lon": 79.82077429157954
  },
  {
    "partId": 64934,
    "stateCode": "S12",
    "stateName": "Madhya Pradesh",
    "districtCode": "S1226",
    "districtName": "SEONI",
    "acNumber": 114,
    "acName": "BARGHAT",
    "partNumber": 48,
    "partName": "DHOBISARRA",
    "lat": 22.114102850000002,
    "lon": 79.82077429157954
  },
  {
    "partId": 65002,
    "stateCode": "S12",
    "stateName": "Madhya Pradesh",
    "districtCode": "S1226",
    "districtName": "SEONI",
    "acNumber": 114,
    "acName": "BARGHAT",
    "partNumber": 49,
    "partName": "SAKHADEHI",
    "lat": 21.91466845,
    "lon": 79.5969975420542
  },
  {
    "partId": 65003,
    "stateCode": "S12",
    "stateName": "Madhya Pradesh",
    "districtCode": "S1226",
    "districtName": "SEONI",
    "acNumber": 114,
    "acName": "BARGHAT",
    "partNumber": 50,
    "partName": "NAYEGAON",
    "lat": 22.79563945,
    "lon": 79.9278958314828
  },
  {
    "partId": 65004,
    "stateCode": "S12",
    "stateName": "Madhya Pradesh",
    "districtCode": "S1226",
    "districtName": "SEONI",
    "acNumber": 114,
    "acName": "BARGHAT",
    "partNumber": 51,
    "partName": "RUKHAD",
    "lat": 22.0288467,
    "lon": 79.7438467143195
  },
  {
    "partId": 65005,
    "stateCode": "S12",
    "stateName": "Madhya Pradesh",
    "districtCode": "S1226",
    "districtName": "SEONI",
    "acNumber": 114,
    "acName": "BARGHAT",
    "partNumber": 52,
    "partName": "BADJHIR",
    "lat": 22.0288467,
    "lon": 79.7438467143195
  },
  {
    "partId": 65006,
    "stateCode": "S12",
    "stateName": "Madhya Pradesh",
    "districtCode": "S1226",
    "districtName": "SEONI",
    "acNumber": 114,
    "acName": "BARGHAT",
    "partNumber": 53,
    "partName": "MOHGAON SADAK",
    "lat": 22.0288467,
    "lon": 79.7438467143195
  },
  {
    "partId": 65468,
    "stateCode": "S12",
    "stateName": "Madhya Pradesh",
    "districtCode": "S1226",
    "districtName": "SEONI",
    "acNumber": 114,
    "acName": "BARGHAT",
    "partNumber": 54,
    "partName": "KARHAIYA",
    "lat": 22.7741631,
    "lon": 80.02355067819246
  },
  {
    "partId": 65469,
    "stateCode": "S12",
    "stateName": "Madhya Pradesh",
    "districtCode": "S1226",
    "districtName": "SEONI",
    "acNumber": 114,
    "acName": "BARGHAT",
    "partNumber": 55,
    "partName": "AIRAMA",
    "lat": 22.0288467,
    "lon": 79.7438467143195
  },
  {
    "partId": 64933,
    "stateCode": "S12",
    "stateName": "Madhya Pradesh",
    "districtCode": "S1226",
    "districtName": "SEONI",
    "acNumber": 114,
    "acName": "BARGHAT",
    "partNumber": 56,
    "partName": "AALESUR",
    "lat": 22.0288467,
    "lon": 79.7438467143195
  },
  {
    "partId": 65470,
    "stateCode": "S12",
    "stateName": "Madhya Pradesh",
    "districtCode": "S1226",
    "districtName": "SEONI",
    "acNumber": 114,
    "acName": "BARGHAT",
    "partNumber": 57,
    "partName": "MOHGAON TITARI",
    "lat": 22.0288467,
    "lon": 79.7438467143195
  },
  {
    "partId": 65471,
    "stateCode": "S12",
    "stateName": "Madhya Pradesh",
    "districtCode": "S1226",
    "districtName": "SEONI",
    "acNumber": 114,
    "acName": "BARGHAT",
    "partNumber": 58,
    "partName": "DARGADA",
    "lat": 22.9309887,
    "lon": 79.6347682
  },
  {
    "partId": 65472,
    "stateCode": "S12",
    "stateName": "Madhya Pradesh",
    "districtCode": "S1226",
    "districtName": "SEONI",
    "acNumber": 114,
    "acName": "BARGHAT",
    "partNumber": 59,
    "partName": "PATARAI",
    "lat": 22.0288467,
    "lon": 79.7438467143195
  },
  {
    "partId": 64913,
    "stateCode": "S12",
    "stateName": "Madhya Pradesh",
    "districtCode": "S1226",
    "districtName": "SEONI",
    "acNumber": 114,
    "acName": "BARGHAT",
    "partNumber": 60,
    "partName": "DHUTERA",
    "lat": 22.2624993,
    "lon": 79.89003202657258
  },
  {
    "partId": 64914,
    "stateCode": "S12",
    "stateName": "Madhya Pradesh",
    "districtCode": "S1226",
    "districtName": "SEONI",
    "acNumber": 114,
    "acName": "BARGHAT",
    "partNumber": 61,
    "partName": "GHAT KOHKA",
    "lat": 21.8784588,
    "lon": 79.4032498
  },
  {
    "partId": 64932,
    "stateCode": "S12",
    "stateName": "Madhya Pradesh",
    "districtCode": "S1226",
    "districtName": "SEONI",
    "acNumber": 114,
    "acName": "BARGHAT",
    "partNumber": 62,
    "partName": "GHAT KOHKA",
    "lat": 21.8784588,
    "lon": 79.4032498
  },
  {
    "partId": 64915,
    "stateCode": "S12",
    "stateName": "Madhya Pradesh",
    "districtCode": "S1226",
    "districtName": "SEONI",
    "acNumber": 114,
    "acName": "BARGHAT",
    "partNumber": 63,
    "partName": "SARRAHIRRI",
    "lat": 21.8763547,
    "lon": 79.37723039353506
  },
  {
    "partId": 64916,
    "stateCode": "S12",
    "stateName": "Madhya Pradesh",
    "districtCode": "S1226",
    "districtName": "SEONI",
    "acNumber": 114,
    "acName": "BARGHAT",
    "partNumber": 64,
    "partName": "VIJAYPANI",
    "lat": 22.0288467,
    "lon": 79.7438467143195
  },
  {
    "partId": 65010,
    "stateCode": "S12",
    "stateName": "Madhya Pradesh",
    "districtCode": "S1226",
    "districtName": "SEONI",
    "acNumber": 114,
    "acName": "BARGHAT",
    "partNumber": 65,
    "partName": "SIMARIYA",
    "lat": 22.6410014,
    "lon": 79.71637912491767
  },
  {
    "partId": 64917,
    "stateCode": "S12",
    "stateName": "Madhya Pradesh",
    "districtCode": "S1226",
    "districtName": "SEONI",
    "acNumber": 114,
    "acName": "BARGHAT",
    "partNumber": 66,
    "partName": "PARASPANI",
    "lat": 22.746605799999998,
    "lon": 79.96388800983215
  },
  {
    "partId": 64973,
    "stateCode": "S12",
    "stateName": "Madhya Pradesh",
    "districtCode": "S1226",
    "districtName": "SEONI",
    "acNumber": 114,
    "acName": "BARGHAT",
    "partNumber": 67,
    "partName": "KARMAJHIRI",
    "lat": 21.8291477,
    "lon": 79.32860610357939
  },
  {
    "partId": 64918,
    "stateCode": "S12",
    "stateName": "Madhya Pradesh",
    "districtCode": "S1226",
    "districtName": "SEONI",
    "acNumber": 114,
    "acName": "BARGHAT",
    "partNumber": 68,
    "partName": "SATOSHA",
    "lat": 22.0288467,
    "lon": 79.7438467143195
  },
  {
    "partId": 64919,
    "stateCode": "S12",
    "stateName": "Madhya Pradesh",
    "districtCode": "S1226",
    "districtName": "SEONI",
    "acNumber": 114,
    "acName": "BARGHAT",
    "partNumber": 69,
    "partName": "TURIYA",
    "lat": 21.7272661,
    "lon": 79.3795182747079
  },
  {
    "partId": 65009,
    "stateCode": "S12",
    "stateName": "Madhya Pradesh",
    "districtCode": "S1226",
    "districtName": "SEONI",
    "acNumber": 114,
    "acName": "BARGHAT",
    "partNumber": 70,
    "partName": "TURIYA",
    "lat": 21.7272661,
    "lon": 79.3795182747079
  },
  {
    "partId": 64974,
    "stateCode": "S12",
    "stateName": "Madhya Pradesh",
    "districtCode": "S1226",
    "districtName": "SEONI",
    "acNumber": 114,
    "acName": "BARGHAT",
    "partNumber": 71,
    "partName": "KOHKA",
    "lat": 22.7785592,
    "lon": 79.71505620769562
  },
  {
    "partId": 64920,
    "stateCode": "S12",
    "stateName": "Madhya Pradesh",
    "districtCode": "S1226",
    "districtName": "SEONI",
    "acNumber": 114,
    "acName": "BARGHAT",
    "partNumber": 72,
    "partName": "TELIYA",
    "lat": 21.685111749999997,
    "lon": 79.37013867467621
  },
  {
    "partId": 64921,
    "stateCode": "S12",
    "stateName": "Madhya Pradesh",
    "districtCode": "S1226",
    "districtName": "SEONI",
    "acNumber": 114,
    "acName": "BARGHAT",
    "partNumber": 73,
    "partName": "KHAWASA",
    "lat": 21.7066014,
    "lon": 79.44362899179035
  },
  {
    "partId": 64775,
    "stateCode": "S12",
    "stateName": "Madhya Pradesh",
    "districtCode": "S1226",
    "districtName": "SEONI",
    "acNumber": 114,
    "acName": "BARGHAT",
    "partNumber": 74,
    "partName": "KHAWASA",
    "lat": 21.7066014,
    "lon": 79.44362899179035
  },
  {
    "partId": 64922,
    "stateCode": "S12",
    "stateName": "Madhya Pradesh",
    "districtCode": "S1226",
    "districtName": "SEONI",
    "acNumber": 114,
    "acName": "BARGHAT",
    "partNumber": 75,
    "partName": "KHAWASA",
    "lat": 21.7066014,
    "lon": 79.44362899179035
  },
  {
    "partId": 64923,
    "stateCode": "S12",
    "stateName": "Madhya Pradesh",
    "districtCode": "S1226",
    "districtName": "SEONI",
    "acNumber": 114,
    "acName": "BARGHAT",
    "partNumber": 76,
    "partName": "AMAJHIRI",
    "lat": 22.0288467,
    "lon": 79.7438467143195
  },
  {
    "partId": 64924,
    "stateCode": "S12",
    "stateName": "Madhya Pradesh",
    "districtCode": "S1226",
    "districtName": "SEONI",
    "acNumber": 114,
    "acName": "BARGHAT",
    "partNumber": 77,
    "partName": "VIJAYPANI",
    "lat": 22.0288467,
    "lon": 79.7438467143195
  },
  {
    "partId": 64925,
    "stateCode": "S12",
    "stateName": "Madhya Pradesh",
    "districtCode": "S1226",
    "districtName": "SEONI",
    "acNumber": 114,
    "acName": "BARGHAT",
    "partNumber": 78,
    "partName": "JIREWADA",
    "lat": 22.0288467,
    "lon": 79.7438467143195
  },
  {
    "partId": 64926,
    "stateCode": "S12",
    "stateName": "Madhya Pradesh",
    "districtCode": "S1226",
    "districtName": "SEONI",
    "acNumber": 114,
    "acName": "BARGHAT",
    "partNumber": 79,
    "partName": "MOHGAON YADAV",
    "lat": 22.0288467,
    "lon": 79.7438467143195
  },
  {
    "partId": 64927,
    "stateCode": "S12",
    "stateName": "Madhya Pradesh",
    "districtCode": "S1226",
    "districtName": "SEONI",
    "acNumber": 114,
    "acName": "BARGHAT",
    "partNumber": 80,
    "partName": "POTIYA",
    "lat": 21.78026135,
    "lon": 79.44391012262264
  },
  {
    "partId": 64928,
    "stateCode": "S12",
    "stateName": "Madhya Pradesh",
    "districtCode": "S1226",
    "districtName": "SEONI",
    "acNumber": 114,
    "acName": "BARGHAT",
    "partNumber": 81,
    "partName": "PACHADHAR",
    "lat": 22.0288467,
    "lon": 79.7438467143195
  },
  {
    "partId": 64929,
    "stateCode": "S12",
    "stateName": "Madhya Pradesh",
    "districtCode": "S1226",
    "districtName": "SEONI",
    "acNumber": 114,
    "acName": "BARGHAT",
    "partNumber": 82,
    "partName": "KHANDASA",
    "lat": 21.6881736,
    "lon": 79.48268964227893
  },
  {
    "partId": 64825,
    "stateCode": "S12",
    "stateName": "Madhya Pradesh",
    "districtCode": "S1226",
    "districtName": "SEONI",
    "acNumber": 114,
    "acName": "BARGHAT",
    "partNumber": 83,
    "partName": "KHANDASA",
    "lat": 21.6881736,
    "lon": 79.48268964227893
  },
  {
    "partId": 64618,
    "stateCode": "S12",
    "stateName": "Madhya Pradesh",
    "districtCode": "S1226",
    "districtName": "SEONI",
    "acNumber": 114,
    "acName": "BARGHAT",
    "partNumber": 84,
    "partName": "BAWLI",
    "lat": 22.0288467,
    "lon": 79.7438467143195
  },
  {
    "partId": 64844,
    "stateCode": "S12",
    "stateName": "Madhya Pradesh",
    "districtCode": "S1226",
    "districtName": "SEONI",
    "acNumber": 114,
    "acName": "BARGHAT",
    "partNumber": 85,
    "partName": "SILLARI",
    "lat": 22.0288467,
    "lon": 79.7438467143195
  },
  {
    "partId": 64930,
    "stateCode": "S12",
    "stateName": "Madhya Pradesh",
    "districtCode": "S1226",
    "districtName": "SEONI",
    "acNumber": 114,
    "acName": "BARGHAT",
    "partNumber": 86,
    "partName": "PIPARAVANI",
    "lat": 22.0288467,
    "lon": 79.7438467143195
  },
  {
    "partId": 65478,
    "stateCode": "S12",
    "stateName": "Madhya Pradesh",
    "districtCode": "S1226",
    "districtName": "SEONI",
    "acNumber": 114,
    "acName": "BARGHAT",
    "partNumber": 87,
    "partName": "PIPARVANI",
    "lat": 22.0288467,
    "lon": 79.7438467143195
  },
  {
    "partId": 65479,
    "stateCode": "S12",
    "stateName": "Madhya Pradesh",
    "districtCode": "S1226",
    "districtName": "SEONI",
    "acNumber": 114,
    "acName": "BARGHAT",
    "partNumber": 88,
    "partName": "JATAMA",
    "lat": 21.641927250000002,
    "lon": 79.5642280011659
  },
  {
    "partId": 65480,
    "stateCode": "S12",
    "stateName": "Madhya Pradesh",
    "districtCode": "S1226",
    "districtName": "SEONI",
    "acNumber": 114,
    "acName": "BARGHAT",
    "partNumber": 89,
    "partName": "PARASPANI",
    "lat": 22.746605799999998,
    "lon": 79.96388800983215
  },
  {
    "partId": 64776,
    "stateCode": "S12",
    "stateName": "Madhya Pradesh",
    "districtCode": "S1226",
    "districtName": "SEONI",
    "acNumber": 114,
    "acName": "BARGHAT",
    "partNumber": 90,
    "partName": "PINDARAI",
    "lat": 22.1939511,
    "lon": 79.69680317706832
  },
  {
    "partId": 65008,
    "stateCode": "S12",
    "stateName": "Madhya Pradesh",
    "districtCode": "S1226",
    "districtName": "SEONI",
    "acNumber": 114,
    "acName": "BARGHAT",
    "partNumber": 91,
    "partName": "PINDARAI",
    "lat": 22.1939511,
    "lon": 79.69680317706832
  },
  {
    "partId": 64777,
    "stateCode": "S12",
    "stateName": "Madhya Pradesh",
    "districtCode": "S1226",
    "districtName": "SEONI",
    "acNumber": 114,
    "acName": "BARGHAT",
    "partNumber": 92,
    "partName": "PULPULA",
    "lat": 21.691029,
    "lon": 79.54568568848154
  },
  {
    "partId": 64801,
    "stateCode": "S12",
    "stateName": "Madhya Pradesh",
    "districtCode": "S1226",
    "districtName": "SEONI",
    "acNumber": 114,
    "acName": "BARGHAT",
    "partNumber": 93,
    "partName": "RAMPURI",
    "lat": 22.598086000000002,
    "lon": 79.85563352210956
  },
  {
    "partId": 64778,
    "stateCode": "S12",
    "stateName": "Madhya Pradesh",
    "districtCode": "S1226",
    "districtName": "SEONI",
    "acNumber": 114,
    "acName": "BARGHAT",
    "partNumber": 94,
    "partName": "VAHADABAD",
    "lat": 22.0288467,
    "lon": 79.7438467143195
  },
  {
    "partId": 64779,
    "stateCode": "S12",
    "stateName": "Madhya Pradesh",
    "districtCode": "S1226",
    "districtName": "SEONI",
    "acNumber": 114,
    "acName": "BARGHAT",
    "partNumber": 95,
    "partName": "CHIKHALI",
    "lat": 22.0288467,
    "lon": 79.7438467143195
  },
  {
    "partId": 64780,
    "stateCode": "S12",
    "stateName": "Madhya Pradesh",
    "districtCode": "S1226",
    "districtName": "SEONI",
    "acNumber": 114,
    "acName": "BARGHAT",
    "partNumber": 96,
    "partName": "BABAI",
    "lat": 22.111272937333332,
    "lon": 79.726108329275
  },
  {
    "partId": 64845,
    "stateCode": "S12",
    "stateName": "Madhya Pradesh",
    "districtCode": "S1226",
    "districtName": "SEONI",
    "acNumber": 114,
    "acName": "BARGHAT",
    "partNumber": 97,
    "partName": "RIDDI",
    "lat": 22.111272937333332,
    "lon": 79.726108329275
  },
  {
    "partId": 64979,
    "stateCode": "S12",
    "stateName": "Madhya Pradesh",
    "districtCode": "S1226",
    "districtName": "SEONI",
    "acNumber": 114,
    "acName": "BARGHAT",
    "partNumber": 98,
    "partName": "RIDDI",
    "lat": 22.111272937333332,
    "lon": 79.726108329275
  },
  {
    "partId": 64781,
    "stateCode": "S12",
    "stateName": "Madhya Pradesh",
    "districtCode": "S1226",
    "districtName": "SEONI",
    "acNumber": 114,
    "acName": "BARGHAT",
    "partNumber": 99,
    "partName": "RAMALI",
    "lat": 22.2748109,
    "lon": 79.72025222428486
  },
  {
    "partId": 64782,
    "stateCode": "S12",
    "stateName": "Madhya Pradesh",
    "districtCode": "S1226",
    "districtName": "SEONI",
    "acNumber": 114,
    "acName": "BARGHAT",
    "partNumber": 100,
    "partName": "KHAIRGHAT",
    "lat": 22.2748109,
    "lon": 79.72025222428486
  },
  {
    "partId": 64783,
    "stateCode": "S12",
    "stateName": "Madhya Pradesh",
    "districtCode": "S1226",
    "districtName": "SEONI",
    "acNumber": 114,
    "acName": "BARGHAT",
    "partNumber": 101,
    "partName": "SETEVANI",
    "lat": 22.0288467,
    "lon": 79.7438467143195
  },
  {
    "partId": 64935,
    "stateCode": "S12",
    "stateName": "Madhya Pradesh",
    "districtCode": "S1226",
    "districtName": "SEONI",
    "acNumber": 114,
    "acName": "BARGHAT",
    "partNumber": 102,
    "partName": "PIPARIYA",
    "lat": 22.543854449999998,
    "lon": 79.83115874549752
  },
  {
    "partId": 64936,
    "stateCode": "S12",
    "stateName": "Madhya Pradesh",
    "districtCode": "S1226",
    "districtName": "SEONI",
    "acNumber": 114,
    "acName": "BARGHAT",
    "partNumber": 103,
    "partName": "PINDAKAPAR",
    "lat": 22.0288467,
    "lon": 79.7438467143195
  },
  {
    "partId": 64978,
    "stateCode": "S12",
    "stateName": "Madhya Pradesh",
    "districtCode": "S1226",
    "districtName": "SEONI",
    "acNumber": 114,
    "acName": "BARGHAT",
    "partNumber": 104,
    "partName": "PINDAKAPAR",
    "lat": 22.0288467,
    "lon": 79.7438467143195
  },
  {
    "partId": 64937,
    "stateCode": "S12",
    "stateName": "Madhya Pradesh",
    "districtCode": "S1226",
    "districtName": "SEONI",
    "acNumber": 114,
    "acName": "BARGHAT",
    "partNumber": 105,
    "partName": "KODAJHIRI",
    "lat": 21.7990877,
    "lon": 79.48878466627471
  },
  {
    "partId": 64938,
    "stateCode": "S12",
    "stateName": "Madhya Pradesh",
    "districtCode": "S1226",
    "districtName": "SEONI",
    "acNumber": 114,
    "acName": "BARGHAT",
    "partNumber": 106,
    "partName": "KURAI",
    "lat": 21.8112973,
    "lon": 79.49739943011836
  },
  {
    "partId": 64977,
    "stateCode": "S12",
    "stateName": "Madhya Pradesh",
    "districtCode": "S1226",
    "districtName": "SEONI",
    "acNumber": 114,
    "acName": "BARGHAT",
    "partNumber": 107,
    "partName": "KURAI",
    "lat": 22.111272937333332,
    "lon": 79.726108329275
  },
  {
    "partId": 64939,
    "stateCode": "S12",
    "stateName": "Madhya Pradesh",
    "districtCode": "S1226",
    "districtName": "SEONI",
    "acNumber": 114,
    "acName": "BARGHAT",
    "partNumber": 108,
    "partName": "BICHHUA MAL",
    "lat": 22.0288467,
    "lon": 79.7438467143195
  },
  {
    "partId": 64940,
    "stateCode": "S12",
    "stateName": "Madhya Pradesh",
    "districtCode": "S1226",
    "districtName": "SEONI",
    "acNumber": 114,
    "acName": "BARGHAT",
    "partNumber": 109,
    "partName": "PINDARAI",
    "lat": 22.1939511,
    "lon": 79.69680317706832
  },
  {
    "partId": 64970,
    "stateCode": "S12",
    "stateName": "Madhya Pradesh",
    "districtCode": "S1226",
    "districtName": "SEONI",
    "acNumber": 114,
    "acName": "BARGHAT",
    "partNumber": 110,
    "partName": "KARAJMARA RAIYYAT",
    "lat": 22.0288467,
    "lon": 79.7438467143195
  },
  {
    "partId": 64971,
    "stateCode": "S12",
    "stateName": "Madhya Pradesh",
    "districtCode": "S1226",
    "districtName": "SEONI",
    "acNumber": 114,
    "acName": "BARGHAT",
    "partNumber": 111,
    "partName": "JAMRAPANI",
    "lat": 21.789718800000003,
    "lon": 79.59630934377454
  },
  {
    "partId": 64931,
    "stateCode": "S12",
    "stateName": "Madhya Pradesh",
    "districtCode": "S1226",
    "districtName": "SEONI",
    "acNumber": 114,
    "acName": "BARGHAT",
    "partNumber": 112,
    "partName": "DHANOULI",
    "lat": 22.0288467,
    "lon": 79.7438467143195
  },
  {
    "partId": 65175,
    "stateCode": "S12",
    "stateName": "Madhya Pradesh",
    "districtCode": "S1226",
    "districtName": "SEONI",
    "acNumber": 114,
    "acName": "BARGHAT",
    "partNumber": 113,
    "partName": "PATAN",
    "lat": 21.76890205,
    "lon": 79.54117988934178
  },
  {
    "partId": 65176,
    "stateCode": "S12",
    "stateName": "Madhya Pradesh",
    "districtCode": "S1226",
    "districtName": "SEONI",
    "acNumber": 114,
    "acName": "BARGHAT",
    "partNumber": 114,
    "partName": "AGARI",
    "lat": 22.0288467,
    "lon": 79.7438467143195
  },
  {
    "partId": 64975,
    "stateCode": "S12",
    "stateName": "Madhya Pradesh",
    "districtCode": "S1226",
    "districtName": "SEONI",
    "acNumber": 114,
    "acName": "BARGHAT",
    "partNumber": 115,
    "partName": "DHOBITOLA MAL",
    "lat": 22.0288467,
    "lon": 79.7438467143195
  },
  {
    "partId": 65177,
    "stateCode": "S12",
    "stateName": "Madhya Pradesh",
    "districtCode": "S1226",
    "districtName": "SEONI",
    "acNumber": 114,
    "acName": "BARGHAT",
    "partNumber": 116,
    "partName": "KUDVA",
    "lat": 22.111272937333332,
    "lon": 79.726108329275
  },
  {
    "partId": 65178,
    "stateCode": "S12",
    "stateName": "Madhya Pradesh",
    "districtCode": "S1226",
    "districtName": "SEONI",
    "acNumber": 114,
    "acName": "BARGHAT",
    "partNumber": 117,
    "partName": "BISAPUR RAIYYAT",
    "lat": 22.0288467,
    "lon": 79.7438467143195
  },
  {
    "partId": 65179,
    "stateCode": "S12",
    "stateName": "Madhya Pradesh",
    "districtCode": "S1226",
    "districtName": "SEONI",
    "acNumber": 114,
    "acName": "BARGHAT",
    "partNumber": 118,
    "partName": "SUKLA",
    "lat": 21.926992249999998,
    "lon": 79.68438280974783
  },
  {
    "partId": 65467,
    "stateCode": "S12",
    "stateName": "Madhya Pradesh",
    "districtCode": "S1226",
    "districtName": "SEONI",
    "acNumber": 114,
    "acName": "BARGHAT",
    "partNumber": 119,
    "partName": "SUKLA",
    "lat": 21.926992249999998,
    "lon": 79.68438280974783
  },
  {
    "partId": 65180,
    "stateCode": "S12",
    "stateName": "Madhya Pradesh",
    "districtCode": "S1226",
    "districtName": "SEONI",
    "acNumber": 114,
    "acName": "BARGHAT",
    "partNumber": 120,
    "partName": "ARI",
    "lat": 21.94248975,
    "lon": 79.69448568284956
  },
  {
    "partId": 65181,
    "stateCode": "S12",
    "stateName": "Madhya Pradesh",
    "districtCode": "S1226",
    "districtName": "SEONI",
    "acNumber": 114,
    "acName": "BARGHAT",
    "partNumber": 121,
    "partName": "ARI",
    "lat": 21.94248975,
    "lon": 79.69448568284956
  },
  {
    "partId": 65182,
    "stateCode": "S12",
    "stateName": "Madhya Pradesh",
    "districtCode": "S1226",
    "districtName": "SEONI",
    "acNumber": 114,
    "acName": "BARGHAT",
    "partNumber": 122,
    "partName": "ARI",
    "lat": 22.111272937333332,
    "lon": 79.726108329275
  },
  {
    "partId": 65015,
    "stateCode": "S12",
    "stateName": "Madhya Pradesh",
    "districtCode": "S1226",
    "districtName": "SEONI",
    "acNumber": 114,
    "acName": "BARGHAT",
    "partNumber": 123,
    "partName": "TILLI TOLA ARI",
    "lat": 22.0288467,
    "lon": 79.7438467143195
  },
  {
    "partId": 64804,
    "stateCode": "S12",
    "stateName": "Madhya Pradesh",
    "districtCode": "S1226",
    "districtName": "SEONI",
    "acNumber": 114,
    "acName": "BARGHAT",
    "partNumber": 124,
    "partName": "USARI",
    "lat": 22.111272937333332,
    "lon": 79.726108329275
  },
  {
    "partId": 65183,
    "stateCode": "S12",
    "stateName": "Madhya Pradesh",
    "districtCode": "S1226",
    "districtName": "SEONI",
    "acNumber": 114,
    "acName": "BARGHAT",
    "partNumber": 125,
    "partName": "KHAMRIYA",
    "lat": 22.0288467,
    "lon": 79.7438467143195
  },
  {
    "partId": 65184,
    "stateCode": "S12",
    "stateName": "Madhya Pradesh",
    "districtCode": "S1226",
    "districtName": "SEONI",
    "acNumber": 114,
    "acName": "BARGHAT",
    "partNumber": 126,
    "partName": "NAYEGAON",
    "lat": 22.79563945,
    "lon": 79.9278958314828
  },
  {
    "partId": 65185,
    "stateCode": "S12",
    "stateName": "Madhya Pradesh",
    "districtCode": "S1226",
    "districtName": "SEONI",
    "acNumber": 114,
    "acName": "BARGHAT",
    "partNumber": 127,
    "partName": "TAKHALAKHURD",
    "lat": 22.0288467,
    "lon": 79.7438467143195
  },
  {
    "partId": 65186,
    "stateCode": "S12",
    "stateName": "Madhya Pradesh",
    "districtCode": "S1226",
    "districtName": "SEONI",
    "acNumber": 114,
    "acName": "BARGHAT",
    "partNumber": 128,
    "partName": "BAVALI",
    "lat": 22.0288467,
    "lon": 79.7438467143195
  },
  {
    "partId": 65187,
    "stateCode": "S12",
    "stateName": "Madhya Pradesh",
    "districtCode": "S1226",
    "districtName": "SEONI",
    "acNumber": 114,
    "acName": "BARGHAT",
    "partNumber": 129,
    "partName": "AMAGADH",
    "lat": 22.111272937333332,
    "lon": 79.726108329275
  },
  {
    "partId": 65188,
    "stateCode": "S12",
    "stateName": "Madhya Pradesh",
    "districtCode": "S1226",
    "districtName": "SEONI",
    "acNumber": 114,
    "acName": "BARGHAT",
    "partNumber": 130,
    "partName": "TIKARI",
    "lat": 22.003340950000002,
    "lon": 79.71591369498677
  },
  {
    "partId": 64976,
    "stateCode": "S12",
    "stateName": "Madhya Pradesh",
    "districtCode": "S1226",
    "districtName": "SEONI",
    "acNumber": 114,
    "acName": "BARGHAT",
    "partNumber": 131,
    "partName": "TIKARI",
    "lat": 22.111272937333332,
    "lon": 79.726108329275
  },
  {
    "partId": 65189,
    "stateCode": "S12",
    "stateName": "Madhya Pradesh",
    "districtCode": "S1226",
    "districtName": "SEONI",
    "acNumber": 114,
    "acName": "BARGHAT",
    "partNumber": 132,
    "partName": "MEHRABODI",
    "lat": 22.0288467,
    "lon": 79.7438467143195
  },
  {
    "partId": 65190,
    "stateCode": "S12",
    "stateName": "Madhya Pradesh",
    "districtCode": "S1226",
    "districtName": "SEONI",
    "acNumber": 114,
    "acName": "BARGHAT",
    "partNumber": 133,
    "partName": "PANDHARAVANI",
    "lat": 22.111272937333332,
    "lon": 79.726108329275
  },
  {
    "partId": 65191,
    "stateCode": "S12",
    "stateName": "Madhya Pradesh",
    "districtCode": "S1226",
    "districtName": "SEONI",
    "acNumber": 114,
    "acName": "BARGHAT",
    "partNumber": 134,
    "partName": "BELGAV",
    "lat": 22.0288467,
    "lon": 79.7438467143195
  },
  {
    "partId": 65200,
    "stateCode": "S12",
    "stateName": "Madhya Pradesh",
    "districtCode": "S1226",
    "districtName": "SEONI",
    "acNumber": 114,
    "acName": "BARGHAT",
    "partNumber": 135,
    "partName": "SELUA KALAN",
    "lat": 22.0288467,
    "lon": 79.7438467143195
  },
  {
    "partId": 65192,
    "stateCode": "S12",
    "stateName": "Madhya Pradesh",
    "districtCode": "S1226",
    "districtName": "SEONI",
    "acNumber": 114,
    "acName": "BARGHAT",
    "partNumber": 136,
    "partName": "SALHEKHURD",
    "lat": 22.0288467,
    "lon": 79.7438467143195
  },
  {
    "partId": 64869,
    "stateCode": "S12",
    "stateName": "Madhya Pradesh",
    "districtCode": "S1226",
    "districtName": "SEONI",
    "acNumber": 114,
    "acName": "BARGHAT",
    "partNumber": 137,
    "partName": "SALHEKHURD",
    "lat": 22.0288467,
    "lon": 79.7438467143195
  },
  {
    "partId": 65193,
    "stateCode": "S12",
    "stateName": "Madhya Pradesh",
    "districtCode": "S1226",
    "districtName": "SEONI",
    "acNumber": 114,
    "acName": "BARGHAT",
    "partNumber": 138,
    "partName": "MOHGAON",
    "lat": 22.2748109,
    "lon": 79.72025222428486
  },
  {
    "partId": 65201,
    "stateCode": "S12",
    "stateName": "Madhya Pradesh",
    "districtCode": "S1226",
    "districtName": "SEONI",
    "acNumber": 114,
    "acName": "BARGHAT",
    "partNumber": 139,
    "partName": "KESLA",
    "lat": 22.2748109,
    "lon": 79.72025222428486
  },
  {
    "partId": 65197,
    "stateCode": "S12",
    "stateName": "Madhya Pradesh",
    "districtCode": "S1226",
    "districtName": "SEONI",
    "acNumber": 114,
    "acName": "BARGHAT",
    "partNumber": 140,
    "partName": "KESLA",
    "lat": 22.076280699999998,
    "lon": 79.67900196909122
  },
  {
    "partId": 64824,
    "stateCode": "S12",
    "stateName": "Madhya Pradesh",
    "districtCode": "S1226",
    "districtName": "SEONI",
    "acNumber": 114,
    "acName": "BARGHAT",
    "partNumber": 141,
    "partName": "KESLA",
    "lat": 22.076280699999998,
    "lon": 79.67900196909122
  },
  {
    "partId": 65202,
    "stateCode": "S12",
    "stateName": "Madhya Pradesh",
    "districtCode": "S1226",
    "districtName": "SEONI",
    "acNumber": 114,
    "acName": "BARGHAT",
    "partNumber": 142,
    "partName": "BAMHODI",
    "lat": 22.0288467,
    "lon": 79.7438467143195
  },
  {
    "partId": 64805,
    "stateCode": "S12",
    "stateName": "Madhya Pradesh",
    "districtCode": "S1226",
    "districtName": "SEONI",
    "acNumber": 114,
    "acName": "BARGHAT",
    "partNumber": 143,
    "partName": "PINDARAIKHURD",
    "lat": 22.0288467,
    "lon": 79.7438467143195
  },
  {
    "partId": 65203,
    "stateCode": "S12",
    "stateName": "Madhya Pradesh",
    "districtCode": "S1226",
    "districtName": "SEONI",
    "acNumber": 114,
    "acName": "BARGHAT",
    "partNumber": 144,
    "partName": "KHURSIPARKALA",
    "lat": 22.0288467,
    "lon": 79.7438467143195
  },
  {
    "partId": 64980,
    "stateCode": "S12",
    "stateName": "Madhya Pradesh",
    "districtCode": "S1226",
    "districtName": "SEONI",
    "acNumber": 114,
    "acName": "BARGHAT",
    "partNumber": 145,
    "partName": "KHURSIPARKALA",
    "lat": 22.0288467,
    "lon": 79.7438467143195
  },
  {
    "partId": 64802,
    "stateCode": "S12",
    "stateName": "Madhya Pradesh",
    "districtCode": "S1226",
    "districtName": "SEONI",
    "acNumber": 114,
    "acName": "BARGHAT",
    "partNumber": 146,
    "partName": "AMINGANJ",
    "lat": 22.065217750000002,
    "lon": 79.71919293823866
  },
  {
    "partId": 65204,
    "stateCode": "S12",
    "stateName": "Madhya Pradesh",
    "districtCode": "S1226",
    "districtName": "SEONI",
    "acNumber": 114,
    "acName": "BARGHAT",
    "partNumber": 147,
    "partName": "KHARRAPAT",
    "lat": 22.2748109,
    "lon": 79.72025222428486
  },
  {
    "partId": 65205,
    "stateCode": "S12",
    "stateName": "Madhya Pradesh",
    "districtCode": "S1226",
    "districtName": "SEONI",
    "acNumber": 114,
    "acName": "BARGHAT",
    "partNumber": 148,
    "partName": "SIGAPUR",
    "lat": 22.0288467,
    "lon": 79.7438467143195
  },
  {
    "partId": 64868,
    "stateCode": "S12",
    "stateName": "Madhya Pradesh",
    "districtCode": "S1226",
    "districtName": "SEONI",
    "acNumber": 114,
    "acName": "BARGHAT",
    "partNumber": 149,
    "partName": "SIGAPUR",
    "lat": 22.0288467,
    "lon": 79.7438467143195
  },
  {
    "partId": 65206,
    "stateCode": "S12",
    "stateName": "Madhya Pradesh",
    "districtCode": "S1226",
    "districtName": "SEONI",
    "acNumber": 114,
    "acName": "BARGHAT",
    "partNumber": 150,
    "partName": "BUDHAINAKALA",
    "lat": 22.0288467,
    "lon": 79.7438467143195
  },
  {
    "partId": 65207,
    "stateCode": "S12",
    "stateName": "Madhya Pradesh",
    "districtCode": "S1226",
    "districtName": "SEONI",
    "acNumber": 114,
    "acName": "BARGHAT",
    "partNumber": 151,
    "partName": "KHARI",
    "lat": 22.0655459,
    "lon": 79.73914480978547
  },
  {
    "partId": 64867,
    "stateCode": "S12",
    "stateName": "Madhya Pradesh",
    "districtCode": "S1226",
    "districtName": "SEONI",
    "acNumber": 114,
    "acName": "BARGHAT",
    "partNumber": 152,
    "partName": "KHARI",
    "lat": 22.0655459,
    "lon": 79.73914480978547
  },
  {
    "partId": 65208,
    "stateCode": "S12",
    "stateName": "Madhya Pradesh",
    "districtCode": "S1226",
    "districtName": "SEONI",
    "acNumber": 114,
    "acName": "BARGHAT",
    "partNumber": 153,
    "partName": "NAGJHIR",
    "lat": 22.14460615,
    "lon": 79.54156986350208
  },
  {
    "partId": 64866,
    "stateCode": "S12",
    "stateName": "Madhya Pradesh",
    "districtCode": "S1226",
    "districtName": "SEONI",
    "acNumber": 114,
    "acName": "BARGHAT",
    "partNumber": 154,
    "partName": "NAGJHIR",
    "lat": 22.14460615,
    "lon": 79.54156986350208
  },
  {
    "partId": 64803,
    "stateCode": "S12",
    "stateName": "Madhya Pradesh",
    "districtCode": "S1226",
    "districtName": "SEONI",
    "acNumber": 114,
    "acName": "BARGHAT",
    "partNumber": 155,
    "partName": "PINDARAIKALA",
    "lat": 22.0288467,
    "lon": 79.7438467143195
  },
  {
    "partId": 64865,
    "stateCode": "S12",
    "stateName": "Madhya Pradesh",
    "districtCode": "S1226",
    "districtName": "SEONI",
    "acNumber": 114,
    "acName": "BARGHAT",
    "partNumber": 156,
    "partName": "PINDARAIKALA",
    "lat": 22.0288467,
    "lon": 79.7438467143195
  },
  {
    "partId": 65209,
    "stateCode": "S12",
    "stateName": "Madhya Pradesh",
    "districtCode": "S1226",
    "districtName": "SEONI",
    "acNumber": 114,
    "acName": "BARGHAT",
    "partNumber": 157,
    "partName": "GUDAMA",
    "lat": 22.0288467,
    "lon": 79.7438467143195
  },
  {
    "partId": 65210,
    "stateCode": "S12",
    "stateName": "Madhya Pradesh",
    "districtCode": "S1226",
    "districtName": "SEONI",
    "acNumber": 114,
    "acName": "BARGHAT",
    "partNumber": 158,
    "partName": "JAMUNTOLA GUDMA",
    "lat": 22.0288467,
    "lon": 79.7438467143195
  },
  {
    "partId": 65211,
    "stateCode": "S12",
    "stateName": "Madhya Pradesh",
    "districtCode": "S1226",
    "districtName": "SEONI",
    "acNumber": 114,
    "acName": "BARGHAT",
    "partNumber": 159,
    "partName": "MALARA",
    "lat": 22.3928316,
    "lon": 79.88626987408011
  },
  {
    "partId": 65320,
    "stateCode": "S12",
    "stateName": "Madhya Pradesh",
    "districtCode": "S1226",
    "districtName": "SEONI",
    "acNumber": 114,
    "acName": "BARGHAT",
    "partNumber": 160,
    "partName": "KATANG TOLA MALARA",
    "lat": 22.0288467,
    "lon": 79.7438467143195
  },
  {
    "partId": 65321,
    "stateCode": "S12",
    "stateName": "Madhya Pradesh",
    "districtCode": "S1226",
    "districtName": "SEONI",
    "acNumber": 114,
    "acName": "BARGHAT",
    "partNumber": 161,
    "partName": "LABHAN TOLA MALARA",
    "lat": 22.0288467,
    "lon": 79.7438467143195
  },
  {
    "partId": 65322,
    "stateCode": "S12",
    "stateName": "Madhya Pradesh",
    "districtCode": "S1226",
    "districtName": "SEONI",
    "acNumber": 114,
    "acName": "BARGHAT",
    "partNumber": 162,
    "partName": "CHAMMUTOLA MALARA",
    "lat": 22.0288467,
    "lon": 79.7438467143195
  },
  {
    "partId": 65323,
    "stateCode": "S12",
    "stateName": "Madhya Pradesh",
    "districtCode": "S1226",
    "districtName": "SEONI",
    "acNumber": 114,
    "acName": "BARGHAT",
    "partNumber": 163,
    "partName": "CHIMNAKHARI",
    "lat": 22.125776950000002,
    "lon": 79.7915099248525
  },
  {
    "partId": 64849,
    "stateCode": "S12",
    "stateName": "Madhya Pradesh",
    "districtCode": "S1226",
    "districtName": "SEONI",
    "acNumber": 114,
    "acName": "BARGHAT",
    "partNumber": 164,
    "partName": "CHIMNAKHARI",
    "lat": 22.125776950000002,
    "lon": 79.7915099248525
  },
  {
    "partId": 65324,
    "stateCode": "S12",
    "stateName": "Madhya Pradesh",
    "districtCode": "S1226",
    "districtName": "SEONI",
    "acNumber": 114,
    "acName": "BARGHAT",
    "partNumber": 165,
    "partName": "PAKHARA",
    "lat": 22.12783665,
    "lon": 79.77281167312206
  },
  {
    "partId": 65196,
    "stateCode": "S12",
    "stateName": "Madhya Pradesh",
    "districtCode": "S1226",
    "districtName": "SEONI",
    "acNumber": 114,
    "acName": "BARGHAT",
    "partNumber": 166,
    "partName": "PAKHARA",
    "lat": 22.12783665,
    "lon": 79.77281167312206
  },
  {
    "partId": 65325,
    "stateCode": "S12",
    "stateName": "Madhya Pradesh",
    "districtCode": "S1226",
    "districtName": "SEONI",
    "acNumber": 114,
    "acName": "BARGHAT",
    "partNumber": 167,
    "partName": "VIJAYPANIKALA",
    "lat": 22.0288467,
    "lon": 79.7438467143195
  },
  {
    "partId": 64848,
    "stateCode": "S12",
    "stateName": "Madhya Pradesh",
    "districtCode": "S1226",
    "districtName": "SEONI",
    "acNumber": 114,
    "acName": "BARGHAT",
    "partNumber": 168,
    "partName": "VIJAYPANIKALA",
    "lat": 22.0288467,
    "lon": 79.7438467143195
  },
  {
    "partId": 64806,
    "stateCode": "S12",
    "stateName": "Madhya Pradesh",
    "districtCode": "S1226",
    "districtName": "SEONI",
    "acNumber": 114,
    "acName": "BARGHAT",
    "partNumber": 169,
    "partName": "MUAR",
    "lat": 22.1502542,
    "lon": 79.78833265375043
  },
  {
    "partId": 65326,
    "stateCode": "S12",
    "stateName": "Madhya Pradesh",
    "districtCode": "S1226",
    "districtName": "SEONI",
    "acNumber": 114,
    "acName": "BARGHAT",
    "partNumber": 170,
    "partName": "TETMA",
    "lat": 22.14831485,
    "lon": 79.8067933032161
  },
  {
    "partId": 65327,
    "stateCode": "S12",
    "stateName": "Madhya Pradesh",
    "districtCode": "S1226",
    "districtName": "SEONI",
    "acNumber": 114,
    "acName": "BARGHAT",
    "partNumber": 171,
    "partName": "SILAGHAT",
    "lat": 22.0288467,
    "lon": 79.7438467143195
  },
  {
    "partId": 65328,
    "stateCode": "S12",
    "stateName": "Madhya Pradesh",
    "districtCode": "S1226",
    "districtName": "SEONI",
    "acNumber": 114,
    "acName": "BARGHAT",
    "partNumber": 172,
    "partName": "TAKHALAKHURD",
    "lat": 22.0288467,
    "lon": 79.7438467143195
  },
  {
    "partId": 64847,
    "stateCode": "S12",
    "stateName": "Madhya Pradesh",
    "districtCode": "S1226",
    "districtName": "SEONI",
    "acNumber": 114,
    "acName": "BARGHAT",
    "partNumber": 173,
    "partName": "TAKHALAKHURD",
    "lat": 22.0288467,
    "lon": 79.7438467143195
  },
  {
    "partId": 65329,
    "stateCode": "S12",
    "stateName": "Madhya Pradesh",
    "districtCode": "S1226",
    "districtName": "SEONI",
    "acNumber": 114,
    "acName": "BARGHAT",
    "partNumber": 174,
    "partName": "DHOBISARRA",
    "lat": 22.114102850000002,
    "lon": 79.82077429157954
  },
  {
    "partId": 65330,
    "stateCode": "S12",
    "stateName": "Madhya Pradesh",
    "districtCode": "S1226",
    "districtName": "SEONI",
    "acNumber": 114,
    "acName": "BARGHAT",
    "partNumber": 175,
    "partName": "JANAMKHARI",
    "lat": 22.09918025,
    "lon": 79.82073648237213
  },
  {
    "partId": 65340,
    "stateCode": "S12",
    "stateName": "Madhya Pradesh",
    "districtCode": "S1226",
    "districtName": "SEONI",
    "acNumber": 114,
    "acName": "BARGHAT",
    "partNumber": 176,
    "partName": "PADHARAVANI",
    "lat": 22.0288467,
    "lon": 79.7438467143195
  },
  {
    "partId": 65007,
    "stateCode": "S12",
    "stateName": "Madhya Pradesh",
    "districtCode": "S1226",
    "districtName": "SEONI",
    "acNumber": 114,
    "acName": "BARGHAT",
    "partNumber": 177,
    "partName": "PANDHARAPANI",
    "lat": 22.0288467,
    "lon": 79.7438467143195
  },
  {
    "partId": 65461,
    "stateCode": "S12",
    "stateName": "Madhya Pradesh",
    "districtCode": "S1226",
    "districtName": "SEONI",
    "acNumber": 114,
    "acName": "BARGHAT",
    "partNumber": 178,
    "partName": "BEHRAI",
    "lat": 22.0134796,
    "lon": 79.89459062420009
  },
  {
    "partId": 65462,
    "stateCode": "S12",
    "stateName": "Madhya Pradesh",
    "districtCode": "S1226",
    "districtName": "SEONI",
    "acNumber": 114,
    "acName": "BARGHAT",
    "partNumber": 179,
    "partName": "ULAT",
    "lat": 22.0453259,
    "lon": 79.86089418960373
  },
  {
    "partId": 65463,
    "stateCode": "S12",
    "stateName": "Madhya Pradesh",
    "districtCode": "S1226",
    "districtName": "SEONI",
    "acNumber": 114,
    "acName": "BARGHAT",
    "partNumber": 180,
    "partName": "GANGAPUR",
    "lat": 22.0288467,
    "lon": 79.7438467143195
  },
  {
    "partId": 65199,
    "stateCode": "S12",
    "stateName": "Madhya Pradesh",
    "districtCode": "S1226",
    "districtName": "SEONI",
    "acNumber": 114,
    "acName": "BARGHAT",
    "partNumber": 181,
    "partName": "KOUDIYA",
    "lat": 22.0288467,
    "lon": 79.7438467143195
  },
  {
    "partId": 64807,
    "stateCode": "S12",
    "stateName": "Madhya Pradesh",
    "districtCode": "S1226",
    "districtName": "SEONI",
    "acNumber": 114,
    "acName": "BARGHAT",
    "partNumber": 182,
    "partName": "LALPUR",
    "lat": 22.67029235,
    "lon": 79.82542942247616
  },
  {
    "partId": 64846,
    "stateCode": "S12",
    "stateName": "Madhya Pradesh",
    "districtCode": "S1226",
    "districtName": "SEONI",
    "acNumber": 114,
    "acName": "BARGHAT",
    "partNumber": 183,
    "partName": "LALPUR",
    "lat": 22.67029235,
    "lon": 79.82542942247616
  },
  {
    "partId": 65464,
    "stateCode": "S12",
    "stateName": "Madhya Pradesh",
    "districtCode": "S1226",
    "districtName": "SEONI",
    "acNumber": 114,
    "acName": "BARGHAT",
    "partNumber": 184,
    "partName": "ATARI",
    "lat": 22.0763946,
    "lon": 79.82587055240688
  },
  {
    "partId": 64595,
    "stateCode": "S12",
    "stateName": "Madhya Pradesh",
    "districtCode": "S1226",
    "districtName": "SEONI",
    "acNumber": 114,
    "acName": "BARGHAT",
    "partNumber": 185,
    "partName": "ATARI",
    "lat": 22.0763946,
    "lon": 79.82587055240688
  },
  {
    "partId": 64840,
    "stateCode": "S12",
    "stateName": "Madhya Pradesh",
    "districtCode": "S1226",
    "districtName": "SEONI",
    "acNumber": 114,
    "acName": "BARGHAT",
    "partNumber": 186,
    "partName": "GORAKHPUR",
    "lat": 22.5665578,
    "lon": 79.7363263737633
  },
  {
    "partId": 65490,
    "stateCode": "S12",
    "stateName": "Madhya Pradesh",
    "districtCode": "S1226",
    "districtName": "SEONI",
    "acNumber": 114,
    "acName": "BARGHAT",
    "partNumber": 187,
    "partName": "SAREKHAKALA",
    "lat": 22.0288467,
    "lon": 79.7438467143195
  },
  {
    "partId": 65491,
    "stateCode": "S12",
    "stateName": "Madhya Pradesh",
    "districtCode": "S1226",
    "districtName": "SEONI",
    "acNumber": 114,
    "acName": "BARGHAT",
    "partNumber": 188,
    "partName": "KHAMI",
    "lat": 22.07182765,
    "lon": 79.79976561385845
  },
  {
    "partId": 65492,
    "stateCode": "S12",
    "stateName": "Madhya Pradesh",
    "districtCode": "S1226",
    "districtName": "SEONI",
    "acNumber": 114,
    "acName": "BARGHAT",
    "partNumber": 189,
    "partName": "CHHAPARA",
    "lat": 22.05944605,
    "lon": 79.81441815661606
  },
  {
    "partId": 65493,
    "stateCode": "S12",
    "stateName": "Madhya Pradesh",
    "districtCode": "S1226",
    "districtName": "SEONI",
    "acNumber": 114,
    "acName": "BARGHAT",
    "partNumber": 190,
    "partName": "DHARNA KHURD",
    "lat": 22.042556349999998,
    "lon": 79.8199995244617
  },
  {
    "partId": 65494,
    "stateCode": "S12",
    "stateName": "Madhya Pradesh",
    "districtCode": "S1226",
    "districtName": "SEONI",
    "acNumber": 114,
    "acName": "BARGHAT",
    "partNumber": 191,
    "partName": "PONAR KHURD",
    "lat": 22.0288467,
    "lon": 79.7438467143195
  },
  {
    "partId": 65495,
    "stateCode": "S12",
    "stateName": "Madhya Pradesh",
    "districtCode": "S1226",
    "districtName": "SEONI",
    "acNumber": 114,
    "acName": "BARGHAT",
    "partNumber": 192,
    "partName": "MOHGAON",
    "lat": 22.562097100000003,
    "lon": 79.83032387571748
  },
  {
    "partId": 64850,
    "stateCode": "S12",
    "stateName": "Madhya Pradesh",
    "districtCode": "S1226",
    "districtName": "SEONI",
    "acNumber": 114,
    "acName": "BARGHAT",
    "partNumber": 193,
    "partName": "JAVARKATHI",
    "lat": 22.0288467,
    "lon": 79.7438467143195
  },
  {
    "partId": 64594,
    "stateCode": "S12",
    "stateName": "Madhya Pradesh",
    "districtCode": "S1226",
    "districtName": "SEONI",
    "acNumber": 114,
    "acName": "BARGHAT",
    "partNumber": 194,
    "partName": "JAVARKATHI",
    "lat": 22.0288467,
    "lon": 79.7438467143195
  },
  {
    "partId": 64851,
    "stateCode": "S12",
    "stateName": "Madhya Pradesh",
    "districtCode": "S1226",
    "districtName": "SEONI",
    "acNumber": 114,
    "acName": "BARGHAT",
    "partNumber": 195,
    "partName": "KOSMI",
    "lat": 22.2748109,
    "lon": 79.72025222428486
  },
  {
    "partId": 64593,
    "stateCode": "S12",
    "stateName": "Madhya Pradesh",
    "districtCode": "S1226",
    "districtName": "SEONI",
    "acNumber": 114,
    "acName": "BARGHAT",
    "partNumber": 196,
    "partName": "KOSMI",
    "lat": 22.0496105,
    "lon": 79.73381165262302
  },
  {
    "partId": 64852,
    "stateCode": "S12",
    "stateName": "Madhya Pradesh",
    "districtCode": "S1226",
    "districtName": "SEONI",
    "acNumber": 114,
    "acName": "BARGHAT",
    "partNumber": 197,
    "partName": "SALHE",
    "lat": 22.2748109,
    "lon": 79.72025222428486
  },
  {
    "partId": 64592,
    "stateCode": "S12",
    "stateName": "Madhya Pradesh",
    "districtCode": "S1226",
    "districtName": "SEONI",
    "acNumber": 114,
    "acName": "BARGHAT",
    "partNumber": 198,
    "partName": "SALHE",
    "lat": 22.05339225,
    "lon": 79.71459221527164
  },
  {
    "partId": 64808,
    "stateCode": "S12",
    "stateName": "Madhya Pradesh",
    "districtCode": "S1226",
    "districtName": "SEONI",
    "acNumber": 114,
    "acName": "BARGHAT",
    "partNumber": 199,
    "partName": "BORIKALA",
    "lat": 22.0288467,
    "lon": 79.7438467143195
  },
  {
    "partId": 64591,
    "stateCode": "S12",
    "stateName": "Madhya Pradesh",
    "districtCode": "S1226",
    "districtName": "SEONI",
    "acNumber": 114,
    "acName": "BARGHAT",
    "partNumber": 200,
    "partName": "BORIKALA",
    "lat": 22.0288467,
    "lon": 79.7438467143195
  },
  {
    "partId": 64853,
    "stateCode": "S12",
    "stateName": "Madhya Pradesh",
    "districtCode": "S1226",
    "districtName": "SEONI",
    "acNumber": 114,
    "acName": "BARGHAT",
    "partNumber": 201,
    "partName": "BORIKALA",
    "lat": 22.0288467,
    "lon": 79.7438467143195
  },
  {
    "partId": 64590,
    "stateCode": "S12",
    "stateName": "Madhya Pradesh",
    "districtCode": "S1226",
    "districtName": "SEONI",
    "acNumber": 114,
    "acName": "BARGHAT",
    "partNumber": 202,
    "partName": "BORIKALA",
    "lat": 22.0288467,
    "lon": 79.7438467143195
  },
  {
    "partId": 64854,
    "stateCode": "S12",
    "stateName": "Madhya Pradesh",
    "districtCode": "S1226",
    "districtName": "SEONI",
    "acNumber": 114,
    "acName": "BARGHAT",
    "partNumber": 203,
    "partName": "BUDHAINAKHURD",
    "lat": 22.0288467,
    "lon": 79.7438467143195
  },
  {
    "partId": 64855,
    "stateCode": "S12",
    "stateName": "Madhya Pradesh",
    "districtCode": "S1226",
    "districtName": "SEONI",
    "acNumber": 114,
    "acName": "BARGHAT",
    "partNumber": 204,
    "partName": "KHURSIPARKHURD",
    "lat": 22.0288467,
    "lon": 79.7438467143195
  },
  {
    "partId": 64856,
    "stateCode": "S12",
    "stateName": "Madhya Pradesh",
    "districtCode": "S1226",
    "districtName": "SEONI",
    "acNumber": 114,
    "acName": "BARGHAT",
    "partNumber": 205,
    "partName": "MANEGAONKHURD",
    "lat": 22.0288467,
    "lon": 79.7438467143195
  },
  {
    "partId": 64857,
    "stateCode": "S12",
    "stateName": "Madhya Pradesh",
    "districtCode": "S1226",
    "districtName": "SEONI",
    "acNumber": 114,
    "acName": "BARGHAT",
    "partNumber": 206,
    "partName": "KUDOPAR",
    "lat": 22.0288467,
    "lon": 79.7438467143195
  },
  {
    "partId": 64858,
    "stateCode": "S12",
    "stateName": "Madhya Pradesh",
    "districtCode": "S1226",
    "districtName": "SEONI",
    "acNumber": 114,
    "acName": "BARGHAT",
    "partNumber": 207,
    "partName": "POUNIYA",
    "lat": 22.0288467,
    "lon": 79.7438467143195
  },
  {
    "partId": 64838,
    "stateCode": "S12",
    "stateName": "Madhya Pradesh",
    "districtCode": "S1226",
    "districtName": "SEONI",
    "acNumber": 114,
    "acName": "BARGHAT",
    "partNumber": 208,
    "partName": "POUNIYA",
    "lat": 22.0288467,
    "lon": 79.7438467143195
  },
  {
    "partId": 64859,
    "stateCode": "S12",
    "stateName": "Madhya Pradesh",
    "districtCode": "S1226",
    "districtName": "SEONI",
    "acNumber": 114,
    "acName": "BARGHAT",
    "partNumber": 209,
    "partName": "BHIMPATHA",
    "lat": 22.006005899999998,
    "lon": 79.68180144922374
  },
  {
    "partId": 64860,
    "stateCode": "S12",
    "stateName": "Madhya Pradesh",
    "districtCode": "S1226",
    "districtName": "SEONI",
    "acNumber": 114,
    "acName": "BARGHAT",
    "partNumber": 210,
    "partName": "LOHARA",
    "lat": 22.0288467,
    "lon": 79.7438467143195
  },
  {
    "partId": 64861,
    "stateCode": "S12",
    "stateName": "Madhya Pradesh",
    "districtCode": "S1226",
    "districtName": "SEONI",
    "acNumber": 114,
    "acName": "BARGHAT",
    "partNumber": 211,
    "partName": "KHUNT",
    "lat": 22.034929750000003,
    "lon": 79.7086518685584
  },
  {
    "partId": 64823,
    "stateCode": "S12",
    "stateName": "Madhya Pradesh",
    "districtCode": "S1226",
    "districtName": "SEONI",
    "acNumber": 114,
    "acName": "BARGHAT",
    "partNumber": 212,
    "partName": "KHUNT",
    "lat": 22.034929750000003,
    "lon": 79.7086518685584
  },
  {
    "partId": 64841,
    "stateCode": "S12",
    "stateName": "Madhya Pradesh",
    "districtCode": "S1226",
    "districtName": "SEONI",
    "acNumber": 114,
    "acName": "BARGHAT",
    "partNumber": 213,
    "partName": "MUNDAPAR",
    "lat": 22.55325455,
    "lon": 79.66079050891256
  },
  {
    "partId": 64996,
    "stateCode": "S12",
    "stateName": "Madhya Pradesh",
    "districtCode": "S1226",
    "districtName": "SEONI",
    "acNumber": 114,
    "acName": "BARGHAT",
    "partNumber": 214,
    "partName": "BARGHAT",
    "lat": 22.0288467,
    "lon": 79.7438467143195
  },
  {
    "partId": 64589,
    "stateCode": "S12",
    "stateName": "Madhya Pradesh",
    "districtCode": "S1226",
    "districtName": "SEONI",
    "acNumber": 114,
    "acName": "BARGHAT",
    "partNumber": 215,
    "partName": "BARGHAT",
    "lat": 22.0288467,
    "lon": 79.7438467143195
  },
  {
    "partId": 64862,
    "stateCode": "S12",
    "stateName": "Madhya Pradesh",
    "districtCode": "S1226",
    "districtName": "SEONI",
    "acNumber": 114,
    "acName": "BARGHAT",
    "partNumber": 216,
    "partName": "BARGHAT",
    "lat": 22.0288467,
    "lon": 79.7438467143195
  },
  {
    "partId": 65014,
    "stateCode": "S12",
    "stateName": "Madhya Pradesh",
    "districtCode": "S1226",
    "districtName": "SEONI",
    "acNumber": 114,
    "acName": "BARGHAT",
    "partNumber": 217,
    "partName": "BARGHAT",
    "lat": 22.0288467,
    "lon": 79.7438467143195
  },
  {
    "partId": 64822,
    "stateCode": "S12",
    "stateName": "Madhya Pradesh",
    "districtCode": "S1226",
    "districtName": "SEONI",
    "acNumber": 114,
    "acName": "BARGHAT",
    "partNumber": 218,
    "partName": "BARGHAT",
    "lat": 22.0288467,
    "lon": 79.7438467143195
  },
  {
    "partId": 64863,
    "stateCode": "S12",
    "stateName": "Madhya Pradesh",
    "districtCode": "S1226",
    "districtName": "SEONI",
    "acNumber": 114,
    "acName": "BARGHAT",
    "partNumber": 219,
    "partName": "BARGHAT",
    "lat": 22.0288467,
    "lon": 79.7438467143195
  },
  {
    "partId": 64588,
    "stateCode": "S12",
    "stateName": "Madhya Pradesh",
    "districtCode": "S1226",
    "districtName": "SEONI",
    "acNumber": 114,
    "acName": "BARGHAT",
    "partNumber": 220,
    "partName": "BARGHAT",
    "lat": 22.0288467,
    "lon": 79.7438467143195
  },
  {
    "partId": 64864,
    "stateCode": "S12",
    "stateName": "Madhya Pradesh",
    "districtCode": "S1226",
    "districtName": "SEONI",
    "acNumber": 114,
    "acName": "BARGHAT",
    "partNumber": 221,
    "partName": "BARGHAT",
    "lat": 22.0288467,
    "lon": 79.7438467143195
  },
  {
    "partId": 64587,
    "stateCode": "S12",
    "stateName": "Madhya Pradesh",
    "districtCode": "S1226",
    "districtName": "SEONI",
    "acNumber": 114,
    "acName": "BARGHAT",
    "partNumber": 222,
    "partName": "BARGHAT",
    "lat": 22.0288467,
    "lon": 79.7438467143195
  },
  {
    "partId": 64810,
    "stateCode": "S12",
    "stateName": "Madhya Pradesh",
    "districtCode": "S1226",
    "districtName": "SEONI",
    "acNumber": 114,
    "acName": "BARGHAT",
    "partNumber": 223,
    "partName": "BARGHAT",
    "lat": 22.0288467,
    "lon": 79.7438467143195
  },
  {
    "partId": 64586,
    "stateCode": "S12",
    "stateName": "Madhya Pradesh",
    "districtCode": "S1226",
    "districtName": "SEONI",
    "acNumber": 114,
    "acName": "BARGHAT",
    "partNumber": 224,
    "partName": "BARGHAT",
    "lat": 22.0288467,
    "lon": 79.7438467143195
  },
  {
    "partId": 64811,
    "stateCode": "S12",
    "stateName": "Madhya Pradesh",
    "districtCode": "S1226",
    "districtName": "SEONI",
    "acNumber": 114,
    "acName": "BARGHAT",
    "partNumber": 225,
    "partName": "JEVNARA",
    "lat": 22.27344625,
    "lon": 79.66369908513386
  },
  {
    "partId": 64821,
    "stateCode": "S12",
    "stateName": "Madhya Pradesh",
    "districtCode": "S1226",
    "districtName": "SEONI",
    "acNumber": 114,
    "acName": "BARGHAT",
    "partNumber": 226,
    "partName": "JEVNARA",
    "lat": 22.27344625,
    "lon": 79.66369908513386
  },
  {
    "partId": 64812,
    "stateCode": "S12",
    "stateName": "Madhya Pradesh",
    "districtCode": "S1226",
    "districtName": "SEONI",
    "acNumber": 114,
    "acName": "BARGHAT",
    "partNumber": 227,
    "partName": "MANDI",
    "lat": 22.0202678,
    "lon": 79.77320703596257
  },
  {
    "partId": 65013,
    "stateCode": "S12",
    "stateName": "Madhya Pradesh",
    "districtCode": "S1226",
    "districtName": "SEONI",
    "acNumber": 114,
    "acName": "BARGHAT",
    "partNumber": 228,
    "partName": "MANDI",
    "lat": 22.0202678,
    "lon": 79.77320703596257
  },
  {
    "partId": 64813,
    "stateCode": "S12",
    "stateName": "Madhya Pradesh",
    "districtCode": "S1226",
    "districtName": "SEONI",
    "acNumber": 114,
    "acName": "BARGHAT",
    "partNumber": 229,
    "partName": "POUNARKALA",
    "lat": 22.0288467,
    "lon": 79.7438467143195
  },
  {
    "partId": 64814,
    "stateCode": "S12",
    "stateName": "Madhya Pradesh",
    "districtCode": "S1226",
    "districtName": "SEONI",
    "acNumber": 114,
    "acName": "BARGHAT",
    "partNumber": 230,
    "partName": "DHARNAKALA",
    "lat": 22.0288467,
    "lon": 79.7438467143195
  },
  {
    "partId": 64815,
    "stateCode": "S12",
    "stateName": "Madhya Pradesh",
    "districtCode": "S1226",
    "districtName": "SEONI",
    "acNumber": 114,
    "acName": "BARGHAT",
    "partNumber": 231,
    "partName": "DHARNAKALA",
    "lat": 22.0288467,
    "lon": 79.7438467143195
  },
  {
    "partId": 64585,
    "stateCode": "S12",
    "stateName": "Madhya Pradesh",
    "districtCode": "S1226",
    "districtName": "SEONI",
    "acNumber": 114,
    "acName": "BARGHAT",
    "partNumber": 232,
    "partName": "DHARNAKALA",
    "lat": 22.0288467,
    "lon": 79.7438467143195
  },
  {
    "partId": 65465,
    "stateCode": "S12",
    "stateName": "Madhya Pradesh",
    "districtCode": "S1226",
    "districtName": "SEONI",
    "acNumber": 114,
    "acName": "BARGHAT",
    "partNumber": 233,
    "partName": "GHISI",
    "lat": 22.015532450000002,
    "lon": 79.82401634106095
  },
  {
    "partId": 64816,
    "stateCode": "S12",
    "stateName": "Madhya Pradesh",
    "districtCode": "S1226",
    "districtName": "SEONI",
    "acNumber": 114,
    "acName": "BARGHAT",
    "partNumber": 234,
    "partName": "MOHGAON",
    "lat": 22.562097100000003,
    "lon": 79.83032387571748
  },
  {
    "partId": 64817,
    "stateCode": "S12",
    "stateName": "Madhya Pradesh",
    "districtCode": "S1226",
    "districtName": "SEONI",
    "acNumber": 114,
    "acName": "BARGHAT",
    "partNumber": 235,
    "partName": "GHURVADA",
    "lat": 22.0288467,
    "lon": 79.7438467143195
  },
  {
    "partId": 64818,
    "stateCode": "S12",
    "stateName": "Madhya Pradesh",
    "districtCode": "S1226",
    "districtName": "SEONI",
    "acNumber": 114,
    "acName": "BARGHAT",
    "partNumber": 236,
    "partName": "GONDEGAON",
    "lat": 21.93453485,
    "lon": 79.53432730238407
  },
  {
    "partId": 64819,
    "stateCode": "S12",
    "stateName": "Madhya Pradesh",
    "districtCode": "S1226",
    "districtName": "SEONI",
    "acNumber": 114,
    "acName": "BARGHAT",
    "partNumber": 237,
    "partName": "SAILA",
    "lat": 21.9814115,
    "lon": 79.83462108562361
  },
  {
    "partId": 65012,
    "stateCode": "S12",
    "stateName": "Madhya Pradesh",
    "districtCode": "S1226",
    "districtName": "SEONI",
    "acNumber": 114,
    "acName": "BARGHAT",
    "partNumber": 238,
    "partName": "DORLI",
    "lat": 21.97273335,
    "lon": 79.84507470176757
  },
  {
    "partId": 64820,
    "stateCode": "S12",
    "stateName": "Madhya Pradesh",
    "districtCode": "S1226",
    "districtName": "SEONI",
    "acNumber": 114,
    "acName": "BARGHAT",
    "partNumber": 239,
    "partName": "UMARWADA",
    "lat": 22.0288467,
    "lon": 79.7438467143195
  },
  {
    "partId": 64809,
    "stateCode": "S12",
    "stateName": "Madhya Pradesh",
    "districtCode": "S1226",
    "districtName": "SEONI",
    "acNumber": 114,
    "acName": "BARGHAT",
    "partNumber": 240,
    "partName": "LATGAON",
    "lat": 21.9933416,
    "lon": 79.90605031671586
  },
  {
    "partId": 64596,
    "stateCode": "S12",
    "stateName": "Madhya Pradesh",
    "districtCode": "S1226",
    "districtName": "SEONI",
    "acNumber": 114,
    "acName": "BARGHAT",
    "partNumber": 241,
    "partName": "CHAMARWAHI",
    "lat": 21.980146050000002,
    "lon": 79.91045424256467
  },
  {
    "partId": 64597,
    "stateCode": "S12",
    "stateName": "Madhya Pradesh",
    "districtCode": "S1226",
    "districtName": "SEONI",
    "acNumber": 114,
    "acName": "BARGHAT",
    "partNumber": 242,
    "partName": "MAU",
    "lat": 21.982534700000002,
    "lon": 79.88867162587823
  },
  {
    "partId": 64842,
    "stateCode": "S12",
    "stateName": "Madhya Pradesh",
    "districtCode": "S1226",
    "districtName": "SEONI",
    "acNumber": 114,
    "acName": "BARGHAT",
    "partNumber": 243,
    "partName": "KALYANPUR",
    "lat": 21.959057899999998,
    "lon": 79.84972022974657
  },
  {
    "partId": 64598,
    "stateCode": "S12",
    "stateName": "Madhya Pradesh",
    "districtCode": "S1226",
    "districtName": "SEONI",
    "acNumber": 114,
    "acName": "BARGHAT",
    "partNumber": 244,
    "partName": "KALYANPUR",
    "lat": 21.959057899999998,
    "lon": 79.84972022974657
  },
  {
    "partId": 64599,
    "stateCode": "S12",
    "stateName": "Madhya Pradesh",
    "districtCode": "S1226",
    "districtName": "SEONI",
    "acNumber": 114,
    "acName": "BARGHAT",
    "partNumber": 245,
    "partName": "NANDI",
    "lat": 22.2748109,
    "lon": 79.72025222428486
  },
  {
    "partId": 64584,
    "stateCode": "S12",
    "stateName": "Madhya Pradesh",
    "districtCode": "S1226",
    "districtName": "SEONI",
    "acNumber": 114,
    "acName": "BARGHAT",
    "partNumber": 246,
    "partName": "NANDI",
    "lat": 21.984574799999997,
    "lon": 79.80859843872378
  },
  {
    "partId": 64600,
    "stateCode": "S12",
    "stateName": "Madhya Pradesh",
    "districtCode": "S1226",
    "districtName": "SEONI",
    "acNumber": 114,
    "acName": "BARGHAT",
    "partNumber": 247,
    "partName": "KEKADAI",
    "lat": 22.0288467,
    "lon": 79.7438467143195
  },
  {
    "partId": 64987,
    "stateCode": "S12",
    "stateName": "Madhya Pradesh",
    "districtCode": "S1226",
    "districtName": "SEONI",
    "acNumber": 114,
    "acName": "BARGHAT",
    "partNumber": 248,
    "partName": "KEKADAI",
    "lat": 22.0288467,
    "lon": 79.7438467143195
  },
  {
    "partId": 65466,
    "stateCode": "S12",
    "stateName": "Madhya Pradesh",
    "districtCode": "S1226",
    "districtName": "SEONI",
    "acNumber": 114,
    "acName": "BARGHAT",
    "partNumber": 249,
    "partName": "DUNGARIYA",
    "lat": 22.71831195,
    "lon": 79.60464200626674
  },
  {
    "partId": 64601,
    "stateCode": "S12",
    "stateName": "Madhya Pradesh",
    "districtCode": "S1226",
    "districtName": "SEONI",
    "acNumber": 114,
    "acName": "BARGHAT",
    "partNumber": 250,
    "partName": "SALHEKALA",
    "lat": 22.0288467,
    "lon": 79.7438467143195
  },
  {
    "partId": 64583,
    "stateCode": "S12",
    "stateName": "Madhya Pradesh",
    "districtCode": "S1226",
    "districtName": "SEONI",
    "acNumber": 114,
    "acName": "BARGHAT",
    "partNumber": 251,
    "partName": "SALHEKALA",
    "lat": 22.0288467,
    "lon": 79.7438467143195
  },
  {
    "partId": 64602,
    "stateCode": "S12",
    "stateName": "Madhya Pradesh",
    "districtCode": "S1226",
    "districtName": "SEONI",
    "acNumber": 114,
    "acName": "BARGHAT",
    "partNumber": 252,
    "partName": "KANCHANA",
    "lat": 22.0288467,
    "lon": 79.7438467143195
  },
  {
    "partId": 65195,
    "stateCode": "S12",
    "stateName": "Madhya Pradesh",
    "districtCode": "S1226",
    "districtName": "SEONI",
    "acNumber": 114,
    "acName": "BARGHAT",
    "partNumber": 253,
    "partName": "KANCHANA",
    "lat": 22.0288467,
    "lon": 79.7438467143195
  },
  {
    "partId": 64603,
    "stateCode": "S12",
    "stateName": "Madhya Pradesh",
    "districtCode": "S1226",
    "districtName": "SEONI",
    "acNumber": 114,
    "acName": "BARGHAT",
    "partNumber": 254,
    "partName": "MANEGAONKALA",
    "lat": 22.0288467,
    "lon": 79.7438467143195
  },
  {
    "partId": 64582,
    "stateCode": "S12",
    "stateName": "Madhya Pradesh",
    "districtCode": "S1226",
    "districtName": "SEONI",
    "acNumber": 114,
    "acName": "BARGHAT",
    "partNumber": 255,
    "partName": "MANEGAONKALA",
    "lat": 22.0288467,
    "lon": 79.7438467143195
  },
  {
    "partId": 64604,
    "stateCode": "S12",
    "stateName": "Madhya Pradesh",
    "districtCode": "S1226",
    "districtName": "SEONI",
    "acNumber": 114,
    "acName": "BARGHAT",
    "partNumber": 256,
    "partName": "MAGARKATHA",
    "lat": 22.01500015,
    "lon": 79.72705577834495
  },
  {
    "partId": 64605,
    "stateCode": "S12",
    "stateName": "Madhya Pradesh",
    "districtCode": "S1226",
    "districtName": "SEONI",
    "acNumber": 114,
    "acName": "BARGHAT",
    "partNumber": 257,
    "partName": "TIKARI",
    "lat": 22.003340950000002,
    "lon": 79.71591369498677
  },
  {
    "partId": 64986,
    "stateCode": "S12",
    "stateName": "Madhya Pradesh",
    "districtCode": "S1226",
    "districtName": "SEONI",
    "acNumber": 114,
    "acName": "BARGHAT",
    "partNumber": 258,
    "partName": "TIKARI",
    "lat": 22.003340950000002,
    "lon": 79.71591369498677
  },
  {
    "partId": 64606,
    "stateCode": "S12",
    "stateName": "Madhya Pradesh",
    "districtCode": "S1226",
    "districtName": "SEONI",
    "acNumber": 114,
    "acName": "BARGHAT",
    "partNumber": 259,
    "partName": "CHIRCHIRA",
    "lat": 22.36879665,
    "lon": 79.80674116828605
  },
  {
    "partId": 64607,
    "stateCode": "S12",
    "stateName": "Madhya Pradesh",
    "districtCode": "S1226",
    "districtName": "SEONI",
    "acNumber": 114,
    "acName": "BARGHAT",
    "partNumber": 260,
    "partName": "SARRA",
    "lat": 22.2748109,
    "lon": 79.72025222428486
  },
  {
    "partId": 64608,
    "stateCode": "S12",
    "stateName": "Madhya Pradesh",
    "districtCode": "S1226",
    "districtName": "SEONI",
    "acNumber": 114,
    "acName": "BARGHAT",
    "partNumber": 261,
    "partName": "KATHI",
    "lat": 21.957392249999998,
    "lon": 79.70729448347463
  },
  {
    "partId": 64609,
    "stateCode": "S12",
    "stateName": "Madhya Pradesh",
    "districtCode": "S1226",
    "districtName": "SEONI",
    "acNumber": 114,
    "acName": "BARGHAT",
    "partNumber": 262,
    "partName": "GURRAPATHA",
    "lat": 22.0288467,
    "lon": 79.7438467143195
  },
  {
    "partId": 64981,
    "stateCode": "S12",
    "stateName": "Madhya Pradesh",
    "districtCode": "S1226",
    "districtName": "SEONI",
    "acNumber": 114,
    "acName": "BARGHAT",
    "partNumber": 263,
    "partName": "SALHEKHURD",
    "lat": 22.2748109,
    "lon": 79.72025222428486
  },
  {
    "partId": 64985,
    "stateCode": "S12",
    "stateName": "Madhya Pradesh",
    "districtCode": "S1226",
    "districtName": "SEONI",
    "acNumber": 114,
    "acName": "BARGHAT",
    "partNumber": 264,
    "partName": "SALHEKHURD",
    "lat": 22.0288467,
    "lon": 79.7438467143195
  },
  {
    "partId": 64610,
    "stateCode": "S12",
    "stateName": "Madhya Pradesh",
    "districtCode": "S1226",
    "districtName": "SEONI",
    "acNumber": 114,
    "acName": "BARGHAT",
    "partNumber": 265,
    "partName": "BAMHANI",
    "lat": 22.68546885,
    "lon": 80.17944267435432
  },
  {
    "partId": 64984,
    "stateCode": "S12",
    "stateName": "Madhya Pradesh",
    "districtCode": "S1226",
    "districtName": "SEONI",
    "acNumber": 114,
    "acName": "BARGHAT",
    "partNumber": 266,
    "partName": "BAMHANI",
    "lat": 22.68546885,
    "lon": 80.17944267435432
  },
  {
    "partId": 64611,
    "stateCode": "S12",
    "stateName": "Madhya Pradesh",
    "districtCode": "S1226",
    "districtName": "SEONI",
    "acNumber": 114,
    "acName": "BARGHAT",
    "partNumber": 267,
    "partName": "NIVARI",
    "lat": 22.2748109,
    "lon": 79.72025222428486
  },
  {
    "partId": 64612,
    "stateCode": "S12",
    "stateName": "Madhya Pradesh",
    "districtCode": "S1226",
    "districtName": "SEONI",
    "acNumber": 114,
    "acName": "BARGHAT",
    "partNumber": 268,
    "partName": "GONDI TOLA NIVARI",
    "lat": 22.0288467,
    "lon": 79.7438467143195
  },
  {
    "partId": 64613,
    "stateCode": "S12",
    "stateName": "Madhya Pradesh",
    "districtCode": "S1226",
    "districtName": "SEONI",
    "acNumber": 114,
    "acName": "BARGHAT",
    "partNumber": 269,
    "partName": "KANHARGAON",
    "lat": 21.9608862,
    "lon": 79.7714777400744
  },
  {
    "partId": 64614,
    "stateCode": "S12",
    "stateName": "Madhya Pradesh",
    "districtCode": "S1226",
    "districtName": "SEONI",
    "acNumber": 114,
    "acName": "BARGHAT",
    "partNumber": 270,
    "partName": "NANDOURA",
    "lat": 22.0288467,
    "lon": 79.7438467143195
  },
  {
    "partId": 64581,
    "stateCode": "S12",
    "stateName": "Madhya Pradesh",
    "districtCode": "S1226",
    "districtName": "SEONI",
    "acNumber": 114,
    "acName": "BARGHAT",
    "partNumber": 271,
    "partName": "NANDOURA",
    "lat": 22.0288467,
    "lon": 79.7438467143195
  },
  {
    "partId": 64615,
    "stateCode": "S12",
    "stateName": "Madhya Pradesh",
    "districtCode": "S1226",
    "districtName": "SEONI",
    "acNumber": 114,
    "acName": "BARGHAT",
    "partNumber": 272,
    "partName": "ANKHIWADA",
    "lat": 22.0288467,
    "lon": 79.7438467143195
  },
  {
    "partId": 65496,
    "stateCode": "S12",
    "stateName": "Madhya Pradesh",
    "districtCode": "S1226",
    "districtName": "SEONI",
    "acNumber": 114,
    "acName": "BARGHAT",
    "partNumber": 273,
    "partName": "ANTARA",
    "lat": 22.0288467,
    "lon": 79.7438467143195
  },
  {
    "partId": 65497,
    "stateCode": "S12",
    "stateName": "Madhya Pradesh",
    "districtCode": "S1226",
    "districtName": "SEONI",
    "acNumber": 114,
    "acName": "BARGHAT",
    "partNumber": 274,
    "partName": "ASHTA",
    "lat": 21.93020895,
    "lon": 79.8138402635362
  },
  {
    "partId": 64836,
    "stateCode": "S12",
    "stateName": "Madhya Pradesh",
    "districtCode": "S1226",
    "districtName": "SEONI",
    "acNumber": 114,
    "acName": "BARGHAT",
    "partNumber": 275,
    "partName": "ASHTA",
    "lat": 21.93020895,
    "lon": 79.8138402635362
  },
  {
    "partId": 65498,
    "stateCode": "S12",
    "stateName": "Madhya Pradesh",
    "districtCode": "S1226",
    "districtName": "SEONI",
    "acNumber": 114,
    "acName": "BARGHAT",
    "partNumber": 276,
    "partName": "ASHTA",
    "lat": 22.0288467,
    "lon": 79.7438467143195
  },
  {
    "partId": 65499,
    "stateCode": "S12",
    "stateName": "Madhya Pradesh",
    "districtCode": "S1226",
    "districtName": "SEONI",
    "acNumber": 114,
    "acName": "BARGHAT",
    "partNumber": 277,
    "partName": "PIPARIYA",
    "lat": 22.543854449999998,
    "lon": 79.83115874549752
  },
  {
    "partId": 64835,
    "stateCode": "S12",
    "stateName": "Madhya Pradesh",
    "districtCode": "S1226",
    "districtName": "SEONI",
    "acNumber": 114,
    "acName": "BARGHAT",
    "partNumber": 278,
    "partName": "PIPARIYA",
    "lat": 22.543854449999998,
    "lon": 79.83115874549752
  },
  {
    "partId": 65500,
    "stateCode": "S12",
    "stateName": "Madhya Pradesh",
    "districtCode": "S1226",
    "districtName": "SEONI",
    "acNumber": 114,
    "acName": "BARGHAT",
    "partNumber": 279,
    "partName": "PIPARIYA",
    "lat": 22.0288467,
    "lon": 79.7438467143195
  },
  {
    "partId": 64982,
    "stateCode": "S12",
    "stateName": "Madhya Pradesh",
    "districtCode": "S1226",
    "districtName": "SEONI",
    "acNumber": 114,
    "acName": "BARGHAT",
    "partNumber": 280,
    "partName": "SAJANWADA",
    "lat": 22.0288467,
    "lon": 79.7438467143195
  },
  {
    "partId": 64784,
    "stateCode": "S12",
    "stateName": "Madhya Pradesh",
    "districtCode": "S1226",
    "districtName": "SEONI",
    "acNumber": 114,
    "acName": "BARGHAT",
    "partNumber": 281,
    "partName": "PANAVAS",
    "lat": 22.0288467,
    "lon": 79.7438467143195
  },
  {
    "partId": 64800,
    "stateCode": "S12",
    "stateName": "Madhya Pradesh",
    "districtCode": "S1226",
    "districtName": "SEONI",
    "acNumber": 114,
    "acName": "BARGHAT",
    "partNumber": 282,
    "partName": "TAKHALAKALA",
    "lat": 22.0288467,
    "lon": 79.7438467143195
  },
  {
    "partId": 64834,
    "stateCode": "S12",
    "stateName": "Madhya Pradesh",
    "districtCode": "S1226",
    "districtName": "SEONI",
    "acNumber": 114,
    "acName": "BARGHAT",
    "partNumber": 283,
    "partName": "TAKHALAKALA",
    "lat": 22.0288467,
    "lon": 79.7438467143195
  },
  {
    "partId": 64785,
    "stateCode": "S12",
    "stateName": "Madhya Pradesh",
    "districtCode": "S1226",
    "districtName": "SEONI",
    "acNumber": 114,
    "acName": "BARGHAT",
    "partNumber": 284,
    "partName": "BORIKHURD",
    "lat": 22.0288467,
    "lon": 79.7438467143195
  },
  {
    "partId": 64786,
    "stateCode": "S12",
    "stateName": "Madhya Pradesh",
    "districtCode": "S1226",
    "districtName": "SEONI",
    "acNumber": 114,
    "acName": "BARGHAT",
    "partNumber": 285,
    "partName": "GOKALPUR",
    "lat": 22.2748109,
    "lon": 79.72025222428486
  },
  {
    "partId": 64787,
    "stateCode": "S12",
    "stateName": "Madhya Pradesh",
    "districtCode": "S1226",
    "districtName": "SEONI",
    "acNumber": 114,
    "acName": "BARGHAT",
    "partNumber": 286,
    "partName": "GOKALPUR",
    "lat": 21.92221875,
    "lon": 79.71335710904415
  },
  {
    "partId": 64788,
    "stateCode": "S12",
    "stateName": "Madhya Pradesh",
    "districtCode": "S1226",
    "districtName": "SEONI",
    "acNumber": 114,
    "acName": "BARGHAT",
    "partNumber": 287,
    "partName": "MOHGAON",
    "lat": 22.562097100000003,
    "lon": 79.83032387571748
  },
  {
    "partId": 64833,
    "stateCode": "S12",
    "stateName": "Madhya Pradesh",
    "districtCode": "S1226",
    "districtName": "SEONI",
    "acNumber": 114,
    "acName": "BARGHAT",
    "partNumber": 288,
    "partName": "MOHGAON",
    "lat": 22.562097100000003,
    "lon": 79.83032387571748
  },
  {
    "partId": 64789,
    "stateCode": "S12",
    "stateName": "Madhya Pradesh",
    "districtCode": "S1226",
    "districtName": "SEONI",
    "acNumber": 114,
    "acName": "BARGHAT",
    "partNumber": 289,
    "partName": "DULHAPUR",
    "lat": 22.2748109,
    "lon": 79.72025222428486
  },
  {
    "partId": 64832,
    "stateCode": "S12",
    "stateName": "Madhya Pradesh",
    "districtCode": "S1226",
    "districtName": "SEONI",
    "acNumber": 114,
    "acName": "BARGHAT",
    "partNumber": 290,
    "partName": "DULHAPUR",
    "lat": 21.889249149999998,
    "lon": 79.72498359213313
  },
  {
    "partId": 64790,
    "stateCode": "S12",
    "stateName": "Madhya Pradesh",
    "districtCode": "S1226",
    "districtName": "SEONI",
    "acNumber": 114,
    "acName": "BARGHAT",
    "partNumber": 291,
    "partName": "DHAPARA",
    "lat": 22.73913785,
    "lon": 79.70538765738998
  },
  {
    "partId": 64831,
    "stateCode": "S12",
    "stateName": "Madhya Pradesh",
    "districtCode": "S1226",
    "districtName": "SEONI",
    "acNumber": 114,
    "acName": "BARGHAT",
    "partNumber": 292,
    "partName": "DHAPARA",
    "lat": 22.73913785,
    "lon": 79.70538765738998
  },
  {
    "partId": 64791,
    "stateCode": "S12",
    "stateName": "Madhya Pradesh",
    "districtCode": "S1226",
    "districtName": "SEONI",
    "acNumber": 114,
    "acName": "BARGHAT",
    "partNumber": 293,
    "partName": "DHAPARA",
    "lat": 22.73913785,
    "lon": 79.70538765738998
  },
  {
    "partId": 64830,
    "stateCode": "S12",
    "stateName": "Madhya Pradesh",
    "districtCode": "S1226",
    "districtName": "SEONI",
    "acNumber": 114,
    "acName": "BARGHAT",
    "partNumber": 294,
    "partName": "DHAPARA",
    "lat": 22.73913785,
    "lon": 79.70538765738998
  },
  {
    "partId": 64792,
    "stateCode": "S12",
    "stateName": "Madhya Pradesh",
    "districtCode": "S1226",
    "districtName": "SEONI",
    "acNumber": 114,
    "acName": "BARGHAT",
    "partNumber": 295,
    "partName": "TIGHARA",
    "lat": 22.132655800000002,
    "lon": 79.48780603411227
  },
  {
    "partId": 64829,
    "stateCode": "S12",
    "stateName": "Madhya Pradesh",
    "districtCode": "S1226",
    "districtName": "SEONI",
    "acNumber": 114,
    "acName": "BARGHAT",
    "partNumber": 296,
    "partName": "TIGHARA",
    "lat": 22.132655800000002,
    "lon": 79.48780603411227
  },
  {
    "partId": 64793,
    "stateCode": "S12",
    "stateName": "Madhya Pradesh",
    "districtCode": "S1226",
    "districtName": "SEONI",
    "acNumber": 114,
    "acName": "BARGHAT",
    "partNumber": 297,
    "partName": "SAREKHAKHURD",
    "lat": 22.2748109,
    "lon": 79.72025222428486
  },
  {
    "partId": 64794,
    "stateCode": "S12",
    "stateName": "Madhya Pradesh",
    "districtCode": "S1226",
    "districtName": "SEONI",
    "acNumber": 114,
    "acName": "BARGHAT",
    "partNumber": 298,
    "partName": "DOUNDIWADA",
    "lat": 22.0288467,
    "lon": 79.7438467143195
  },
  {
    "partId": 65011,
    "stateCode": "S12",
    "stateName": "Madhya Pradesh",
    "districtCode": "S1226",
    "districtName": "SEONI",
    "acNumber": 114,
    "acName": "BARGHAT",
    "partNumber": 299,
    "partName": "DOUNDIWADA",
    "lat": 22.0288467,
    "lon": 79.7438467143195
  },
  {
    "partId": 64983,
    "stateCode": "S12",
    "stateName": "Madhya Pradesh",
    "districtCode": "S1226",
    "districtName": "SEONI",
    "acNumber": 114,
    "acName": "BARGHAT",
    "partNumber": 300,
    "partName": "DOUNDIWADA",
    "lat": 22.0288467,
    "lon": 79.7438467143195
  },
  {
    "partId": 65198,
    "stateCode": "S12",
    "stateName": "Madhya Pradesh",
    "districtCode": "S1226",
    "districtName": "SEONI",
    "acNumber": 114,
    "acName": "BARGHAT",
    "partNumber": 301,
    "partName": "DOUNDIWADA",
    "lat": 22.0288467,
    "lon": 79.7438467143195
  },
  {
    "partId": 64795,
    "stateCode": "S12",
    "stateName": "Madhya Pradesh",
    "districtCode": "S1226",
    "districtName": "SEONI",
    "acNumber": 114,
    "acName": "BARGHAT",
    "partNumber": 302,
    "partName": "AMURALA",
    "lat": 22.0288467,
    "lon": 79.7438467143195
  },
  {
    "partId": 65194,
    "stateCode": "S12",
    "stateName": "Madhya Pradesh",
    "districtCode": "S1226",
    "districtName": "SEONI",
    "acNumber": 114,
    "acName": "BARGHAT",
    "partNumber": 303,
    "partName": "AMURALA",
    "lat": 22.0288467,
    "lon": 79.7438467143195
  },
  {
    "partId": 64796,
    "stateCode": "S12",
    "stateName": "Madhya Pradesh",
    "districtCode": "S1226",
    "districtName": "SEONI",
    "acNumber": 114,
    "acName": "BARGHAT",
    "partNumber": 304,
    "partName": "BIRHOLI",
    "lat": 21.9045584,
    "lon": 79.79987046492793
  },
  {
    "partId": 64828,
    "stateCode": "S12",
    "stateName": "Madhya Pradesh",
    "districtCode": "S1226",
    "districtName": "SEONI",
    "acNumber": 114,
    "acName": "BARGHAT",
    "partNumber": 305,
    "partName": "BIRHOLI",
    "lat": 21.9045584,
    "lon": 79.79987046492793
  },
  {
    "partId": 64797,
    "stateCode": "S12",
    "stateName": "Madhya Pradesh",
    "districtCode": "S1226",
    "districtName": "SEONI",
    "acNumber": 114,
    "acName": "BARGHAT",
    "partNumber": 306,
    "partName": "INDOURI",
    "lat": 22.0288467,
    "lon": 79.7438467143195
  },
  {
    "partId": 64827,
    "stateCode": "S12",
    "stateName": "Madhya Pradesh",
    "districtCode": "S1226",
    "districtName": "SEONI",
    "acNumber": 114,
    "acName": "BARGHAT",
    "partNumber": 307,
    "partName": "INDOURI",
    "lat": 22.2748109,
    "lon": 79.72025222428486
  },
  {
    "partId": 64798,
    "stateCode": "S12",
    "stateName": "Madhya Pradesh",
    "districtCode": "S1226",
    "districtName": "SEONI",
    "acNumber": 114,
    "acName": "BARGHAT",
    "partNumber": 308,
    "partName": "JAM",
    "lat": 22.6431385,
    "lon": 79.98873865638186
  },
  {
    "partId": 64799,
    "stateCode": "S12",
    "stateName": "Madhya Pradesh",
    "districtCode": "S1226",
    "districtName": "SEONI",
    "acNumber": 114,
    "acName": "BARGHAT",
    "partNumber": 309,
    "partName": "PANDHARVANI",
    "lat": 22.0288467,
    "lon": 79.7438467143195
  },
  {
    "partId": 64826,
    "stateCode": "S12",
    "stateName": "Madhya Pradesh",
    "districtCode": "S1226",
    "districtName": "SEONI",
    "acNumber": 114,
    "acName": "BARGHAT",
    "partNumber": 310,
    "partName": "PANDHARVANI",
    "lat": 22.0288467,
    "lon": 79.7438467143195
  },
  {
    "partId": 19907,
    "stateCode": "S12",
    "stateName": "Madhya Pradesh",
    "districtCode": "S1226",
    "districtName": "SEONI",
    "acNumber": 116,
    "acName": "KEOLARI",
    "partNumber": 1,
    "partName": "KHAIRI",
    "lat": 22.6252297,
    "lon": 79.73608164483996
  },
  {
    "partId": 13731,
    "stateCode": "S12",
    "stateName": "Madhya Pradesh",
    "districtCode": "S1226",
    "districtName": "SEONI",
    "acNumber": 116,
    "acName": "KEOLARI",
    "partNumber": 2,
    "partName": "JUNAPANI",
    "lat": 22.36383345,
    "lon": 79.50362681725781
  },
  {
    "partId": 19908,
    "stateCode": "S12",
    "stateName": "Madhya Pradesh",
    "districtCode": "S1226",
    "districtName": "SEONI",
    "acNumber": 116,
    "acName": "KEOLARI",
    "partNumber": 3,
    "partName": "DUNGARIYA CHHAPARA",
    "lat": 22.4929501,
    "lon": 79.9610357722311
  },
  {
    "partId": 13848,
    "stateCode": "S12",
    "stateName": "Madhya Pradesh",
    "districtCode": "S1226",
    "districtName": "SEONI",
    "acNumber": 116,
    "acName": "KEOLARI",
    "partNumber": 4,
    "partName": "DUNGARIYA CHHAPARA",
    "lat": 22.4929501,
    "lon": 79.9610357722311
  },
  {
    "partId": 19909,
    "stateCode": "S12",
    "stateName": "Madhya Pradesh",
    "districtCode": "S1226",
    "districtName": "SEONI",
    "acNumber": 116,
    "acName": "KEOLARI",
    "partNumber": 5,
    "partName": "DUNGARIYA CHHAPARA",
    "lat": 22.4929501,
    "lon": 79.9610357722311
  },
  {
    "partId": 19910,
    "stateCode": "S12",
    "stateName": "Madhya Pradesh",
    "districtCode": "S1226",
    "districtName": "SEONI",
    "acNumber": 116,
    "acName": "KEOLARI",
    "partNumber": 6,
    "partName": "DUNGARIYA CHHAPARA",
    "lat": 22.4929501,
    "lon": 79.9610357722311
  },
  {
    "partId": 19911,
    "stateCode": "S12",
    "stateName": "Madhya Pradesh",
    "districtCode": "S1226",
    "districtName": "SEONI",
    "acNumber": 116,
    "acName": "KEOLARI",
    "partNumber": 7,
    "partName": "DUNGARIYA CHHAPARA",
    "lat": 22.4929501,
    "lon": 79.9610357722311
  },
  {
    "partId": 19912,
    "stateCode": "S12",
    "stateName": "Madhya Pradesh",
    "districtCode": "S1226",
    "districtName": "SEONI",
    "acNumber": 116,
    "acName": "KEOLARI",
    "partNumber": 8,
    "partName": "DUNGARIYA CHHAPARA",
    "lat": 22.4929501,
    "lon": 79.9610357722311
  },
  {
    "partId": 49637,
    "stateCode": "S12",
    "stateName": "Madhya Pradesh",
    "districtCode": "S1226",
    "districtName": "SEONI",
    "acNumber": 116,
    "acName": "KEOLARI",
    "partNumber": 9,
    "partName": "DUNGARIYA CHHAPARA",
    "lat": 22.4929501,
    "lon": 79.9610357722311
  },
  {
    "partId": 50088,
    "stateCode": "S12",
    "stateName": "Madhya Pradesh",
    "districtCode": "S1226",
    "districtName": "SEONI",
    "acNumber": 116,
    "acName": "KEOLARI",
    "partNumber": 10,
    "partName": "DUNGARIYA CHHAPARA",
    "lat": 22.4929501,
    "lon": 79.9610357722311
  },
  {
    "partId": 13847,
    "stateCode": "S12",
    "stateName": "Madhya Pradesh",
    "districtCode": "S1226",
    "districtName": "SEONI",
    "acNumber": 116,
    "acName": "KEOLARI",
    "partNumber": 11,
    "partName": "DUNGARIYA CHHAPARA",
    "lat": 22.4929501,
    "lon": 79.9610357722311
  },
  {
    "partId": 50104,
    "stateCode": "S12",
    "stateName": "Madhya Pradesh",
    "districtCode": "S1226",
    "districtName": "SEONI",
    "acNumber": 116,
    "acName": "KEOLARI",
    "partNumber": 12,
    "partName": "DUNGARIYA CHHAPARA",
    "lat": 22.4929501,
    "lon": 79.9610357722311
  },
  {
    "partId": 13846,
    "stateCode": "S12",
    "stateName": "Madhya Pradesh",
    "districtCode": "S1226",
    "districtName": "SEONI",
    "acNumber": 116,
    "acName": "KEOLARI",
    "partNumber": 13,
    "partName": "JUNAPANI RAIYAT",
    "lat": 22.2748109,
    "lon": 79.72025222428486
  },
  {
    "partId": 19915,
    "stateCode": "S12",
    "stateName": "Madhya Pradesh",
    "districtCode": "S1226",
    "districtName": "SEONI",
    "acNumber": 116,
    "acName": "KEOLARI",
    "partNumber": 14,
    "partName": "DUNGARIYA CHHAPARA",
    "lat": 22.4929501,
    "lon": 79.9610357722311
  },
  {
    "partId": 19906,
    "stateCode": "S12",
    "stateName": "Madhya Pradesh",
    "districtCode": "S1226",
    "districtName": "SEONI",
    "acNumber": 116,
    "acName": "KEOLARI",
    "partNumber": 15,
    "partName": "DUNGARIYA CHHAPARA",
    "lat": 22.4929501,
    "lon": 79.9610357722311
  },
  {
    "partId": 49636,
    "stateCode": "S12",
    "stateName": "Madhya Pradesh",
    "districtCode": "S1226",
    "districtName": "SEONI",
    "acNumber": 116,
    "acName": "KEOLARI",
    "partNumber": 16,
    "partName": "DUNGARIYA CHHAPARA",
    "lat": 22.4929501,
    "lon": 79.9610357722311
  },
  {
    "partId": 13712,
    "stateCode": "S12",
    "stateName": "Madhya Pradesh",
    "districtCode": "S1226",
    "districtName": "SEONI",
    "acNumber": 116,
    "acName": "KEOLARI",
    "partNumber": 17,
    "partName": "PAYALIKALA",
    "lat": 22.4929501,
    "lon": 79.9610357722311
  },
  {
    "partId": 13845,
    "stateCode": "S12",
    "stateName": "Madhya Pradesh",
    "districtCode": "S1226",
    "districtName": "SEONI",
    "acNumber": 116,
    "acName": "KEOLARI",
    "partNumber": 18,
    "partName": "BAMHANWARA",
    "lat": 22.43200955,
    "lon": 79.68018481873585
  },
  {
    "partId": 13713,
    "stateCode": "S12",
    "stateName": "Madhya Pradesh",
    "districtCode": "S1226",
    "districtName": "SEONI",
    "acNumber": 116,
    "acName": "KEOLARI",
    "partNumber": 19,
    "partName": "PAYLIKHURD",
    "lat": 22.4929501,
    "lon": 79.9610357722311
  },
  {
    "partId": 13844,
    "stateCode": "S12",
    "stateName": "Madhya Pradesh",
    "districtCode": "S1226",
    "districtName": "SEONI",
    "acNumber": 116,
    "acName": "KEOLARI",
    "partNumber": 20,
    "partName": "PIPARIYA",
    "lat": 22.543854449999998,
    "lon": 79.83115874549752
  },
  {
    "partId": 13869,
    "stateCode": "S12",
    "stateName": "Madhya Pradesh",
    "districtCode": "S1226",
    "districtName": "SEONI",
    "acNumber": 116,
    "acName": "KEOLARI",
    "partNumber": 21,
    "partName": "BICHHUA RAIYAT",
    "lat": 22.4929501,
    "lon": 79.9610357722311
  },
  {
    "partId": 41353,
    "stateCode": "S12",
    "stateName": "Madhya Pradesh",
    "districtCode": "S1226",
    "districtName": "SEONI",
    "acNumber": 116,
    "acName": "KEOLARI",
    "partNumber": 22,
    "partName": "CHHAPARA KALA",
    "lat": 22.4929501,
    "lon": 79.9610357722311
  },
  {
    "partId": 13859,
    "stateCode": "S12",
    "stateName": "Madhya Pradesh",
    "districtCode": "S1226",
    "districtName": "SEONI",
    "acNumber": 116,
    "acName": "KEOLARI",
    "partNumber": 23,
    "partName": "CHHAPARA KHURD",
    "lat": 22.383430349999998,
    "lon": 79.53419153152863
  },
  {
    "partId": 13851,
    "stateCode": "S12",
    "stateName": "Madhya Pradesh",
    "districtCode": "S1226",
    "districtName": "SEONI",
    "acNumber": 116,
    "acName": "KEOLARI",
    "partNumber": 24,
    "partName": "DEVARIKALA",
    "lat": 22.4929501,
    "lon": 79.9610357722311
  },
  {
    "partId": 46167,
    "stateCode": "S12",
    "stateName": "Madhya Pradesh",
    "districtCode": "S1226",
    "districtName": "SEONI",
    "acNumber": 116,
    "acName": "KEOLARI",
    "partNumber": 25,
    "partName": "SADAK SEONI",
    "lat": 22.4929501,
    "lon": 79.9610357722311
  },
  {
    "partId": 49638,
    "stateCode": "S12",
    "stateName": "Madhya Pradesh",
    "districtCode": "S1226",
    "districtName": "SEONI",
    "acNumber": 116,
    "acName": "KEOLARI",
    "partNumber": 26,
    "partName": "JHILMILI",
    "lat": 22.2748109,
    "lon": 79.72025222428486
  },