[
  {
    "partId": 79005,
    "stateCode": "S12",
    "stateName": "Madhya Pradesh",
    "districtCode": "S1210",
    "districtName": "TIKAMGARH",
    "acNumber": 44,
    "acName": "JATARA",
    "partNumber": 1,
    "partName": "CHHIPARI KHAS",
    "lat": 25.01113205,
    "lon": 79.06162499064969
  },
  {
    "partId": 79084,
    "stateCode": "S12",
    "stateName": "Madhya Pradesh",
    "districtCode": "S1210",
    "districtName": "TIKAMGARH",
    "acNumber": 44,
    "acName": "JATARA",
    "partNumber": 2,
    "partName": "CHHIPARI KHAS",
    "lat": 25.01113205,
    "lon": 79.06162499064969
  },
  {
    "partId": 79278,
    "stateCode": "S12",
    "stateName": "Madhya Pradesh",
    "districtCode": "S1210",
    "districtName": "TIKAMGARH",
    "acNumber": 44,
    "acName": "JATARA",
    "partNumber": 3,
    "partName": "CHHIPARI KHAS",
    "lat": 25.01113205,
    "lon": 79.06162499064969
  },
  {
    "partId": 78990,
    "stateCode": "S12",
    "stateName": "Madhya Pradesh",
    "districtCode": "S1210",
    "districtName": "TIKAMGARH",
    "acNumber": 44,
    "acName": "JATARA",
    "partNumber": 4,
    "partName": "ANTPURA",
    "lat": 25.1011278,
    "lon": 78.86630845538981
  },
  {
    "partId": 79006,
    "stateCode": "S12",
    "stateName": "Madhya Pradesh",
    "districtCode": "S1210",
    "districtName": "TIKAMGARH",
    "acNumber": 44,
    "acName": "JATARA",
    "partNumber": 5,
    "partName": "RANIGANJ",
    "lat": 25.0764246,
    "lon": 78.80902450331666
  },
  {
    "partId": 78989,
    "stateCode": "S12",
    "stateName": "Madhya Pradesh",
    "districtCode": "S1210",
    "districtName": "TIKAMGARH",
    "acNumber": 44,
    "acName": "JATARA",
    "partNumber": 6,
    "partName": "FIROJ PURA BHATA",
    "lat": 25.01113205,
    "lon": 79.06162499064969
  },
  {
    "partId": 79007,
    "stateCode": "S12",
    "stateName": "Madhya Pradesh",
    "districtCode": "S1210",
    "districtName": "TIKAMGARH",
    "acNumber": 44,
    "acName": "JATARA",
    "partNumber": 7,
    "partName": "LAKHARAUN",
    "lat": 25.010607188571427,
    "lon": 79.05167320655079
  },
  {
    "partId": 79008,
    "stateCode": "S12",
    "stateName": "Madhya Pradesh",
    "districtCode": "S1210",
    "districtName": "TIKAMGARH",
    "acNumber": 44,
    "acName": "JATARA",
    "partNumber": 8,
    "partName": "PRATAPPURA",
    "lat": 24.7509067,
    "lon": 79.0225583
  },
  {
    "partId": 79009,
    "stateCode": "S12",
    "stateName": "Madhya Pradesh",
    "districtCode": "S1210",
    "districtName": "TIKAMGARH",
    "acNumber": 44,
    "acName": "JATARA",
    "partNumber": 9,
    "partName": "PHIROJAPURA KHAS",
    "lat": 25.01113205,
    "lon": 79.06162499064969
  },
  {
    "partId": 79010,
    "stateCode": "S12",
    "stateName": "Madhya Pradesh",
    "districtCode": "S1210",
    "districtName": "TIKAMGARH",
    "acNumber": 44,
    "acName": "JATARA",
    "partNumber": 10,
    "partName": "BAMHOURI KHAS",
    "lat": 25.01113205,
    "lon": 79.06162499064969
  },
  {
    "partId": 79083,
    "stateCode": "S12",
    "stateName": "Madhya Pradesh",
    "districtCode": "S1210",
    "districtName": "TIKAMGARH",
    "acNumber": 44,
    "acName": "JATARA",
    "partNumber": 11,
    "partName": "BAMHOURI KHAS",
    "lat": 25.01113205,
    "lon": 79.06162499064969
  },
  {
    "partId": 79011,
    "stateCode": "S12",
    "stateName": "Madhya Pradesh",
    "districtCode": "S1210",
    "districtName": "TIKAMGARH",
    "acNumber": 44,
    "acName": "JATARA",
    "partNumber": 12,
    "partName": "BAMHOURI KHAS",
    "lat": 25.01113205,
    "lon": 79.06162499064969
  },
  {
    "partId": 78988,
    "stateCode": "S12",
    "stateName": "Madhya Pradesh",
    "districtCode": "S1210",
    "districtName": "TIKAMGARH",
    "acNumber": 44,
    "acName": "JATARA",
    "partNumber": 13,
    "partName": "BAMHOURI KHAS",
    "lat": 25.01113205,
    "lon": 79.06162499064969
  },
  {
    "partId": 79012,
    "stateCode": "S12",
    "stateName": "Madhya Pradesh",
    "districtCode": "S1210",
    "districtName": "TIKAMGARH",
    "acNumber": 44,
    "acName": "JATARA",
    "partNumber": 14,
    "partName": "BAMHORI KHAS",
    "lat": 25.0387938,
    "lon": 78.8103047
  },
  {
    "partId": 79293,
    "stateCode": "S12",
    "stateName": "Madhya Pradesh",
    "districtCode": "S1210",
    "districtName": "TIKAMGARH",
    "acNumber": 44,
    "acName": "JATARA",
    "partNumber": 15,
    "partName": "BAMHORI KHAS",
    "lat": 25.0387938,
    "lon": 78.8103047
  },
  {
    "partId": 79013,
    "stateCode": "S12",
    "stateName": "Madhya Pradesh",
    "districtCode": "S1210",
    "districtName": "TIKAMGARH",
    "acNumber": 44,
    "acName": "JATARA",
    "partNumber": 16,
    "partName": "RATANAGUVAN",
    "lat": 25.01113205,
    "lon": 79.06162499064969
  },
  {
    "partId": 79082,
    "stateCode": "S12",
    "stateName": "Madhya Pradesh",
    "districtCode": "S1210",
    "districtName": "TIKAMGARH",
    "acNumber": 44,
    "acName": "JATARA",
    "partNumber": 17,
    "partName": "RATANAGUVAN",
    "lat": 25.01113205,
    "lon": 79.06162499064969
  },
  {
    "partId": 79014,
    "stateCode": "S12",
    "stateName": "Madhya Pradesh",
    "districtCode": "S1210",
    "districtName": "TIKAMGARH",
    "acNumber": 44,
    "acName": "JATARA",
    "partNumber": 18,
    "partName": "BIRAU",
    "lat": 25.0185357,
    "lon": 78.86013811853533
  },
  {
    "partId": 79015,
    "stateCode": "S12",
    "stateName": "Madhya Pradesh",
    "districtCode": "S1210",
    "districtName": "TIKAMGARH",
    "acNumber": 44,
    "acName": "JATARA",
    "partNumber": 19,
    "partName": "BIRAU",
    "lat": 25.0185357,
    "lon": 78.86013811853533
  },
  {
    "partId": 79016,
    "stateCode": "S12",
    "stateName": "Madhya Pradesh",
    "districtCode": "S1210",
    "districtName": "TIKAMGARH",
    "acNumber": 44,
    "acName": "JATARA",
    "partNumber": 20,
    "partName": "MARAGUVAN",
    "lat": 25.01113205,
    "lon": 79.06162499064969
  },
  {
    "partId": 79017,
    "stateCode": "S12",
    "stateName": "Madhya Pradesh",
    "districtCode": "S1210",
    "districtName": "TIKAMGARH",
    "acNumber": 44,
    "acName": "JATARA",
    "partNumber": 21,
    "partName": "MARAGUVAN",
    "lat": 25.010607188571427,
    "lon": 79.05167320655079
  },
  {
    "partId": 79268,
    "stateCode": "S12",
    "stateName": "Madhya Pradesh",
    "districtCode": "S1210",
    "districtName": "TIKAMGARH",
    "acNumber": 44,
    "acName": "JATARA",
    "partNumber": 22,
    "partName": "MARAGUVAN",
    "lat": 25.01113205,
    "lon": 79.06162499064969
  },
  {
    "partId": 79018,
    "stateCode": "S12",
    "stateName": "Madhya Pradesh",
    "districtCode": "S1210",
    "districtName": "TIKAMGARH",
    "acNumber": 44,
    "acName": "JATARA",
    "partNumber": 23,
    "partName": "BARANA KHAS",
    "lat": 25.01113205,
    "lon": 79.06162499064969
  },
  {
    "partId": 79491,
    "stateCode": "S12",
    "stateName": "Madhya Pradesh",
    "districtCode": "S1210",
    "districtName": "TIKAMGARH",
    "acNumber": 44,
    "acName": "JATARA",
    "partNumber": 24,
    "partName": "BARANA KHAS",
    "lat": 25.01113205,
    "lon": 79.06162499064969
  },
  {
    "partId": 78981,
    "stateCode": "S12",
    "stateName": "Madhya Pradesh",
    "districtCode": "S1210",
    "districtName": "TIKAMGARH",
    "acNumber": 44,
    "acName": "JATARA",
    "partNumber": 25,
    "partName": "LIDHOURA KHAS",
    "lat": 25.01113205,
    "lon": 79.06162499064969
  },
  {
    "partId": 79292,
    "stateCode": "S12",
    "stateName": "Madhya Pradesh",
    "districtCode": "S1210",
    "districtName": "TIKAMGARH",
    "acNumber": 44,
    "acName": "JATARA",
    "partNumber": 26,
    "partName": "LIDHOURA KHAS",
    "lat": 25.01113205,
    "lon": 79.06162499064969
  },
  {
    "partId": 79019,
    "stateCode": "S12",
    "stateName": "Madhya Pradesh",
    "districtCode": "S1210",
    "districtName": "TIKAMGARH",
    "acNumber": 44,
    "acName": "JATARA",
    "partNumber": 27,
    "partName": "LIDHOURA KHAS",
    "lat": 25.01113205,
    "lon": 79.06162499064969
  },
  {
    "partId": 79291,
    "stateCode": "S12",
    "stateName": "Madhya Pradesh",
    "districtCode": "S1210",
    "districtName": "TIKAMGARH",
    "acNumber": 44,
    "acName": "JATARA",
    "partNumber": 28,
    "partName": "LIDHOURA KHAS",
    "lat": 25.01113205,
    "lon": 79.06162499064969
  },
  {
    "partId": 79020,
    "stateCode": "S12",
    "stateName": "Madhya Pradesh",
    "districtCode": "S1210",
    "districtName": "TIKAMGARH",
    "acNumber": 44,
    "acName": "JATARA",
    "partNumber": 29,
    "partName": "LIDHOURA KHAS",
    "lat": 25.01113205,
    "lon": 79.06162499064969
  },
  {
    "partId": 79021,
    "stateCode": "S12",
    "stateName": "Madhya Pradesh",
    "districtCode": "S1210",
    "districtName": "TIKAMGARH",
    "acNumber": 44,
    "acName": "JATARA",
    "partNumber": 30,
    "partName": "LIDHOURA KHAS",
    "lat": 25.01113205,
    "lon": 79.06162499064969
  },
  {
    "partId": 79290,
    "stateCode": "S12",
    "stateName": "Madhya Pradesh",
    "districtCode": "S1210",
    "districtName": "TIKAMGARH",
    "acNumber": 44,
    "acName": "JATARA",
    "partNumber": 31,
    "partName": "LIDHOURA KHAS",
    "lat": 25.01113205,
    "lon": 79.06162499064969
  },
  {
    "partId": 79022,
    "stateCode": "S12",
    "stateName": "Madhya Pradesh",
    "districtCode": "S1210",
    "districtName": "TIKAMGARH",
    "acNumber": 44,
    "acName": "JATARA",
    "partNumber": 32,
    "partName": "LIDHORA KHAS",
    "lat": 25.0772364,
    "lon": 78.8682361
  },
  {
    "partId": 79362,
    "stateCode": "S12",
    "stateName": "Madhya Pradesh",
    "districtCode": "S1210",
    "districtName": "TIKAMGARH",
    "acNumber": 44,
    "acName": "JATARA",
    "partNumber": 33,
    "partName": "LIDHORA KHAS",
    "lat": 25.0772364,
    "lon": 78.8682361
  },
  {
    "partId": 79023,
    "stateCode": "S12",
    "stateName": "Madhya Pradesh",
    "districtCode": "S1210",
    "districtName": "TIKAMGARH",
    "acNumber": 44,
    "acName": "JATARA",
    "partNumber": 34,
    "partName": "LIDHOURA KHAS",
    "lat": 25.01113205,
    "lon": 79.06162499064969
  },
  {
    "partId": 79024,
    "stateCode": "S12",
    "stateName": "Madhya Pradesh",
    "districtCode": "S1210",
    "districtName": "TIKAMGARH",
    "acNumber": 44,
    "acName": "JATARA",
    "partNumber": 35,
    "partName": "GOTET KHAS",
    "lat": 25.0817147,
    "lon": 78.9213202
  },
  {
    "partId": 79267,
    "stateCode": "S12",
    "stateName": "Madhya Pradesh",
    "districtCode": "S1210",
    "districtName": "TIKAMGARH",
    "acNumber": 44,
    "acName": "JATARA",
    "partNumber": 36,
    "partName": "GOTET KHAS",
    "lat": 25.0817147,
    "lon": 78.9213202
  },
  {
    "partId": 79025,
    "stateCode": "S12",
    "stateName": "Madhya Pradesh",
    "districtCode": "S1210",
    "districtName": "TIKAMGARH",
    "acNumber": 44,
    "acName": "JATARA",
    "partNumber": 37,
    "partName": "SATAGUVA KHAS",
    "lat": 25.01113205,
    "lon": 79.06162499064969
  },
  {
    "partId": 79026,
    "stateCode": "S12",
    "stateName": "Madhya Pradesh",
    "districtCode": "S1210",
    "districtName": "TIKAMGARH",
    "acNumber": 44,
    "acName": "JATARA",
    "partNumber": 38,
    "partName": "SATAGUVAN KHAS",
    "lat": 25.01113205,
    "lon": 79.06162499064969
  },
  {
    "partId": 79289,
    "stateCode": "S12",
    "stateName": "Madhya Pradesh",
    "districtCode": "S1210",
    "districtName": "TIKAMGARH",
    "acNumber": 44,
    "acName": "JATARA",
    "partNumber": 39,
    "partName": "SATAGUVAN KHAS",
    "lat": 25.01113205,
    "lon": 79.06162499064969
  },
  {
    "partId": 79027,
    "stateCode": "S12",
    "stateName": "Madhya Pradesh",
    "districtCode": "S1210",
    "districtName": "TIKAMGARH",
    "acNumber": 44,
    "acName": "JATARA",
    "partNumber": 40,
    "partName": "SATAGUVAN KHAS",
    "lat": 25.01113205,
    "lon": 79.06162499064969
  },
  {
    "partId": 79081,
    "stateCode": "S12",
    "stateName": "Madhya Pradesh",
    "districtCode": "S1210",
    "districtName": "TIKAMGARH",
    "acNumber": 44,
    "acName": "JATARA",
    "partNumber": 41,
    "partName": "SATAGUVAN KHAS",
    "lat": 25.01113205,
    "lon": 79.06162499064969
  },
  {
    "partId": 79028,
    "stateCode": "S12",
    "stateName": "Madhya Pradesh",
    "districtCode": "S1210",
    "districtName": "TIKAMGARH",
    "acNumber": 44,
    "acName": "JATARA",
    "partNumber": 42,
    "partName": "SATGUNA UGAD",
    "lat": 25.01113205,
    "lon": 79.06162499064969
  },
  {
    "partId": 79029,
    "stateCode": "S12",
    "stateName": "Madhya Pradesh",
    "districtCode": "S1210",
    "districtName": "TIKAMGARH",
    "acNumber": 44,
    "acName": "JATARA",
    "partNumber": 43,
    "partName": "ISHOUN",
    "lat": 25.01113205,
    "lon": 79.06162499064969
  },
  {
    "partId": 79320,
    "stateCode": "S12",
    "stateName": "Madhya Pradesh",
    "districtCode": "S1210",
    "districtName": "TIKAMGARH",
    "acNumber": 44,
    "acName": "JATARA",
    "partNumber": 44,
    "partName": "MATOUL",
    "lat": 24.900052,
    "lon": 79.1923405
  },
  {
    "partId": 79266,
    "stateCode": "S12",
    "stateName": "Madhya Pradesh",
    "districtCode": "S1210",
    "districtName": "TIKAMGARH",
    "acNumber": 44,
    "acName": "JATARA",
    "partNumber": 45,
    "partName": "MATOUL",
    "lat": 24.900052,
    "lon": 79.1923405
  },
  {
    "partId": 79030,
    "stateCode": "S12",
    "stateName": "Madhya Pradesh",
    "districtCode": "S1210",
    "districtName": "TIKAMGARH",
    "acNumber": 44,
    "acName": "JATARA",
    "partNumber": 46,
    "partName": "SHAHAPUR",
    "lat": 25.01113205,
    "lon": 79.06162499064969
  },
  {
    "partId": 79288,
    "stateCode": "S12",
    "stateName": "Madhya Pradesh",
    "districtCode": "S1210",
    "districtName": "TIKAMGARH",
    "acNumber": 44,
    "acName": "JATARA",
    "partNumber": 47,
    "partName": "SHAHPUR",
    "lat": 25.0143778,
    "lon": 78.94870911439021
  },
  {
    "partId": 79031,
    "stateCode": "S12",
    "stateName": "Madhya Pradesh",
    "districtCode": "S1210",
    "districtName": "TIKAMGARH",
    "acNumber": 44,
    "acName": "JATARA",
    "partNumber": 48,
    "partName": "PAITAPURA",
    "lat": 25.01113205,
    "lon": 79.06162499064969
  },
  {
    "partId": 79080,
    "stateCode": "S12",
    "stateName": "Madhya Pradesh",
    "districtCode": "S1210",
    "districtName": "TIKAMGARH",
    "acNumber": 44,
    "acName": "JATARA",
    "partNumber": 49,
    "partName": "PAITAPURA",
    "lat": 25.01113205,
    "lon": 79.06162499064969
  },
  {
    "partId": 79032,
    "stateCode": "S12",
    "stateName": "Madhya Pradesh",
    "districtCode": "S1210",
    "districtName": "TIKAMGARH",
    "acNumber": 44,
    "acName": "JATARA",
    "partNumber": 50,
    "partName": "PAITAPURA",
    "lat": 25.01113205,
    "lon": 79.06162499064969
  },
  {
    "partId": 79287,
    "stateCode": "S12",
    "stateName": "Madhya Pradesh",
    "districtCode": "S1210",
    "districtName": "TIKAMGARH",
    "acNumber": 44,
    "acName": "JATARA",
    "partNumber": 51,
    "partName": "PAITAPURA",
    "lat": 25.01113205,
    "lon": 79.06162499064969
  },
  {
    "partId": 79033,
    "stateCode": "S12",
    "stateName": "Madhya Pradesh",
    "districtCode": "S1210",
    "districtName": "TIKAMGARH",
    "acNumber": 44,
    "acName": "JATARA",
    "partNumber": 52,
    "partName": "RUPAGANJ",
    "lat": 25.010607188571427,
    "lon": 79.05167320655079
  },
  {
    "partId": 79034,
    "stateCode": "S12",
    "stateName": "Madhya Pradesh",
    "districtCode": "S1210",
    "districtName": "TIKAMGARH",
    "acNumber": 44,
    "acName": "JATARA",
    "partNumber": 53,
    "partName": "FATEH KA KHIRAK",
    "lat": 25.0710926,
    "lon": 78.946009
  },
  {
    "partId": 79035,
    "stateCode": "S12",
    "stateName": "Madhya Pradesh",
    "districtCode": "S1210",
    "districtName": "TIKAMGARH",
    "acNumber": 44,
    "acName": "JATARA",
    "partNumber": 54,
    "partName": "CHANDERA KHAS",
    "lat": 25.119666000000002,
    "lon": 78.98529595908704
  },
  {
    "partId": 79286,
    "stateCode": "S12",
    "stateName": "Madhya Pradesh",
    "districtCode": "S1210",
    "districtName": "TIKAMGARH",
    "acNumber": 44,
    "acName": "JATARA",
    "partNumber": 55,
    "partName": "CHANDERA KHAS",
    "lat": 25.119666000000002,
    "lon": 78.98529595908704
  },
  {
    "partId": 79036,
    "stateCode": "S12",
    "stateName": "Madhya Pradesh",
    "districtCode": "S1210",
    "districtName": "TIKAMGARH",
    "acNumber": 44,
    "acName": "JATARA",
    "partNumber": 56,
    "partName": "CHANDERA KHAS",
    "lat": 25.119666000000002,
    "lon": 78.98529595908704
  },
  {
    "partId": 79285,
    "stateCode": "S12",
    "stateName": "Madhya Pradesh",
    "districtCode": "S1210",
    "districtName": "TIKAMGARH",
    "acNumber": 44,
    "acName": "JATARA",
    "partNumber": 57,
    "partName": "CHANDERA KHAS",
    "lat": 25.119666000000002,
    "lon": 78.98529595908704
  },
  {
    "partId": 79037,
    "stateCode": "S12",
    "stateName": "Madhya Pradesh",
    "districtCode": "S1210",
    "districtName": "TIKAMGARH",
    "acNumber": 44,
    "acName": "JATARA",
    "partNumber": 58,
    "partName": "CHANDERA KHAS",
    "lat": 25.119666000000002,
    "lon": 78.98529595908704
  },
  {
    "partId": 79284,
    "stateCode": "S12",
    "stateName": "Madhya Pradesh",
    "districtCode": "S1210",
    "districtName": "TIKAMGARH",
    "acNumber": 44,
    "acName": "JATARA",
    "partNumber": 59,
    "partName": "CHANDERA KHAS",
    "lat": 25.119666000000002,
    "lon": 78.98529595908704
  },
  {
    "partId": 79038,
    "stateCode": "S12",
    "stateName": "Madhya Pradesh",
    "districtCode": "S1210",
    "districtName": "TIKAMGARH",
    "acNumber": 44,
    "acName": "JATARA",
    "partNumber": 60,
    "partName": "CHANDERA KHAS",
    "lat": 25.119666000000002,
    "lon": 78.98529595908704
  },
  {
    "partId": 79039,
    "stateCode": "S12",
    "stateName": "Madhya Pradesh",
    "districtCode": "S1210",
    "districtName": "TIKAMGARH",
    "acNumber": 44,
    "acName": "JATARA",
    "partNumber": 61,
    "partName": "CHANDERA KHAS",
    "lat": 25.119666000000002,
    "lon": 78.98529595908704
  },
  {
    "partId": 79283,
    "stateCode": "S12",
    "stateName": "Madhya Pradesh",
    "districtCode": "S1210",
    "districtName": "TIKAMGARH",
    "acNumber": 44,
    "acName": "JATARA",
    "partNumber": 62,
    "partName": "CHANDERA KHAS",
    "lat": 25.119666000000002,
    "lon": 78.98529595908704
  },
  {
    "partId": 79040,
    "stateCode": "S12",
    "stateName": "Madhya Pradesh",
    "districtCode": "S1210",
    "districtName": "TIKAMGARH",
    "acNumber": 44,
    "acName": "JATARA",
    "partNumber": 63,
    "partName": "PATHARI",
    "lat": 25.0640592,
    "lon": 78.99745685477424
  },
  {
    "partId": 79265,
    "stateCode": "S12",
    "stateName": "Madhya Pradesh",
    "districtCode": "S1210",
    "districtName": "TIKAMGARH",
    "acNumber": 44,
    "acName": "JATARA",
    "partNumber": 64,
    "partName": "PATHARI",
    "lat": 25.0640592,
    "lon": 78.99745685477424
  },
  {
    "partId": 79041,
    "stateCode": "S12",
    "stateName": "Madhya Pradesh",
    "districtCode": "S1210",
    "districtName": "TIKAMGARH",
    "acNumber": 44,
    "acName": "JATARA",
    "partNumber": 65,
    "partName": "SAGARAVARA",
    "lat": 25.01113205,
    "lon": 79.06162499064969
  },
  {
    "partId": 79321,
    "stateCode": "S12",
    "stateName": "Madhya Pradesh",
    "districtCode": "S1210",
    "districtName": "TIKAMGARH",
    "acNumber": 44,
    "acName": "JATARA",
    "partNumber": 66,
    "partName": "SAGARAVARA",
    "lat": 25.01113205,
    "lon": 79.06162499064969
  },
  {
    "partId": 79042,
    "stateCode": "S12",
    "stateName": "Madhya Pradesh",
    "districtCode": "S1210",
    "districtName": "TIKAMGARH",
    "acNumber": 44,
    "acName": "JATARA",
    "partNumber": 67,
    "partName": "UDAIPUR",
    "lat": 25.01113205,
    "lon": 79.06162499064969
  },
  {
    "partId": 79282,
    "stateCode": "S12",
    "stateName": "Madhya Pradesh",
    "districtCode": "S1210",
    "districtName": "TIKAMGARH",
    "acNumber": 44,
    "acName": "JATARA",
    "partNumber": 68,
    "partName": "UDAIPUR",
    "lat": 25.01113205,
    "lon": 79.06162499064969
  },
  {
    "partId": 79043,
    "stateCode": "S12",
    "stateName": "Madhya Pradesh",
    "districtCode": "S1210",
    "districtName": "TIKAMGARH",
    "acNumber": 44,
    "acName": "JATARA",
    "partNumber": 69,
    "partName": "MADORI",
    "lat": 24.87386585,
    "lon": 79.07080966631301
  },
  {
    "partId": 79045,
    "stateCode": "S12",
    "stateName": "Madhya Pradesh",
    "districtCode": "S1210",
    "districtName": "TIKAMGARH",
    "acNumber": 44,
    "acName": "JATARA",
    "partNumber": 70,
    "partName": "KHURARAMAPUR",
    "lat": 25.01113205,
    "lon": 79.06162499064969
  },
  {
    "partId": 79079,
    "stateCode": "S12",
    "stateName": "Madhya Pradesh",
    "districtCode": "S1210",
    "districtName": "TIKAMGARH",
    "acNumber": 44,
    "acName": "JATARA",
    "partNumber": 71,
    "partName": "NAGRI",
    "lat": 25.094514150000002,
    "lon": 79.03046242824408
  },
  {
    "partId": 79046,
    "stateCode": "S12",
    "stateName": "Madhya Pradesh",
    "districtCode": "S1210",
    "districtName": "TIKAMGARH",
    "acNumber": 44,
    "acName": "JATARA",
    "partNumber": 72,
    "partName": "VIRAPURA",
    "lat": 25.01113205,
    "lon": 79.06162499064969
  },
  {
    "partId": 79281,
    "stateCode": "S12",
    "stateName": "Madhya Pradesh",
    "districtCode": "S1210",
    "districtName": "TIKAMGARH",
    "acNumber": 44,
    "acName": "JATARA",
    "partNumber": 73,
    "partName": "VIRAPURA",
    "lat": 25.01113205,
    "lon": 79.06162499064969
  },
  {
    "partId": 79047,
    "stateCode": "S12",
    "stateName": "Madhya Pradesh",
    "districtCode": "S1210",
    "districtName": "TIKAMGARH",
    "acNumber": 44,
    "acName": "JATARA",
    "partNumber": 74,
    "partName": "DARIYAPURA",
    "lat": 25.1593638,
    "lon": 78.975688
  },
  {
    "partId": 79048,
    "stateCode": "S12",
    "stateName": "Madhya Pradesh",
    "districtCode": "S1210",
    "districtName": "TIKAMGARH",
    "acNumber": 44,
    "acName": "JATARA",
    "partNumber": 75,
    "partName": "KACHHIYAGUDA",
    "lat": 25.1275434,
    "lon": 78.9498432
  },
  {
    "partId": 79049,
    "stateCode": "S12",
    "stateName": "Madhya Pradesh",
    "districtCode": "S1210",
    "districtName": "TIKAMGARH",
    "acNumber": 44,
    "acName": "JATARA",
    "partNumber": 76,
    "partName": "KACHHIYAGUDA",
    "lat": 25.1275434,
    "lon": 78.9498432
  },
  {
    "partId": 79050,
    "stateCode": "S12",
    "stateName": "Madhya Pradesh",
    "districtCode": "S1210",
    "districtName": "TIKAMGARH",
    "acNumber": 44,
    "acName": "JATARA",
    "partNumber": 77,
    "partName": "SUNARAI",
    "lat": 25.01113205,
    "lon": 79.06162499064969
  },
  {
    "partId": 79051,
    "stateCode": "S12",
    "stateName": "Madhya Pradesh",
    "districtCode": "S1210",
    "districtName": "TIKAMGARH",
    "acNumber": 44,
    "acName": "JATARA",
    "partNumber": 78,
    "partName": "VARI",
    "lat": 25.01113205,
    "lon": 79.06162499064969
  },
  {
    "partId": 79052,
    "stateCode": "S12",
    "stateName": "Madhya Pradesh",
    "districtCode": "S1210",
    "districtName": "TIKAMGARH",
    "acNumber": 44,
    "acName": "JATARA",
    "partNumber": 79,
    "partName": "JARU",
    "lat": 25.01113205,
    "lon": 79.06162499064969
  },
  {
    "partId": 79053,
    "stateCode": "S12",
    "stateName": "Madhya Pradesh",
    "districtCode": "S1210",
    "districtName": "TIKAMGARH",
    "acNumber": 44,
    "acName": "JATARA",
    "partNumber": 80,
    "partName": "KHARON",
    "lat": 24.76467675,
    "lon": 79.16433203333006
  },
  {
    "partId": 79078,
    "stateCode": "S12",
    "stateName": "Madhya Pradesh",
    "districtCode": "S1210",
    "districtName": "TIKAMGARH",
    "acNumber": 44,
    "acName": "JATARA",
    "partNumber": 81,
    "partName": "KHARON",
    "lat": 24.76467675,
    "lon": 79.16433203333006
  },
  {
    "partId": 79054,
    "stateCode": "S12",
    "stateName": "Madhya Pradesh",
    "districtCode": "S1210",
    "districtName": "TIKAMGARH",
    "acNumber": 44,
    "acName": "JATARA",
    "partNumber": 82,
    "partName": "KHARON",
    "lat": 24.76467675,
    "lon": 79.16433203333006
  },
  {
    "partId": 79280,
    "stateCode": "S12",
    "stateName": "Madhya Pradesh",
    "districtCode": "S1210",
    "districtName": "TIKAMGARH",
    "acNumber": 44,
    "acName": "JATARA",
    "partNumber": 83,
    "partName": "KHARON",
    "lat": 24.76467675,
    "lon": 79.16433203333006
  },
  {
    "partId": 79260,
    "stateCode": "S12",
    "stateName": "Madhya Pradesh",
    "districtCode": "S1210",
    "districtName": "TIKAMGARH",
    "acNumber": 44,
    "acName": "JATARA",
    "partNumber": 84,
    "partName": "BHADREAI UDAIPUR",
    "lat": 25.01113205,
    "lon": 79.06162499064969
  },
  {
    "partId": 79322,
    "stateCode": "S12",
    "stateName": "Madhya Pradesh",
    "districtCode": "S1210",
    "districtName": "TIKAMGARH",
    "acNumber": 44,
    "acName": "JATARA",
    "partNumber": 85,
    "partName": "MAHEVACHAKR 3",
    "lat": 25.01113205,
    "lon": 79.06162499064969
  },
  {
    "partId": 79361,
    "stateCode": "S12",
    "stateName": "Madhya Pradesh",
    "districtCode": "S1210",
    "districtName": "TIKAMGARH",
    "acNumber": 44,
    "acName": "JATARA",
    "partNumber": 86,
    "partName": "MAHEVACHAKR 3",
    "lat": 25.01113205,
    "lon": 79.06162499064969
  },
  {
    "partId": 79235,
    "stateCode": "S12",
    "stateName": "Madhya Pradesh",
    "districtCode": "S1210",
    "districtName": "TIKAMGARH",
    "acNumber": 44,
    "acName": "JATARA",
    "partNumber": 87,
    "partName": "MAHEVA CHAKR 1",
    "lat": 25.01113205,
    "lon": 79.06162499064969
  },
  {
    "partId": 79360,
    "stateCode": "S12",
    "stateName": "Madhya Pradesh",
    "districtCode": "S1210",
    "districtName": "TIKAMGARH",
    "acNumber": 44,
    "acName": "JATARA",
    "partNumber": 88,
    "partName": "MAHEVA CHAKR 1",
    "lat": 25.01113205,
    "lon": 79.06162499064969
  },
  {
    "partId": 79236,
    "stateCode": "S12",
    "stateName": "Madhya Pradesh",
    "districtCode": "S1210",
    "districtName": "TIKAMGARH",
    "acNumber": 44,
    "acName": "JATARA",
    "partNumber": 89,
    "partName": "MAHEVA CHAKR 4",
    "lat": 25.01113205,
    "lon": 79.06162499064969
  },
  {
    "partId": 79237,
    "stateCode": "S12",
    "stateName": "Madhya Pradesh",
    "districtCode": "S1210",
    "districtName": "TIKAMGARH",
    "acNumber": 44,
    "acName": "JATARA",
    "partNumber": 90,
    "partName": "NUNA",
    "lat": 25.1878785,
    "lon": 78.99099103634671
  },
  {
    "partId": 79279,
    "stateCode": "S12",
    "stateName": "Madhya Pradesh",
    "districtCode": "S1210",
    "districtName": "TIKAMGARH",
    "acNumber": 44,
    "acName": "JATARA",
    "partNumber": 91,
    "partName": "NUNA",
    "lat": 25.1878785,
    "lon": 78.99099103634671
  },
  {
    "partId": 79238,
    "stateCode": "S12",
    "stateName": "Madhya Pradesh",
    "districtCode": "S1210",
    "districtName": "TIKAMGARH",
    "acNumber": 44,
    "acName": "JATARA",
    "partNumber": 92,
    "partName": "NUNA",
    "lat": 25.1878785,
    "lon": 78.99099103634671
  },
  {
    "partId": 79239,
    "stateCode": "S12",
    "stateName": "Madhya Pradesh",
    "districtCode": "S1210",
    "districtName": "TIKAMGARH",
    "acNumber": 44,
    "acName": "JATARA",
    "partNumber": 93,
    "partName": "MORAPARIYA",
    "lat": 25.01113205,
    "lon": 79.06162499064969
  },
  {
    "partId": 79240,
    "stateCode": "S12",
    "stateName": "Madhya Pradesh",
    "districtCode": "S1210",
    "districtName": "TIKAMGARH",
    "acNumber": 44,
    "acName": "JATARA",
    "partNumber": 94,
    "partName": "SYAVANI KHAS",
    "lat": 25.01113205,
    "lon": 79.06162499064969
  },
  {
    "partId": 79241,
    "stateCode": "S12",
    "stateName": "Madhya Pradesh",
    "districtCode": "S1210",
    "districtName": "TIKAMGARH",
    "acNumber": 44,
    "acName": "JATARA",
    "partNumber": 95,
    "partName": "SYAVANIKHAS",
    "lat": 25.01113205,
    "lon": 79.06162499064969
  },
  {
    "partId": 79323,
    "stateCode": "S12",
    "stateName": "Madhya Pradesh",
    "districtCode": "S1210",
    "districtName": "TIKAMGARH",
    "acNumber": 44,
    "acName": "JATARA",
    "partNumber": 96,
    "partName": "MAINDAVARA",
    "lat": 25.010607188571427,
    "lon": 79.05167320655079
  },
  {
    "partId": 79339,
    "stateCode": "S12",
    "stateName": "Madhya Pradesh",
    "districtCode": "S1210",
    "districtName": "TIKAMGARH",
    "acNumber": 44,
    "acName": "JATARA",
    "partNumber": 97,
    "partName": "MAINDAVARA",
    "lat": 25.010607188571427,
    "lon": 79.05167320655079
  },
  {
    "partId": 79264,
    "stateCode": "S12",
    "stateName": "Madhya Pradesh",
    "districtCode": "S1210",
    "districtName": "TIKAMGARH",
    "acNumber": 44,
    "acName": "JATARA",
    "partNumber": 98,
    "partName": "MAINDAVARA",
    "lat": 24.85521045,
    "lon": 79.04725459918899
  },
  {
    "partId": 79359,
    "stateCode": "S12",
    "stateName": "Madhya Pradesh",
    "districtCode": "S1210",
    "districtName": "TIKAMGARH",
    "acNumber": 44,
    "acName": "JATARA",
    "partNumber": 99,
    "partName": "MAINDAVARA",
    "lat": 25.01113205,
    "lon": 79.06162499064969
  },
  {
    "partId": 79340,
    "stateCode": "S12",
    "stateName": "Madhya Pradesh",
    "districtCode": "S1210",
    "districtName": "TIKAMGARH",
    "acNumber": 44,
    "acName": "JATARA",
    "partNumber": 100,
    "partName": "TAGEDI",
    "lat": 25.010607188571427,
    "lon": 79.05167320655079
  },
  {
    "partId": 79341,
    "stateCode": "S12",
    "stateName": "Madhya Pradesh",
    "districtCode": "S1210",
    "districtName": "TIKAMGARH",
    "acNumber": 44,
    "acName": "JATARA",
    "partNumber": 101,
    "partName": "UPARARA KHAS",
    "lat": 25.01113205,
    "lon": 79.06162499064969
  },
  {
    "partId": 79077,
    "stateCode": "S12",
    "stateName": "Madhya Pradesh",
    "districtCode": "S1210",
    "districtName": "TIKAMGARH",
    "acNumber": 44,
    "acName": "JATARA",
    "partNumber": 102,
    "partName": "UPARARA KHAS",
    "lat": 25.01113205,
    "lon": 79.06162499064969
  },
  {
    "partId": 79342,
    "stateCode": "S12",
    "stateName": "Madhya Pradesh",
    "districtCode": "S1210",
    "districtName": "TIKAMGARH",
    "acNumber": 44,
    "acName": "JATARA",
    "partNumber": 103,
    "partName": "UPARARA KHAS",
    "lat": 25.010607188571427,
    "lon": 79.05167320655079
  },
  {
    "partId": 79358,
    "stateCode": "S12",
    "stateName": "Madhya Pradesh",
    "districtCode": "S1210",
    "districtName": "TIKAMGARH",
    "acNumber": 44,
    "acName": "JATARA",
    "partNumber": 104,
    "partName": "BIJARAWAN",
    "lat": 25.010607188571427,
    "lon": 79.05167320655079
  },
  {
    "partId": 79343,
    "stateCode": "S12",
    "stateName": "Madhya Pradesh",
    "districtCode": "S1210",
    "districtName": "TIKAMGARH",
    "acNumber": 44,
    "acName": "JATARA",
    "partNumber": 105,
    "partName": "JEVAR",
    "lat": 25.01113205,
    "lon": 79.06162499064969
  },
  {
    "partId": 78983,
    "stateCode": "S12",
    "stateName": "Madhya Pradesh",
    "districtCode": "S1210",
    "districtName": "TIKAMGARH",
    "acNumber": 44,
    "acName": "JATARA",
    "partNumber": 106,
    "partName": "JEVAR",
    "lat": 25.010607188571427,
    "lon": 79.05167320655079
  },
  {
    "partId": 79344,
    "stateCode": "S12",
    "stateName": "Madhya Pradesh",
    "districtCode": "S1210",
    "districtName": "TIKAMGARH",
    "acNumber": 44,
    "acName": "JATARA",
    "partNumber": 107,
    "partName": "JEVAR",
    "lat": 25.01113205,
    "lon": 79.06162499064969
  },
  {
    "partId": 79345,
    "stateCode": "S12",
    "stateName": "Madhya Pradesh",
    "districtCode": "S1210",
    "districtName": "TIKAMGARH",
    "acNumber": 44,
    "acName": "JATARA",
    "partNumber": 108,
    "partName": "JEVAR",
    "lat": 25.01113205,
    "lon": 79.06162499064969
  },
  {
    "partId": 79076,
    "stateCode": "S12",
    "stateName": "Madhya Pradesh",
    "districtCode": "S1210",
    "districtName": "TIKAMGARH",
    "acNumber": 44,
    "acName": "JATARA",
    "partNumber": 109,
    "partName": "JEVAR",
    "lat": 25.01113205,
    "lon": 79.06162499064969
  },
  {
    "partId": 79346,
    "stateCode": "S12",
    "stateName": "Madhya Pradesh",
    "districtCode": "S1210",
    "districtName": "TIKAMGARH",
    "acNumber": 44,
    "acName": "JATARA",
    "partNumber": 110,
    "partName": "VISHANAPURA",
    "lat": 25.01113205,
    "lon": 79.06162499064969
  },
  {
    "partId": 79347,
    "stateCode": "S12",
    "stateName": "Madhya Pradesh",
    "districtCode": "S1210",
    "districtName": "TIKAMGARH",
    "acNumber": 44,
    "acName": "JATARA",
    "partNumber": 111,
    "partName": "HARAKANAPURA",
    "lat": 25.01113205,
    "lon": 79.06162499064969
  },
  {
    "partId": 79075,
    "stateCode": "S12",
    "stateName": "Madhya Pradesh",
    "districtCode": "S1210",
    "districtName": "TIKAMGARH",
    "acNumber": 44,
    "acName": "JATARA",
    "partNumber": 112,
    "partName": "HARAKANAPURA",
    "lat": 25.01113205,
    "lon": 79.06162499064969
  },
  {
    "partId": 79348,
    "stateCode": "S12",
    "stateName": "Madhya Pradesh",
    "districtCode": "S1210",
    "districtName": "TIKAMGARH",
    "acNumber": 44,
    "acName": "JATARA",
    "partNumber": 113,
    "partName": "VANAPURA",
    "lat": 25.01113205,
    "lon": 79.06162499064969
  },
  {
    "partId": 79349,
    "stateCode": "S12",
    "stateName": "Madhya Pradesh",
    "districtCode": "S1210",
    "districtName": "TIKAMGARH",
    "acNumber": 44,
    "acName": "JATARA",
    "partNumber": 114,
    "partName": "PACHOURA",
    "lat": 25.01113205,
    "lon": 79.06162499064969
  },
  {
    "partId": 79350,
    "stateCode": "S12",
    "stateName": "Madhya Pradesh",
    "districtCode": "S1210",
    "districtName": "TIKAMGARH",
    "acNumber": 44,
    "acName": "JATARA",
    "partNumber": 115,
    "partName": "BAVAI",
    "lat": 25.01113205,
    "lon": 79.06162499064969
  },
  {
    "partId": 78982,
    "stateCode": "S12",
    "stateName": "Madhya Pradesh",
    "districtCode": "S1210",
    "districtName": "TIKAMGARH",
    "acNumber": 44,
    "acName": "JATARA",
    "partNumber": 116,
    "partName": "ANANTPURA",
    "lat": 24.7790357,
    "lon": 78.8561908429115
  },
  {
    "partId": 79351,
    "stateCode": "S12",
    "stateName": "Madhya Pradesh",
    "districtCode": "S1210",
    "districtName": "TIKAMGARH",
    "acNumber": 44,
    "acName": "JATARA",
    "partNumber": 117,
    "partName": "PAHADI BUJURG",
    "lat": 25.1130291,
    "lon": 79.03875
  },
  {
    "partId": 79324,
    "stateCode": "S12",
    "stateName": "Madhya Pradesh",
    "districtCode": "S1210",
    "districtName": "TIKAMGARH",
    "acNumber": 44,
    "acName": "JATARA",
    "partNumber": 118,
    "partName": "PAHADI BUJURG",
    "lat": 25.1130291,
    "lon": 79.03875
  },
  {
    "partId": 79352,
    "stateCode": "S12",
    "stateName": "Madhya Pradesh",
    "districtCode": "S1210",
    "districtName": "TIKAMGARH",
    "acNumber": 44,
    "acName": "JATARA",
    "partNumber": 119,
    "partName": "MOUTHI",
    "lat": 25.01113205,
    "lon": 79.06162499064969
  },
  {
    "partId": 79353,
    "stateCode": "S12",
    "stateName": "Madhya Pradesh",
    "districtCode": "S1210",
    "districtName": "TIKAMGARH",
    "acNumber": 44,
    "acName": "JATARA",
    "partNumber": 120,
    "partName": "TILA NARAINI",
    "lat": 25.01113205,
    "lon": 79.06162499064969
  },
  {
    "partId": 79354,
    "stateCode": "S12",
    "stateName": "Madhya Pradesh",
    "districtCode": "S1210",
    "districtName": "TIKAMGARH",
    "acNumber": 44,
    "acName": "JATARA",
    "partNumber": 121,
    "partName": "KANERA",
    "lat": 25.17304925,
    "lon": 79.0867911539672
  },
  {
    "partId": 79276,
    "stateCode": "S12",
    "stateName": "Madhya Pradesh",
    "districtCode": "S1210",
    "districtName": "TIKAMGARH",
    "acNumber": 44,
    "acName": "JATARA",
    "partNumber": 122,
    "partName": "KANERA",
    "lat": 25.17304925,
    "lon": 79.0867911539672
  },
  {
    "partId": 78991,
    "stateCode": "S12",
    "stateName": "Madhya Pradesh",
    "districtCode": "S1210",
    "districtName": "TIKAMGARH",
    "acNumber": 44,
    "acName": "JATARA",
    "partNumber": 123,
    "partName": "BAMHOURIKALA",
    "lat": 25.01113205,
    "lon": 79.06162499064969
  },
  {
    "partId": 79074,
    "stateCode": "S12",
    "stateName": "Madhya Pradesh",
    "districtCode": "S1210",
    "districtName": "TIKAMGARH",
    "acNumber": 44,
    "acName": "JATARA",
    "partNumber": 124,
    "partName": "BAMHOURIKALA",
    "lat": 25.01113205,
    "lon": 79.06162499064969
  },
  {
    "partId": 78992,
    "stateCode": "S12",
    "stateName": "Madhya Pradesh",
    "districtCode": "S1210",
    "districtName": "TIKAMGARH",
    "acNumber": 44,
    "acName": "JATARA",
    "partNumber": 125,
    "partName": "BAMHOURIKALA",
    "lat": 25.01113205,
    "lon": 79.06162499064969
  },
  {
    "partId": 79073,
    "stateCode": "S12",
    "stateName": "Madhya Pradesh",
    "districtCode": "S1210",
    "districtName": "TIKAMGARH",
    "acNumber": 44,
    "acName": "JATARA",
    "partNumber": 126,
    "partName": "BAMHOURIKALA",
    "lat": 25.01113205,
    "lon": 79.06162499064969
  },
  {
    "partId": 78993,
    "stateCode": "S12",
    "stateName": "Madhya Pradesh",
    "districtCode": "S1210",
    "districtName": "TIKAMGARH",
    "acNumber": 44,
    "acName": "JATARA",
    "partNumber": 127,
    "partName": "BAMHOURIKALA",
    "lat": 25.01113205,
    "lon": 79.06162499064969
  },
  {
    "partId": 79357,
    "stateCode": "S12",
    "stateName": "Madhya Pradesh",
    "districtCode": "S1210",
    "districtName": "TIKAMGARH",
    "acNumber": 44,
    "acName": "JATARA",
    "partNumber": 128,
    "partName": "BAMHOURIKALA",
    "lat": 25.010607188571427,
    "lon": 79.05167320655079
  },
  {
    "partId": 78994,
    "stateCode": "S12",
    "stateName": "Madhya Pradesh",
    "districtCode": "S1210",
    "districtName": "TIKAMGARH",
    "acNumber": 44,
    "acName": "JATARA",
    "partNumber": 129,
    "partName": "BAMHOURIKALA",
    "lat": 25.01113205,
    "lon": 79.06162499064969
  },
  {
    "partId": 78995,
    "stateCode": "S12",
    "stateName": "Madhya Pradesh",
    "districtCode": "S1210",
    "districtName": "TIKAMGARH",
    "acNumber": 44,
    "acName": "JATARA",
    "partNumber": 130,
    "partName": "NIVORA",
    "lat": 25.01113205,
    "lon": 79.06162499064969
  },
  {
    "partId": 78996,
    "stateCode": "S12",
    "stateName": "Madhya Pradesh",
    "districtCode": "S1210",
    "districtName": "TIKAMGARH",
    "acNumber": 44,
    "acName": "JATARA",
    "partNumber": 131,
    "partName": "BHAGWANTPURA",
    "lat": 25.010607188571427,
    "lon": 79.05167320655079
  },
  {
    "partId": 78997,
    "stateCode": "S12",
    "stateName": "Madhya Pradesh",
    "districtCode": "S1210",
    "districtName": "TIKAMGARH",
    "acNumber": 44,
    "acName": "JATARA",
    "partNumber": 132,
    "partName": "JITAKORA",
    "lat": 25.01113205,
    "lon": 79.06162499064969
  },
  {
    "partId": 79325,
    "stateCode": "S12",
    "stateName": "Madhya Pradesh",
    "districtCode": "S1210",
    "districtName": "TIKAMGARH",
    "acNumber": 44,
    "acName": "JATARA",
    "partNumber": 133,
    "partName": "KANJANA",
    "lat": 25.0968582,
    "lon": 79.0645143
  },
  {
    "partId": 79338,
    "stateCode": "S12",
    "stateName": "Madhya Pradesh",
    "districtCode": "S1210",
    "districtName": "TIKAMGARH",
    "acNumber": 44,
    "acName": "JATARA",
    "partNumber": 134,
    "partName": "KANJANA",
    "lat": 25.0968582,
    "lon": 79.0645143
  },
  {
    "partId": 78998,
    "stateCode": "S12",
    "stateName": "Madhya Pradesh",
    "districtCode": "S1210",
    "districtName": "TIKAMGARH",
    "acNumber": 44,
    "acName": "JATARA",
    "partNumber": 135,
    "partName": "PURUSHOTTAMAPURA",
    "lat": 25.01113205,
    "lon": 79.06162499064969
  },
  {
    "partId": 78999,
    "stateCode": "S12",
    "stateName": "Madhya Pradesh",
    "districtCode": "S1210",
    "districtName": "TIKAMGARH",
    "acNumber": 44,
    "acName": "JATARA",
    "partNumber": 136,
    "partName": "KAKANAPURA",
    "lat": 25.01113205,
    "lon": 79.06162499064969
  },
  {
    "partId": 79000,
    "stateCode": "S12",
    "stateName": "Madhya Pradesh",
    "districtCode": "S1210",
    "districtName": "TIKAMGARH",
    "acNumber": 44,
    "acName": "JATARA",
    "partNumber": 137,
    "partName": "DINAU",
    "lat": 25.0536414,
    "lon": 79.06935436139759
  },
  {
    "partId": 79356,
    "stateCode": "S12",
    "stateName": "Madhya Pradesh",
    "districtCode": "S1210",
    "districtName": "TIKAMGARH",
    "acNumber": 44,
    "acName": "JATARA",
    "partNumber": 138,
    "partName": "DINAU",
    "lat": 25.0536414,
    "lon": 79.06935436139759
  },
  {
    "partId": 79001,
    "stateCode": "S12",
    "stateName": "Madhya Pradesh",
    "districtCode": "S1210",
    "districtName": "TIKAMGARH",
    "acNumber": 44,
    "acName": "JATARA",
    "partNumber": 139,
    "partName": "KHARAGUPURA",
    "lat": 25.01113205,
    "lon": 79.06162499064969
  },
  {
    "partId": 79002,
    "stateCode": "S12",
    "stateName": "Madhya Pradesh",
    "districtCode": "S1210",
    "districtName": "TIKAMGARH",
    "acNumber": 44,
    "acName": "JATARA",
    "partNumber": 140,
    "partName": "SIMARAKHURD",
    "lat": 25.01113205,
    "lon": 79.06162499064969
  },
  {
    "partId": 79003,
    "stateCode": "S12",
    "stateName": "Madhya Pradesh",
    "districtCode": "S1210",
    "districtName": "TIKAMGARH",
    "acNumber": 44,
    "acName": "JATARA",
    "partNumber": 141,
    "partName": "SIMARAKHURD",
    "lat": 25.01113205,
    "lon": 79.06162499064969
  },
  {
    "partId": 79263,
    "stateCode": "S12",
    "stateName": "Madhya Pradesh",
    "districtCode": "S1210",
    "districtName": "TIKAMGARH",
    "acNumber": 44,
    "acName": "JATARA",
    "partNumber": 142,
    "partName": "SIMARAKHURD",
    "lat": 24.85521045,
    "lon": 79.04725459918899
  },
  {
    "partId": 79004,
    "stateCode": "S12",
    "stateName": "Madhya Pradesh",
    "districtCode": "S1210",
    "districtName": "TIKAMGARH",
    "acNumber": 44,
    "acName": "JATARA",
    "partNumber": 143,
    "partName": "SIMARAKHURD",
    "lat": 25.01113205,
    "lon": 79.06162499064969
  },
  {
    "partId": 79085,
    "stateCode": "S12",
    "stateName": "Madhya Pradesh",
    "districtCode": "S1210",
    "districtName": "TIKAMGARH",
    "acNumber": 44,
    "acName": "JATARA",
    "partNumber": 144,
    "partName": "VARANA",
    "lat": 24.85521045,
    "lon": 79.04725459918899
  },
  {
    "partId": 79086,
    "stateCode": "S12",
    "stateName": "Madhya Pradesh",
    "districtCode": "S1210",
    "districtName": "TIKAMGARH",
    "acNumber": 44,
    "acName": "JATARA",
    "partNumber": 145,
    "partName": "VARANA",
    "lat": 25.0598906,
    "lon": 78.8224914
  },
  {
    "partId": 79087,
    "stateCode": "S12",
    "stateName": "Madhya Pradesh",
    "districtCode": "S1210",
    "districtName": "TIKAMGARH",
    "acNumber": 44,
    "acName": "JATARA",
    "partNumber": 146,
    "partName": "RATAVAS",
    "lat": 25.01113205,
    "lon": 79.06162499064969
  },
  {
    "partId": 79262,
    "stateCode": "S12",
    "stateName": "Madhya Pradesh",
    "districtCode": "S1210",
    "districtName": "TIKAMGARH",
    "acNumber": 44,
    "acName": "JATARA",
    "partNumber": 147,
    "partName": "RATAVAS",
    "lat": 25.01113205,
    "lon": 79.06162499064969
  },
  {
    "partId": 79326,
    "stateCode": "S12",
    "stateName": "Madhya Pradesh",
    "districtCode": "S1210",
    "districtName": "TIKAMGARH",
    "acNumber": 44,
    "acName": "JATARA",
    "partNumber": 148,
    "partName": "JARAYA",
    "lat": 25.01113205,
    "lon": 79.06162499064969
  },
  {
    "partId": 79088,
    "stateCode": "S12",
    "stateName": "Madhya Pradesh",
    "districtCode": "S1210",
    "districtName": "TIKAMGARH",
    "acNumber": 44,
    "acName": "JATARA",
    "partNumber": 149,
    "partName": "KALRA",
    "lat": 25.0976732,
    "lon": 79.0754812
  },
  {
    "partId": 79355,
    "stateCode": "S12",
    "stateName": "Madhya Pradesh",
    "districtCode": "S1210",
    "districtName": "TIKAMGARH",
    "acNumber": 44,
    "acName": "JATARA",
    "partNumber": 150,
    "partName": "KALRA",
    "lat": 25.0976732,
    "lon": 79.0754812
  },
  {
    "partId": 79089,
    "stateCode": "S12",
    "stateName": "Madhya Pradesh",
    "districtCode": "S1210",
    "districtName": "TIKAMGARH",
    "acNumber": 44,
    "acName": "JATARA",
    "partNumber": 151,
    "partName": "ITAYALI",
    "lat": 25.01113205,
    "lon": 79.06162499064969
  },
  {
    "partId": 79259,
    "stateCode": "S12",
    "stateName": "Madhya Pradesh",
    "districtCode": "S1210",
    "districtName": "TIKAMGARH",
    "acNumber": 44,
    "acName": "JATARA",
    "partNumber": 152,
    "partName": "ITAYALI",
    "lat": 25.01113205,
    "lon": 79.06162499064969
  },
  {
    "partId": 79090,
    "stateCode": "S12",
    "stateName": "Madhya Pradesh",
    "districtCode": "S1210",
    "districtName": "TIKAMGARH",
    "acNumber": 44,
    "acName": "JATARA",
    "partNumber": 153,
    "partName": "MAVAI",
    "lat": 25.01113205,
    "lon": 79.06162499064969
  },
  {
    "partId": 79091,
    "stateCode": "S12",
    "stateName": "Madhya Pradesh",
    "districtCode": "S1210",
    "districtName": "TIKAMGARH",
    "acNumber": 44,
    "acName": "JATARA",
    "partNumber": 154,
    "partName": "GADAREE",
    "lat": 25.01113205,
    "lon": 79.06162499064969
  },
  {
    "partId": 79092,
    "stateCode": "S12",
    "stateName": "Madhya Pradesh",
    "districtCode": "S1210",
    "districtName": "TIKAMGARH",
    "acNumber": 44,
    "acName": "JATARA",
    "partNumber": 155,
    "partName": "JAVAHARAPURA",
    "lat": 25.01113205,
    "lon": 79.06162499064969
  },
  {
    "partId": 79093,
    "stateCode": "S12",
    "stateName": "Madhya Pradesh",
    "districtCode": "S1210",
    "districtName": "TIKAMGARH",
    "acNumber": 44,
    "acName": "JATARA",
    "partNumber": 156,
    "partName": "KHAJARI",
    "lat": 25.01113205,
    "lon": 79.06162499064969
  },
  {
    "partId": 79337,
    "stateCode": "S12",
    "stateName": "Madhya Pradesh",
    "districtCode": "S1210",
    "districtName": "TIKAMGARH",
    "acNumber": 44,
    "acName": "JATARA",
    "partNumber": 157,
    "partName": "KHAJARI",
    "lat": 25.01113205,
    "lon": 79.06162499064969
  },
  {
    "partId": 79094,
    "stateCode": "S12",
    "stateName": "Madhya Pradesh",
    "districtCode": "S1210",
    "districtName": "TIKAMGARH",
    "acNumber": 44,
    "acName": "JATARA",
    "partNumber": 158,
    "partName": "CHHAIVALA",
    "lat": 25.01113205,
    "lon": 79.06162499064969
  },
  {
    "partId": 79095,
    "stateCode": "S12",
    "stateName": "Madhya Pradesh",
    "districtCode": "S1210",
    "districtName": "TIKAMGARH",
    "acNumber": 44,
    "acName": "JATARA",
    "partNumber": 159,
    "partName": "KHERA",
    "lat": 25.04674205,
    "lon": 79.25331078020822
  },
  {
    "partId": 79096,
    "stateCode": "S12",
    "stateName": "Madhya Pradesh",
    "districtCode": "S1210",
    "districtName": "TIKAMGARH",
    "acNumber": 44,
    "acName": "JATARA",
    "partNumber": 160,
    "partName": "VIJAYAPUR",
    "lat": 25.01113205,
    "lon": 79.06162499064969
  },
  {
    "partId": 79097,
    "stateCode": "S12",
    "stateName": "Madhya Pradesh",
    "districtCode": "S1210",
    "districtName": "TIKAMGARH",
    "acNumber": 44,
    "acName": "JATARA",
    "partNumber": 161,
    "partName": "GONA",
    "lat": 24.85521045,
    "lon": 79.04725459918899
  },
  {
    "partId": 79072,
    "stateCode": "S12",
    "stateName": "Madhya Pradesh",
    "districtCode": "S1210",
    "districtName": "TIKAMGARH",
    "acNumber": 44,
    "acName": "JATARA",
    "partNumber": 162,
    "partName": "GONA",
    "lat": 25.1136368,
    "lon": 79.318313
  },
  {
    "partId": 79098,
    "stateCode": "S12",
    "stateName": "Madhya Pradesh",
    "districtCode": "S1210",
    "districtName": "TIKAMGARH",
    "acNumber": 44,
    "acName": "JATARA",
    "partNumber": 163,
    "partName": "KAROULA",
    "lat": 24.85521045,
    "lon": 79.04725459918899
  },
  {
    "partId": 79258,
    "stateCode": "S12",
    "stateName": "Madhya Pradesh",
    "districtCode": "S1210",
    "districtName": "TIKAMGARH",
    "acNumber": 44,
    "acName": "JATARA",
    "partNumber": 164,
    "partName": "KAROULA",
    "lat": 25.01113205,
    "lon": 79.06162499064969
  },
  {
    "partId": 79099,
    "stateCode": "S12",
    "stateName": "Madhya Pradesh",
    "districtCode": "S1210",
    "districtName": "TIKAMGARH",
    "acNumber": 44,
    "acName": "JATARA",
    "partNumber": 165,
    "partName": "AJOKHAR",
    "lat": 25.11907905,
    "lon": 79.29218710900862
  },
  {
    "partId": 79100,
    "stateCode": "S12",
    "stateName": "Madhya Pradesh",
    "districtCode": "S1210",
    "districtName": "TIKAMGARH",
    "acNumber": 44,
    "acName": "JATARA",
    "partNumber": 166,
    "partName": "PARA",
    "lat": 24.85521045,
    "lon": 79.04725459918899
  },
  {
    "partId": 79071,
    "stateCode": "S12",
    "stateName": "Madhya Pradesh",
    "districtCode": "S1210",
    "districtName": "TIKAMGARH",
    "acNumber": 44,
    "acName": "JATARA",
    "partNumber": 167,
    "partName": "PARA",
    "lat": 25.10128535,
    "lon": 79.29093174503848
  },
  {
    "partId": 79327,
    "stateCode": "S12",
    "stateName": "Madhya Pradesh",
    "districtCode": "S1210",
    "districtName": "TIKAMGARH",
    "acNumber": 44,
    "acName": "JATARA",
    "partNumber": 168,
    "partName": "BHAGAVANTANAGAR",
    "lat": 25.01113205,
    "lon": 79.06162499064969
  },
  {
    "partId": 79101,
    "stateCode": "S12",
    "stateName": "Madhya Pradesh",
    "districtCode": "S1210",
    "districtName": "TIKAMGARH",
    "acNumber": 44,
    "acName": "JATARA",
    "partNumber": 169,
    "partName": "TORIYAKHAS",
    "lat": 25.01113205,
    "lon": 79.06162499064969
  },
  {
    "partId": 79070,
    "stateCode": "S12",
    "stateName": "Madhya Pradesh",
    "districtCode": "S1210",
    "districtName": "TIKAMGARH",
    "acNumber": 44,
    "acName": "JATARA",
    "partNumber": 170,
    "partName": "TORIYAKHAS",
    "lat": 25.01113205,
    "lon": 79.06162499064969
  },
  {
    "partId": 79102,
    "stateCode": "S12",
    "stateName": "Madhya Pradesh",
    "districtCode": "S1210",
    "districtName": "TIKAMGARH",
    "acNumber": 44,
    "acName": "JATARA",
    "partNumber": 171,
    "partName": "TORIYA KHAS",
    "lat": 25.01113205,
    "lon": 79.06162499064969
  },
  {
    "partId": 79063,
    "stateCode": "S12",
    "stateName": "Madhya Pradesh",
    "districtCode": "S1210",
    "districtName": "TIKAMGARH",
    "acNumber": 44,
    "acName": "JATARA",
    "partNumber": 172,
    "partName": "TORIYA KHAS",
    "lat": 25.01113205,
    "lon": 79.06162499064969
  },
  {
    "partId": 79103,
    "stateCode": "S12",
    "stateName": "Madhya Pradesh",
    "districtCode": "S1210",
    "districtName": "TIKAMGARH",
    "acNumber": 44,
    "acName": "JATARA",
    "partNumber": 173,
    "partName": "DARADOURA",
    "lat": 25.01113205,
    "lon": 79.06162499064969
  },
  {
    "partId": 79104,
    "stateCode": "S12",
    "stateName": "Madhya Pradesh",
    "districtCode": "S1210",
    "districtName": "TIKAMGARH",
    "acNumber": 44,
    "acName": "JATARA",
    "partNumber": 174,
    "partName": "KACHHORA KHAS",
    "lat": 25.0867394,
    "lon": 79.21617118777979
  },
  {
    "partId": 79105,
    "stateCode": "S12",
    "stateName": "Madhya Pradesh",
    "districtCode": "S1210",
    "districtName": "TIKAMGARH",
    "acNumber": 44,
    "acName": "JATARA",
    "partNumber": 175,
    "partName": "KACHHORA KHAS",
    "lat": 25.0867394,
    "lon": 79.21617118777979
  },
  {
    "partId": 79106,
    "stateCode": "S12",
    "stateName": "Madhya Pradesh",
    "districtCode": "S1210",
    "districtName": "TIKAMGARH",
    "acNumber": 44,
    "acName": "JATARA",
    "partNumber": 176,
    "partName": "KAPASI",
    "lat": 25.07163865,
    "lon": 79.16542534328943
  },
  {
    "partId": 79062,
    "stateCode": "S12",
    "stateName": "Madhya Pradesh",
    "districtCode": "S1210",
    "districtName": "TIKAMGARH",
    "acNumber": 44,
    "acName": "JATARA",
    "partNumber": 177,
    "partName": "KAPASI",
    "lat": 25.07163865,
    "lon": 79.16542534328943
  },
  {
    "partId": 79107,
    "stateCode": "S12",
    "stateName": "Madhya Pradesh",
    "districtCode": "S1210",
    "districtName": "TIKAMGARH",
    "acNumber": 44,
    "acName": "JATARA",
    "partNumber": 178,
    "partName": "KUDAYALA",
    "lat": 25.01113205,
    "lon": 79.06162499064969
  },
  {
    "partId": 79069,
    "stateCode": "S12",
    "stateName": "Madhya Pradesh",
    "districtCode": "S1210",
    "districtName": "TIKAMGARH",
    "acNumber": 44,
    "acName": "JATARA",
    "partNumber": 179,
    "partName": "KUDAYALA",
    "lat": 25.01113205,
    "lon": 79.06162499064969
  },
  {
    "partId": 79108,
    "stateCode": "S12",
    "stateName": "Madhya Pradesh",
    "districtCode": "S1210",
    "districtName": "TIKAMGARH",
    "acNumber": 44,
    "acName": "JATARA",
    "partNumber": 180,
    "partName": "GOVA",
    "lat": 25.01113205,
    "lon": 79.06162499064969
  },
  {
    "partId": 79242,
    "stateCode": "S12",
    "stateName": "Madhya Pradesh",
    "districtCode": "S1210",
    "districtName": "TIKAMGARH",
    "acNumber": 44,
    "acName": "JATARA",
    "partNumber": 181,
    "partName": "THAR",
    "lat": 25.038558899999998,
    "lon": 79.15595316309046
  },
  {
    "partId": 79243,
    "stateCode": "S12",
    "stateName": "Madhya Pradesh",
    "districtCode": "S1210",
    "districtName": "TIKAMGARH",
    "acNumber": 44,
    "acName": "JATARA",
    "partNumber": 182,
    "partName": "BAMHOURI ABDA",
    "lat": 25.01113205,
    "lon": 79.06162499064969
  },
  {
    "partId": 79336,
    "stateCode": "S12",
    "stateName": "Madhya Pradesh",
    "districtCode": "S1210",
    "districtName": "TIKAMGARH",
    "acNumber": 44,
    "acName": "JATARA",
    "partNumber": 183,
    "partName": "BAMHOURI ABDA",
    "lat": 25.01113205,
    "lon": 79.06162499064969
  },
  {
    "partId": 79328,
    "stateCode": "S12",
    "stateName": "Madhya Pradesh",
    "districtCode": "S1210",
    "districtName": "TIKAMGARH",
    "acNumber": 44,
    "acName": "JATARA",
    "partNumber": 184,
    "partName": "TANAGAN",
    "lat": 25.01113205,
    "lon": 79.06162499064969
  },
  {
    "partId": 79244,
    "stateCode": "S12",
    "stateName": "Madhya Pradesh",
    "districtCode": "S1210",
    "districtName": "TIKAMGARH",
    "acNumber": 44,
    "acName": "JATARA",
    "partNumber": 185,
    "partName": "TANAGA",
    "lat": 25.01113205,
    "lon": 79.06162499064969
  },
  {
    "partId": 79245,
    "stateCode": "S12",
    "stateName": "Madhya Pradesh",
    "districtCode": "S1210",
    "districtName": "TIKAMGARH",
    "acNumber": 44,
    "acName": "JATARA",
    "partNumber": 186,
    "partName": "DEVARAHA",
    "lat": 25.01113205,
    "lon": 79.06162499064969
  },
  {
    "partId": 79246,
    "stateCode": "S12",
    "stateName": "Madhya Pradesh",
    "districtCode": "S1210",
    "districtName": "TIKAMGARH",
    "acNumber": 44,
    "acName": "JATARA",
    "partNumber": 187,
    "partName": "DEVARAHA",
    "lat": 25.01113205,
    "lon": 79.06162499064969
  },
  {
    "partId": 79247,
    "stateCode": "S12",
    "stateName": "Madhya Pradesh",
    "districtCode": "S1210",
    "districtName": "TIKAMGARH",
    "acNumber": 44,
    "acName": "JATARA",
    "partNumber": 188,
    "partName": "RAMANAGAR KHURD",
    "lat": 25.01113205,
    "lon": 79.06162499064969
  },
  {
    "partId": 79248,
    "stateCode": "S12",
    "stateName": "Madhya Pradesh",
    "districtCode": "S1210",
    "districtName": "TIKAMGARH",
    "acNumber": 44,
    "acName": "JATARA",
    "partNumber": 189,
    "partName": "JATARA",
    "lat": 24.85521045,
    "lon": 79.04725459918899
  },
  {
    "partId": 79335,
    "stateCode": "S12",
    "stateName": "Madhya Pradesh",
    "districtCode": "S1210",
    "districtName": "TIKAMGARH",
    "acNumber": 44,
    "acName": "JATARA",
    "partNumber": 190,
    "partName": "JATARA",
    "lat": 25.01113205,
    "lon": 79.06162499064969
  },
  {
    "partId": 79249,
    "stateCode": "S12",
    "stateName": "Madhya Pradesh",
    "districtCode": "S1210",
    "districtName": "TIKAMGARH",
    "acNumber": 44,
    "acName": "JATARA",
    "partNumber": 191,
    "partName": "JATARA",
    "lat": 25.01113205,
    "lon": 79.06162499064969
  },
  {
    "partId": 79250,
    "stateCode": "S12",
    "stateName": "Madhya Pradesh",
    "districtCode": "S1210",
    "districtName": "TIKAMGARH",
    "acNumber": 44,
    "acName": "JATARA",
    "partNumber": 192,
    "partName": "JATARA",
    "lat": 25.01113205,
    "lon": 79.06162499064969
  },
  {
    "partId": 79251,
    "stateCode": "S12",
    "stateName": "Madhya Pradesh",
    "districtCode": "S1210",
    "districtName": "TIKAMGARH",
    "acNumber": 44,
    "acName": "JATARA",
    "partNumber": 193,
    "partName": "JATARA",
    "lat": 24.85521045,
    "lon": 79.04725459918899
  },
  {
    "partId": 79061,
    "stateCode": "S12",
    "stateName": "Madhya Pradesh",
    "districtCode": "S1210",
    "districtName": "TIKAMGARH",
    "acNumber": 44,
    "acName": "JATARA",
    "partNumber": 194,
    "partName": "JATARA",
    "lat": 25.01113205,
    "lon": 79.06162499064969
  },
  {
    "partId": 79252,
    "stateCode": "S12",
    "stateName": "Madhya Pradesh",
    "districtCode": "S1210",
    "districtName": "TIKAMGARH",
    "acNumber": 44,
    "acName": "JATARA",
    "partNumber": 195,
    "partName": "JATARA",
    "lat": 25.01113205,
    "lon": 79.06162499064969
  },
  {
    "partId": 79277,
    "stateCode": "S12",
    "stateName": "Madhya Pradesh",
    "districtCode": "S1210",
    "districtName": "TIKAMGARH",
    "acNumber": 44,
    "acName": "JATARA",
    "partNumber": 196,
    "partName": "JATARA",
    "lat": 25.01113205,
    "lon": 79.06162499064969
  },
  {
    "partId": 79253,
    "stateCode": "S12",
    "stateName": "Madhya Pradesh",
    "districtCode": "S1210",
    "districtName": "TIKAMGARH",
    "acNumber": 44,
    "acName": "JATARA",
    "partNumber": 197,
    "partName": "JATARA",
    "lat": 24.85521045,
    "lon": 79.04725459918899
  },
  {
    "partId": 79060,
    "stateCode": "S12",
    "stateName": "Madhya Pradesh",
    "districtCode": "S1210",
    "districtName": "TIKAMGARH",
    "acNumber": 44,
    "acName": "JATARA",
    "partNumber": 198,
    "partName": "JATARA",
    "lat": 25.01113205,
    "lon": 79.06162499064969
  },
  {
    "partId": 79254,
    "stateCode": "S12",
    "stateName": "Madhya Pradesh",
    "districtCode": "S1210",
    "districtName": "TIKAMGARH",
    "acNumber": 44,
    "acName": "JATARA",
    "partNumber": 199,
    "partName": "JATARA",
    "lat": 25.01113205,
    "lon": 79.06162499064969
  },
  {
    "partId": 79255,
    "stateCode": "S12",
    "stateName": "Madhya Pradesh",
    "districtCode": "S1210",
    "districtName": "TIKAMGARH",
    "acNumber": 44,
    "acName": "JATARA",
    "partNumber": 200,
    "partName": "JATARA",
    "lat": 25.01113205,
    "lon": 79.06162499064969
  },
  {
    "partId": 79068,
    "stateCode": "S12",
    "stateName": "Madhya Pradesh",
    "districtCode": "S1210",
    "districtName": "TIKAMGARH",
    "acNumber": 44,
    "acName": "JATARA",
    "partNumber": 201,
    "partName": "JATARA",
    "lat": 25.01113205,
    "lon": 79.06162499064969
  },
  {
    "partId": 79334,
    "stateCode": "S12",
    "stateName": "Madhya Pradesh",
    "districtCode": "S1210",
    "districtName": "TIKAMGARH",
    "acNumber": 44,
    "acName": "JATARA",
    "partNumber": 202,
    "partName": "JATARA",
    "lat": 25.01113205,
    "lon": 79.06162499064969
  },
  {
    "partId": 79256,
    "stateCode": "S12",
    "stateName": "Madhya Pradesh",
    "districtCode": "S1210",
    "districtName": "TIKAMGARH",
    "acNumber": 44,
    "acName": "JATARA",
    "partNumber": 203,
    "partName": "JATARA",
    "lat": 25.01113205,
    "lon": 79.06162499064969
  },
  {
    "partId": 79257,
    "stateCode": "S12",
    "stateName": "Madhya Pradesh",
    "districtCode": "S1210",
    "districtName": "TIKAMGARH",
    "acNumber": 44,
    "acName": "JATARA",
    "partNumber": 204,
    "partName": "MACHOURA",
    "lat": 25.01113205,
    "lon": 79.06162499064969
  },
  {
    "partId": 79308,
    "stateCode": "S12",
    "stateName": "Madhya Pradesh",
    "districtCode": "S1210",
    "districtName": "TIKAMGARH",
    "acNumber": 44,
    "acName": "JATARA",
    "partNumber": 205,
    "partName": "GANDHI GRAM",
    "lat": 25.01113205,
    "lon": 79.06162499064969
  },
  {
    "partId": 79059,
    "stateCode": "S12",
    "stateName": "Madhya Pradesh",
    "districtCode": "S1210",
    "districtName": "TIKAMGARH",
    "acNumber": 44,
    "acName": "JATARA",
    "partNumber": 206,
    "partName": "GANDHI GRAM",
    "lat": 25.01113205,
    "lon": 79.06162499064969
  },
  {
    "partId": 79309,
    "stateCode": "S12",
    "stateName": "Madhya Pradesh",
    "districtCode": "S1210",
    "districtName": "TIKAMGARH",
    "acNumber": 44,
    "acName": "JATARA",
    "partNumber": 207,
    "partName": "SIMARIYA",
    "lat": 24.9520213,
    "lon": 79.0658957
  },
  {
    "partId": 79310,
    "stateCode": "S12",
    "stateName": "Madhya Pradesh",
    "districtCode": "S1210",
    "districtName": "TIKAMGARH",
    "acNumber": 44,
    "acName": "JATARA",
    "partNumber": 208,
    "partName": "GUDANADI",
    "lat": 25.01113205,
    "lon": 79.06162499064969
  },
  {
    "partId": 79311,
    "stateCode": "S12",
    "stateName": "Madhya Pradesh",
    "districtCode": "S1210",
    "districtName": "TIKAMGARH",
    "acNumber": 44,
    "acName": "JATARA",
    "partNumber": 209,
    "partName": "BALDEVAPURA",
    "lat": 25.01113205,
    "lon": 79.06162499064969
  },
  {
    "partId": 79329,
    "stateCode": "S12",
    "stateName": "Madhya Pradesh",
    "districtCode": "S1210",
    "districtName": "TIKAMGARH",
    "acNumber": 44,
    "acName": "JATARA",
    "partNumber": 210,
    "partName": "KARAMOURA",
    "lat": 25.01113205,
    "lon": 79.06162499064969
  },
  {
    "partId": 79333,
    "stateCode": "S12",
    "stateName": "Madhya Pradesh",
    "districtCode": "S1210",
    "districtName": "TIKAMGARH",
    "acNumber": 44,
    "acName": "JATARA",
    "partNumber": 211,
    "partName": "KARAMOURA",
    "lat": 25.01113205,
    "lon": 79.06162499064969
  },
  {
    "partId": 79312,
    "stateCode": "S12",
    "stateName": "Madhya Pradesh",
    "districtCode": "S1210",
    "districtName": "TIKAMGARH",
    "acNumber": 44,
    "acName": "JATARA",
    "partNumber": 212,
    "partName": "KADAVAN",
    "lat": 25.01113205,
    "lon": 79.06162499064969
  },
  {
    "partId": 79058,
    "stateCode": "S12",
    "stateName": "Madhya Pradesh",
    "districtCode": "S1210",
    "districtName": "TIKAMGARH",
    "acNumber": 44,
    "acName": "JATARA",
    "partNumber": 213,
    "partName": "KADAVAN",
    "lat": 25.01113205,
    "lon": 79.06162499064969
  },
  {
    "partId": 79313,
    "stateCode": "S12",
    "stateName": "Madhya Pradesh",
    "districtCode": "S1210",
    "districtName": "TIKAMGARH",
    "acNumber": 44,
    "acName": "JATARA",
    "partNumber": 214,
    "partName": "MANCHI",
    "lat": 24.9595496,
    "lon": 79.0072332
  },
  {
    "partId": 79067,
    "stateCode": "S12",
    "stateName": "Madhya Pradesh",
    "districtCode": "S1210",
    "districtName": "TIKAMGARH",
    "acNumber": 44,
    "acName": "JATARA",
    "partNumber": 215,
    "partName": "MANCHI",
    "lat": 24.9595496,
    "lon": 79.0072332
  },
  {
    "partId": 79314,
    "stateCode": "S12",
    "stateName": "Madhya Pradesh",
    "districtCode": "S1210",
    "districtName": "TIKAMGARH",
    "acNumber": 44,
    "acName": "JATARA",
    "partNumber": 216,
    "partName": "MANCHI",
    "lat": 24.9595496,
    "lon": 79.0072332
  },
  {
    "partId": 79057,
    "stateCode": "S12",
    "stateName": "Madhya Pradesh",
    "districtCode": "S1210",
    "districtName": "TIKAMGARH",
    "acNumber": 44,
    "acName": "JATARA",
    "partNumber": 217,
    "partName": "PIPRAT",
    "lat": 24.85521045,
    "lon": 79.04725459918899
  },
  {
    "partId": 79315,
    "stateCode": "S12",
    "stateName": "Madhya Pradesh",
    "districtCode": "S1210",
    "districtName": "TIKAMGARH",
    "acNumber": 44,
    "acName": "JATARA",
    "partNumber": 218,
    "partName": "BAIRAVAR",
    "lat": 25.01113205,
    "lon": 79.06162499064969
  },
  {
    "partId": 79294,
    "stateCode": "S12",
    "stateName": "Madhya Pradesh",
    "districtCode": "S1210",
    "districtName": "TIKAMGARH",
    "acNumber": 44,
    "acName": "JATARA",
    "partNumber": 219,
    "partName": "BAIRAVAR",
    "lat": 25.01113205,
    "lon": 79.06162499064969
  },
  {
    "partId": 79066,
    "stateCode": "S12",
    "stateName": "Madhya Pradesh",
    "districtCode": "S1210",
    "districtName": "TIKAMGARH",
    "acNumber": 44,
    "acName": "JATARA",
    "partNumber": 220,
    "partName": "BAIRAVAR",
    "lat": 25.01113205,
    "lon": 79.06162499064969
  },
  {
    "partId": 79295,
    "stateCode": "S12",
    "stateName": "Madhya Pradesh",
    "districtCode": "S1210",
    "districtName": "TIKAMGARH",
    "acNumber": 44,
    "acName": "JATARA",
    "partNumber": 221,
    "partName": "BAIRAVAR",
    "lat": 25.01113205,
    "lon": 79.06162499064969
  },
  {
    "partId": 79056,
    "stateCode": "S12",
    "stateName": "Madhya Pradesh",
    "districtCode": "S1210",
    "districtName": "TIKAMGARH",
    "acNumber": 44,
    "acName": "JATARA",
    "partNumber": 222,
    "partName": "BADARGUDA",
    "lat": 25.01113205,
    "lon": 79.06162499064969
  },
  {
    "partId": 79296,
    "stateCode": "S12",
    "stateName": "Madhya Pradesh",
    "districtCode": "S1210",
    "districtName": "TIKAMGARH",
    "acNumber": 44,
    "acName": "JATARA",
    "partNumber": 223,
    "partName": "LIDHOURATAL",
    "lat": 25.01113205,
    "lon": 79.06162499064969
  },
  {
    "partId": 79269,
    "stateCode": "S12",
    "stateName": "Madhya Pradesh",
    "districtCode": "S1210",
    "districtName": "TIKAMGARH",
    "acNumber": 44,
    "acName": "JATARA",
    "partNumber": 224,
    "partName": "LIDHOURATAL",
    "lat": 25.01113205,
    "lon": 79.06162499064969
  },
  {
    "partId": 79055,
    "stateCode": "S12",
    "stateName": "Madhya Pradesh",
    "districtCode": "S1210",
    "districtName": "TIKAMGARH",
    "acNumber": 44,
    "acName": "JATARA",
    "partNumber": 225,
    "partName": "LIDHOURATAL",
    "lat": 25.01113205,
    "lon": 79.06162499064969
  },
  {
    "partId": 79270,
    "stateCode": "S12",
    "stateName": "Madhya Pradesh",
    "districtCode": "S1210",
    "districtName": "TIKAMGARH",
    "acNumber": 44,
    "acName": "JATARA",
    "partNumber": 226,
    "partName": "BAGOURA",
    "lat": 25.0264428,
    "lon": 79.0367621
  },
  {
    "partId": 78987,
    "stateCode": "S12",
    "stateName": "Madhya Pradesh",
    "districtCode": "S1210",
    "districtName": "TIKAMGARH",
    "acNumber": 44,
    "acName": "JATARA",
    "partNumber": 227,
    "partName": "BAGOURA",
    "lat": 25.0264428,
    "lon": 79.0367621
  },
  {
    "partId": 79330,
    "stateCode": "S12",
    "stateName": "Madhya Pradesh",
    "districtCode": "S1210",
    "districtName": "TIKAMGARH",
    "acNumber": 44,
    "acName": "JATARA",
    "partNumber": 228,
    "partName": "SHAH",
    "lat": 25.03288295,
    "lon": 79.01378882320694
  },
  {
    "partId": 79271,
    "stateCode": "S12",
    "stateName": "Madhya Pradesh",
    "districtCode": "S1210",
    "districtName": "TIKAMGARH",
    "acNumber": 44,
    "acName": "JATARA",
    "partNumber": 229,
    "partName": "SHAH",
    "lat": 25.03288295,
    "lon": 79.01378882320694
  },
  {
    "partId": 79272,
    "stateCode": "S12",
    "stateName": "Madhya Pradesh",
    "districtCode": "S1210",
    "districtName": "TIKAMGARH",
    "acNumber": 44,
    "acName": "JATARA",
    "partNumber": 230,
    "partName": "BAJITAPURA",
    "lat": 25.01113205,
    "lon": 79.06162499064969
  },
  {
    "partId": 78986,
    "stateCode": "S12",
    "stateName": "Madhya Pradesh",
    "districtCode": "S1210",
    "districtName": "TIKAMGARH",
    "acNumber": 44,
    "acName": "JATARA",
    "partNumber": 231,
    "partName": "BAJITAPURA",
    "lat": 25.01113205,
    "lon": 79.06162499064969
  },
  {
    "partId": 79273,
    "stateCode": "S12",
    "stateName": "Madhya Pradesh",
    "districtCode": "S1210",
    "districtName": "TIKAMGARH",
    "acNumber": 44,
    "acName": "JATARA",
    "partNumber": 232,
    "partName": "GARAULI",
    "lat": 25.01113205,
    "lon": 79.06162499064969
  },
  {
    "partId": 79274,
    "stateCode": "S12",
    "stateName": "Madhya Pradesh",
    "districtCode": "S1210",
    "districtName": "TIKAMGARH",
    "acNumber": 44,
    "acName": "JATARA",
    "partNumber": 233,
    "partName": "VIJARAUTHA",
    "lat": 24.85521045,
    "lon": 79.04725459918899
  },
  {
    "partId": 79275,
    "stateCode": "S12",
    "stateName": "Madhya Pradesh",
    "districtCode": "S1210",
    "districtName": "TIKAMGARH",
    "acNumber": 44,
    "acName": "JATARA",
    "partNumber": 234,
    "partName": "MUHARAKHAS",
    "lat": 24.85521045,
    "lon": 79.04725459918899
  },
  {
    "partId": 79261,
    "stateCode": "S12",
    "stateName": "Madhya Pradesh",
    "districtCode": "S1210",
    "districtName": "TIKAMGARH",
    "acNumber": 44,
    "acName": "JATARA",
    "partNumber": 235,
    "partName": "MUHARAKHAS",
    "lat": 25.01113205,
    "lon": 79.06162499064969
  },
  {
    "partId": 79297,
    "stateCode": "S12",
    "stateName": "Madhya Pradesh",
    "districtCode": "S1210",
    "districtName": "TIKAMGARH",
    "acNumber": 44,
    "acName": "JATARA",
    "partNumber": 236,
    "partName": "MUHARAKHAS",
    "lat": 25.01113205,
    "lon": 79.06162499064969
  },
  {
    "partId": 79298,
    "stateCode": "S12",
    "stateName": "Madhya Pradesh",
    "districtCode": "S1210",
    "districtName": "TIKAMGARH",
    "acNumber": 44,
    "acName": "JATARA",
    "partNumber": 237,
    "partName": "MUHARAKHAS",
    "lat": 25.01113205,
    "lon": 79.06162499064969
  },
  {
    "partId": 79299,
    "stateCode": "S12",
    "stateName": "Madhya Pradesh",
    "districtCode": "S1210",
    "districtName": "TIKAMGARH",
    "acNumber": 44,
    "acName": "JATARA",
    "partNumber": 238,
    "partName": "MUHARAKHAS",
    "lat": 25.01113205,
    "lon": 79.06162499064969
  },
  {
    "partId": 78985,
    "stateCode": "S12",
    "stateName": "Madhya Pradesh",
    "districtCode": "S1210",
    "districtName": "TIKAMGARH",
    "acNumber": 44,
    "acName": "JATARA",
    "partNumber": 239,
    "partName": "MUHARAKHAS",
    "lat": 25.01113205,
    "lon": 79.06162499064969
  },
  {
    "partId": 79300,
    "stateCode": "S12",
    "stateName": "Madhya Pradesh",
    "districtCode": "S1210",
    "districtName": "TIKAMGARH",
    "acNumber": 44,
    "acName": "JATARA",
    "partNumber": 240,
    "partName": "VIKRAMAPURA",
    "lat": 25.01113205,
    "lon": 79.06162499064969
  },
  {
    "partId": 79301,
    "stateCode": "S12",
    "stateName": "Madhya Pradesh",
    "districtCode": "S1210",
    "districtName": "TIKAMGARH",
    "acNumber": 44,
    "acName": "JATARA",
    "partNumber": 241,
    "partName": "KUVARAPURA",
    "lat": 25.01113205,
    "lon": 79.06162499064969
  },
  {
    "partId": 79302,
    "stateCode": "S12",
    "stateName": "Madhya Pradesh",
    "districtCode": "S1210",
    "districtName": "TIKAMGARH",
    "acNumber": 44,
    "acName": "JATARA",
    "partNumber": 242,
    "partName": "BAIDAPUR",
    "lat": 25.01113205,
    "lon": 79.06162499064969
  },
  {
    "partId": 79331,
    "stateCode": "S12",
    "stateName": "Madhya Pradesh",
    "districtCode": "S1210",
    "districtName": "TIKAMGARH",
    "acNumber": 44,
    "acName": "JATARA",
    "partNumber": 243,
    "partName": "CHANDAPURA",
    "lat": 25.01113205,
    "lon": 79.06162499064969
  },
  {
    "partId": 79065,
    "stateCode": "S12",
    "stateName": "Madhya Pradesh",
    "districtCode": "S1210",
    "districtName": "TIKAMGARH",
    "acNumber": 44,
    "acName": "JATARA",
    "partNumber": 244,
    "partName": "CHANDAPURA",
    "lat": 25.01113205,
    "lon": 79.06162499064969
  },
  {
    "partId": 79303,
    "stateCode": "S12",
    "stateName": "Madhya Pradesh",
    "districtCode": "S1210",
    "districtName": "TIKAMGARH",
    "acNumber": 44,
    "acName": "JATARA",
    "partNumber": 245,
    "partName": "KAMALANAGAR",
    "lat": 24.85521045,
    "lon": 79.04725459918899
  },
  {
    "partId": 79304,
    "stateCode": "S12",
    "stateName": "Madhya Pradesh",
    "districtCode": "S1210",
    "districtName": "TIKAMGARH",
    "acNumber": 44,
    "acName": "JATARA",
    "partNumber": 246,
    "partName": "CHATURAKARI",
    "lat": 25.01113205,
    "lon": 79.06162499064969
  },
  {
    "partId": 79305,
    "stateCode": "S12",
    "stateName": "Madhya Pradesh",
    "districtCode": "S1210",
    "districtName": "TIKAMGARH",
    "acNumber": 44,
    "acName": "JATARA",
    "partNumber": 247,
    "partName": "RAMGARH",
    "lat": 24.85521045,
    "lon": 79.04725459918899
  },
  {
    "partId": 79306,
    "stateCode": "S12",
    "stateName": "Madhya Pradesh",
    "districtCode": "S1210",
    "districtName": "TIKAMGARH",
    "acNumber": 44,
    "acName": "JATARA",
    "partNumber": 248,
    "partName": "HARAPURA",
    "lat": 25.01113205,
    "lon": 79.06162499064969
  },
  {
    "partId": 79307,
    "stateCode": "S12",
    "stateName": "Madhya Pradesh",
    "districtCode": "S1210",
    "districtName": "TIKAMGARH",
    "acNumber": 44,
    "acName": "JATARA",
    "partNumber": 249,
    "partName": "SHIVPURA",
    "lat": 24.917523699999997,
    "lon": 78.99000416390328
  },
  {
    "partId": 79316,
    "stateCode": "S12",
    "stateName": "Madhya Pradesh",
    "districtCode": "S1210",
    "districtName": "TIKAMGARH",
    "acNumber": 44,
    "acName": "JATARA",
    "partNumber": 250,
    "partName": "PATHARA",
    "lat": 25.01113205,
    "lon": 79.06162499064969
  },
  {
    "partId": 79317,
    "stateCode": "S12",
    "stateName": "Madhya Pradesh",
    "districtCode": "S1210",
    "districtName": "TIKAMGARH",
    "acNumber": 44,
    "acName": "JATARA",
    "partNumber": 251,
    "partName": "HRIDAYANAGAR",
    "lat": 24.85521045,
    "lon": 79.04725459918899
  },
  {
    "partId": 79318,
    "stateCode": "S12",
    "stateName": "Madhya Pradesh",
    "districtCode": "S1210",
    "districtName": "TIKAMGARH",
    "acNumber": 44,
    "acName": "JATARA",
    "partNumber": 252,
    "partName": "LAHARKHURD",
    "lat": 25.01113205,
    "lon": 79.06162499064969
  },
  {
    "partId": 79064,
    "stateCode": "S12",
    "stateName": "Madhya Pradesh",
    "districtCode": "S1210",
    "districtName": "TIKAMGARH",
    "acNumber": 44,
    "acName": "JATARA",
    "partNumber": 253,
    "partName": "LAHARKHURD",
    "lat": 25.01113205,
    "lon": 79.06162499064969
  },
  {
    "partId": 79319,
    "stateCode": "S12",
    "stateName": "Madhya Pradesh",
    "districtCode": "S1210",
    "districtName": "TIKAMGARH",
    "acNumber": 44,
    "acName": "JATARA",
    "partNumber": 254,
    "partName": "JARU",
    "lat": 25.01113205,
    "lon": 79.06162499064969
  },
  {
    "partId": 79332,
    "stateCode": "S12",
    "stateName": "Madhya Pradesh",
    "districtCode": "S1210",
    "districtName": "TIKAMGARH",
    "acNumber": 44,
    "acName": "JATARA",
    "partNumber": 255,
    "partName": "JARU",
    "lat": 25.01113205,
    "lon": 79.06162499064969
  },
  {
    "partId": 78984,
    "stateCode": "S12",
    "stateName": "Madhya Pradesh",
    "districtCode": "S1210",
    "districtName": "TIKAMGARH",
    "acNumber": 44,
    "acName": "JATARA",
    "partNumber": 256,
    "partName": "JARU",
    "lat": 25.01113205,
    "lon": 79.06162499064969
  },
  {
    "partId": 8283,
    "stateCode": "S12",
    "stateName": "Madhya Pradesh",
    "districtCode": "S1210",
    "districtName": "TIKAMGARH",
    "acNumber": 47,
    "acName": "KHARGAPUR",
    "partNumber": 1,
    "partName": "BHATAGORA",
    "lat": 24.85521045,
    "lon": 79.04725459918899
  },
  {
    "partId": 60204,
    "stateCode": "S12",
    "stateName": "Madhya Pradesh",
    "districtCode": "S1210",
    "districtName": "TIKAMGARH",
    "acNumber": 47,
    "acName": "KHARGAPUR",
    "partNumber": 2,
    "partName": "PHULPUR",
    "lat": 24.85521045,
    "lon": 79.04725459918899
  },
  {
    "partId": 8284,
    "stateCode": "S12",
    "stateName": "Madhya Pradesh",
    "districtCode": "S1210",
    "districtName": "TIKAMGARH",
    "acNumber": 47,
    "acName": "KHARGAPUR",
    "partNumber": 3,
    "partName": "MAGARAI",
    "lat": 24.82087215,
    "lon": 79.1347042409219
  },
  {
    "partId": 8285,
    "stateCode": "S12",
    "stateName": "Madhya Pradesh",
    "districtCode": "S1210",
    "districtName": "TIKAMGARH",
    "acNumber": 47,
    "acName": "KHARGAPUR",
    "partNumber": 4,
    "partName": "MAGARAI",
    "lat": 24.82087215,
    "lon": 79.1347042409219
  },
  {
    "partId": 63648,
    "stateCode": "S12",
    "stateName": "Madhya Pradesh",
    "districtCode": "S1210",
    "districtName": "TIKAMGARH",
    "acNumber": 47,
    "acName": "KHARGAPUR",
    "partNumber": 5,
    "partName": "ALOPA",
    "lat": 24.9172857,
    "lon": 79.14948533662836
  },
  {
    "partId": 63649,
    "stateCode": "S12",
    "stateName": "Madhya Pradesh",
    "districtCode": "S1210",
    "districtName": "TIKAMGARH",
    "acNumber": 47,
    "acName": "KHARGAPUR",
    "partNumber": 6,
    "partName": "RATANAGUNVA",
    "lat": 24.82087215,
    "lon": 79.1347042409219
  },
  {
    "partId": 63650,
    "stateCode": "S12",
    "stateName": "Madhya Pradesh",
    "districtCode": "S1210",
    "districtName": "TIKAMGARH",
    "acNumber": 47,
    "acName": "KHARGAPUR",
    "partNumber": 7,
    "partName": "PALI",
    "lat": 24.94748175,
    "lon": 79.13421788673526
  },
  {
    "partId": 60201,
    "stateCode": "S12",
    "stateName": "Madhya Pradesh",
    "districtCode": "S1210",
    "districtName": "TIKAMGARH",
    "acNumber": 47,
    "acName": "KHARGAPUR",
    "partNumber": 8,
    "partName": "PALI",
    "lat": 24.94748175,
    "lon": 79.13421788673526
  },
  {
    "partId": 63672,
    "stateCode": "S12",
    "stateName": "Madhya Pradesh",
    "districtCode": "S1210",
    "districtName": "TIKAMGARH",
    "acNumber": 47,
    "acName": "KHARGAPUR",
    "partNumber": 9,
    "partName": "GUDA NAJADI.PALI",
    "lat": 24.82087215,
    "lon": 79.1347042409219
  },
  {
    "partId": 21806,
    "stateCode": "S12",
    "stateName": "Madhya Pradesh",
    "districtCode": "S1210",
    "districtName": "TIKAMGARH",
    "acNumber": 47,
    "acName": "KHARGAPUR",
    "partNumber": 10,
    "partName": "RAJPURA",
    "lat": 24.7340459,
    "lon": 79.0656606
  },
  {
    "partId": 15715,
    "stateCode": "S12",
    "stateName": "Madhya Pradesh",
    "districtCode": "S1210",
    "districtName": "TIKAMGARH",
    "acNumber": 47,
    "acName": "KHARGAPUR",
    "partNumber": 11,
    "partName": "RAMPURA NAJ.NIVAVARI",
    "lat": 24.82087215,
    "lon": 79.1347042409219
  },
  {
    "partId": 15716,
    "stateCode": "S12",
    "stateName": "Madhya Pradesh",
    "districtCode": "S1210",
    "districtName": "TIKAMGARH",
    "acNumber": 47,
    "acName": "KHARGAPUR",
    "partNumber": 12,
    "partName": "VASATAGUNVA",
    "lat": 24.82087215,
    "lon": 79.1347042409219
  },
  {
    "partId": 60205,
    "stateCode": "S12",
    "stateName": "Madhya Pradesh",
    "districtCode": "S1210",
    "districtName": "TIKAMGARH",
    "acNumber": 47,
    "acName": "KHARGAPUR",
    "partNumber": 13,
    "partName": "CHARI",
    "lat": 24.9519299,
    "lon": 79.22445610598257
  },
  {
    "partId": 15717,
    "stateCode": "S12",
    "stateName": "Madhya Pradesh",
    "districtCode": "S1210",
    "districtName": "TIKAMGARH",
    "acNumber": 47,
    "acName": "KHARGAPUR",
    "partNumber": 14,
    "partName": "CHORATANAGA",
    "lat": 24.82087215,
    "lon": 79.1347042409219
  },
  {
    "partId": 15718,
    "stateCode": "S12",
    "stateName": "Madhya Pradesh",
    "districtCode": "S1210",
    "districtName": "TIKAMGARH",
    "acNumber": 47,
    "acName": "KHARGAPUR",
    "partNumber": 15,
    "partName": "LIDHOURA NAJADI. TORI",
    "lat": 24.82087215,
    "lon": 79.1347042409219
  },
  {
    "partId": 15719,
    "stateCode": "S12",
    "stateName": "Madhya Pradesh",
    "districtCode": "S1210",
    "districtName": "TIKAMGARH",
    "acNumber": 47,
    "acName": "KHARGAPUR",
    "partNumber": 16,
    "partName": "TORI",
    "lat": 24.9764387,
    "lon": 79.1562992
  },
  {
    "partId": 15720,
    "stateCode": "S12",
    "stateName": "Madhya Pradesh",
    "districtCode": "S1210",
    "districtName": "TIKAMGARH",
    "acNumber": 47,
    "acName": "KHARGAPUR",
    "partNumber": 17,
    "partName": "GHURA KHAS",
    "lat": 24.9812269,
    "lon": 79.1414665
  },
  {
    "partId": 8282,
    "stateCode": "S12",
    "stateName": "Madhya Pradesh",
    "districtCode": "S1210",
    "districtName": "TIKAMGARH",
    "acNumber": 47,
    "acName": "KHARGAPUR",
    "partNumber": 18,
    "partName": "GHURA KHAS",
    "lat": 24.9812269,
    "lon": 79.1414665
  },
  {
    "partId": 15721,
    "stateCode": "S12",
    "stateName": "Madhya Pradesh",
    "districtCode": "S1210",
    "districtName": "TIKAMGARH",
    "acNumber": 47,
    "acName": "KHARGAPUR",
    "partNumber": 19,
    "partName": "GHURA KHAS",
    "lat": 24.85521045,
    "lon": 79.04725459918899
  },
  {
    "partId": 60213,
    "stateCode": "S12",
    "stateName": "Madhya Pradesh",
    "districtCode": "S1210",
    "districtName": "TIKAMGARH",
    "acNumber": 47,
    "acName": "KHARGAPUR",
    "partNumber": 20,
    "partName": "MAHENDRA MAHEVA",
    "lat": 24.82087215,
    "lon": 79.1347042409219
  },
  {
    "partId": 38580,
    "stateCode": "S12",
    "stateName": "Madhya Pradesh",
    "districtCode": "S1210",
    "districtName": "TIKAMGARH",
    "acNumber": 47,
    "acName": "KHARGAPUR",
    "partNumber": 21,
    "partName": "MAHENDRA MAHEVA",
    "lat": 24.82087215,
    "lon": 79.1347042409219
  },
  {
    "partId": 60214,
    "stateCode": "S12",
    "stateName": "Madhya Pradesh",
    "districtCode": "S1210",
    "districtName": "TIKAMGARH",
    "acNumber": 47,
    "acName": "KHARGAPUR",
    "partNumber": 22,
    "partName": "TAPARIYAN CHOUHAN",
    "lat": 24.82087215,
    "lon": 79.1347042409219
  },
  {
    "partId": 60215,
    "stateCode": "S12",
    "stateName": "Madhya Pradesh",
    "districtCode": "S1210",
    "districtName": "TIKAMGARH",
    "acNumber": 47,
    "acName": "KHARGAPUR",
    "partNumber": 23,
    "partName": "LAHAR BUJURG",
    "lat": 24.85521045,
    "lon": 79.04725459918899
  },
  {
    "partId": 60216,
    "stateCode": "S12",
    "stateName": "Madhya Pradesh",
    "districtCode": "S1210",
    "districtName": "TIKAMGARH",
    "acNumber": 47,
    "acName": "KHARGAPUR",
    "partNumber": 24,
    "partName": "KHUMANAGANJ",
    "lat": 24.82087215,
    "lon": 79.1347042409219
  },
  {
    "partId": 60217,
    "stateCode": "S12",
    "stateName": "Madhya Pradesh",
    "districtCode": "S1210",
    "districtName": "TIKAMGARH",
    "acNumber": 47,
    "acName": "KHARGAPUR",
    "partNumber": 25,
    "partName": "BUDOUR",
    "lat": 24.82087215,
    "lon": 79.1347042409219
  },
  {
    "partId": 60206,
    "stateCode": "S12",
    "stateName": "Madhya Pradesh",
    "districtCode": "S1210",
    "districtName": "TIKAMGARH",
    "acNumber": 47,
    "acName": "KHARGAPUR",
    "partNumber": 26,
    "partName": "BUDOUR",
    "lat": 24.82087215,
    "lon": 79.1347042409219
  },
  {
    "partId": 60218,
    "stateCode": "S12",
    "stateName": "Madhya Pradesh",
    "districtCode": "S1210",
    "districtName": "TIKAMGARH",
    "acNumber": 47,
    "acName": "KHARGAPUR",
    "partNumber": 27,
    "partName": "GHUTAKADA",
    "lat": 24.82087215,
    "lon": 79.1347042409219
  },
  {
    "partId": 60219,
    "stateCode": "S12",
    "stateName": "Madhya Pradesh",
    "districtCode": "S1210",
    "districtName": "TIKAMGARH",
    "acNumber": 47,
    "acName": "KHARGAPUR",
    "partNumber": 28,
    "partName": "PALERA HAR",
    "lat": 24.82087215,
    "lon": 79.1347042409219
  },
  {
    "partId": 60220,
    "stateCode": "S12",
    "stateName": "Madhya Pradesh",
    "districtCode": "S1210",
    "districtName": "TIKAMGARH",
    "acNumber": 47,
    "acName": "KHARGAPUR",
    "partNumber": 29,
    "partName": "PALERA HAR",
    "lat": 24.82087215,
    "lon": 79.1347042409219
  },
  {
    "partId": 60221,
    "stateCode": "S12",
    "stateName": "Madhya Pradesh",
    "districtCode": "S1210",
    "districtName": "TIKAMGARH",
    "acNumber": 47,
    "acName": "KHARGAPUR",
    "partNumber": 30,
    "partName": "PALERA HAR",
    "lat": 24.82087215,
    "lon": 79.1347042409219
  },
  {
    "partId": 60222,
    "stateCode": "S12",
    "stateName": "Madhya Pradesh",
    "districtCode": "S1210",
    "districtName": "TIKAMGARH",
    "acNumber": 47,
    "acName": "KHARGAPUR",
    "partNumber": 31,
    "partName": "PALERA HAR",
    "lat": 24.82087215,
    "lon": 79.1347042409219
  },
  {
    "partId": 60225,
    "stateCode": "S12",
    "stateName": "Madhya Pradesh",
    "districtCode": "S1210",
    "districtName": "TIKAMGARH",
    "acNumber": 47,
    "acName": "KHARGAPUR",
    "partNumber": 32,
    "partName": "PALERA HAR",
    "lat": 24.82087215,
    "lon": 79.1347042409219
  },
  {
    "partId": 15732,
    "stateCode": "S12",
    "stateName": "Madhya Pradesh",
    "districtCode": "S1210",
    "districtName": "TIKAMGARH",
    "acNumber": 47,
    "acName": "KHARGAPUR",
    "partNumber": 33,
    "partName": "PALERA HAR",
    "lat": 24.82087215,
    "lon": 79.1347042409219
  },
  {
    "partId": 60226,
    "stateCode": "S12",
    "stateName": "Madhya Pradesh",
    "districtCode": "S1210",
    "districtName": "TIKAMGARH",
    "acNumber": 47,
    "acName": "KHARGAPUR",
    "partNumber": 34,
    "partName": "PALERA HAR",
    "lat": 24.82087215,
    "lon": 79.1347042409219
  },
  {
    "partId": 38590,
    "stateCode": "S12",
    "stateName": "Madhya Pradesh",
    "districtCode": "S1210",
    "districtName": "TIKAMGARH",
    "acNumber": 47,
    "acName": "KHARGAPUR",
    "partNumber": 35,
    "partName": "PALERA HAR",
    "lat": 24.82087215,
    "lon": 79.1347042409219
  },
  {
    "partId": 60227,
    "stateCode": "S12",
    "stateName": "Madhya Pradesh",
    "districtCode": "S1210",
    "districtName": "TIKAMGARH",
    "acNumber": 47,
    "acName": "KHARGAPUR",
    "partNumber": 36,
    "partName": "PALERA HAR",
    "lat": 24.82087215,
    "lon": 79.1347042409219
  },
  {
    "partId": 52988,
    "stateCode": "S12",
    "stateName": "Madhya Pradesh",
    "districtCode": "S1210",
    "districtName": "TIKAMGARH",
    "acNumber": 47,
    "acName": "KHARGAPUR",
    "partNumber": 37,
    "partName": "PALERA HAR",
    "lat": 24.82087215,
    "lon": 79.1347042409219
  },
  {
    "partId": 38579,
    "stateCode": "S12",
    "stateName": "Madhya Pradesh",
    "districtCode": "S1210",
    "districtName": "TIKAMGARH",
    "acNumber": 47,
    "acName": "KHARGAPUR",
    "partNumber": 38,
    "partName": "PALERA HAR",
    "lat": 24.82087215,
    "lon": 79.1347042409219
  },
  {
    "partId": 8275,
    "stateCode": "S12",
    "stateName": "Madhya Pradesh",
    "districtCode": "S1210",
    "districtName": "TIKAMGARH",
    "acNumber": 47,
    "acName": "KHARGAPUR",
    "partNumber": 39,
    "partName": "PALERA KHAS",
    "lat": 25.0150527,
    "lon": 79.24519459090723
  },
  {
    "partId": 8276,
    "stateCode": "S12",
    "stateName": "Madhya Pradesh",
    "districtCode": "S1210",
    "districtName": "TIKAMGARH",
    "acNumber": 47,
    "acName": "KHARGAPUR",
    "partNumber": 40,
    "partName": "PALERA KHAS",
    "lat": 24.85521045,
    "lon": 79.04725459918899
  },
  {
    "partId": 60207,
    "stateCode": "S12",
    "stateName": "Madhya Pradesh",
    "districtCode": "S1210",
    "districtName": "TIKAMGARH",
    "acNumber": 47,
    "acName": "KHARGAPUR",
    "partNumber": 41,
    "partName": "MADAHAR",
    "lat": 25.0734106,
    "lon": 79.2715064
  },
  {
    "partId": 8277,
    "stateCode": "S12",
    "stateName": "Madhya Pradesh",
    "districtCode": "S1210",
    "districtName": "TIKAMGARH",
    "acNumber": 47,
    "acName": "KHARGAPUR",
    "partNumber": 42,
    "partName": "LAROUN",
    "lat": 24.85521045,
    "lon": 79.04725459918899
  },
  {
    "partId": 8281,
    "stateCode": "S12",
    "stateName": "Madhya Pradesh",
    "districtCode": "S1210",
    "districtName": "TIKAMGARH",
    "acNumber": 47,
    "acName": "KHARGAPUR",
    "partNumber": 43,
    "partName": "LAROUN",
    "lat": 24.85521045,
    "lon": 79.04725459918899
  },
  {
    "partId": 63865,
    "stateCode": "S12",
    "stateName": "Madhya Pradesh",
    "districtCode": "S1210",
    "districtName": "TIKAMGARH",
    "acNumber": 47,
    "acName": "KHARGAPUR",
    "partNumber": 44,
    "partName": "LAROUN",
    "lat": 24.82087215,
    "lon": 79.1347042409219
  },
  {
    "partId": 38578,
    "stateCode": "S12",
    "stateName": "Madhya Pradesh",
    "districtCode": "S1210",
    "districtName": "TIKAMGARH",
    "acNumber": 47,
    "acName": "KHARGAPUR",
    "partNumber": 45,
    "partName": "LAROUN",
    "lat": 24.82087215,
    "lon": 79.1347042409219
  },
  {
    "partId": 38589,
    "stateCode": "S12",
    "stateName": "Madhya Pradesh",
    "districtCode": "S1210",
    "districtName": "TIKAMGARH",
    "acNumber": 47,
    "acName": "KHARGAPUR",
    "partNumber": 46,
    "partName": "LAROUN",
    "lat": 24.82087215,
    "lon": 79.1347042409219
  },
  {
    "partId": 63866,
    "stateCode": "S12",
    "stateName": "Madhya Pradesh",
    "districtCode": "S1210",
    "districtName": "TIKAMGARH",
    "acNumber": 47,
    "acName": "KHARGAPUR",
    "partNumber": 47,
    "partName": "NAYAGANV",
    "lat": 24.82087215,
    "lon": 79.1347042409219
  },
  {
    "partId": 63868,
    "stateCode": "S12",
    "stateName": "Madhya Pradesh",
    "districtCode": "S1210",
    "districtName": "TIKAMGARH",
    "acNumber": 47,
    "acName": "KHARGAPUR",
    "partNumber": 48,
    "partName": "BEDARI",
    "lat": 24.82087215,
    "lon": 79.1347042409219
  },
  {
    "partId": 38577,
    "stateCode": "S12",
    "stateName": "Madhya Pradesh",
    "districtCode": "S1210",
    "districtName": "TIKAMGARH",
    "acNumber": 47,
    "acName": "KHARGAPUR",
    "partNumber": 49,
    "partName": "BEDARI",
    "lat": 24.82087215,
    "lon": 79.1347042409219
  },
  {
    "partId": 38576,
    "stateCode": "S12",
    "stateName": "Madhya Pradesh",
    "districtCode": "S1210",
    "districtName": "TIKAMGARH",
    "acNumber": 47,
    "acName": "KHARGAPUR",
    "partNumber": 50,
    "partName": "BEDARI",
    "lat": 24.82087215,
    "lon": 79.1347042409219
  },
  {
    "partId": 63905,
    "stateCode": "S12",
    "stateName": "Madhya Pradesh",
    "districtCode": "S1210",
    "districtName": "TIKAMGARH",
    "acNumber": 47,
    "acName": "KHARGAPUR",
    "partNumber": 51,
    "partName": "SAIPURA",
    "lat": 25.045712199999997,
    "lon": 79.22267586164526
  },
  {
    "partId": 38575,
    "stateCode": "S12",
    "stateName": "Madhya Pradesh",
    "districtCode": "S1210",
    "districtName": "TIKAMGARH",
    "acNumber": 47,
    "acName": "KHARGAPUR",
    "partNumber": 52,
    "partName": "SAIPURA",
    "lat": 25.045712199999997,
    "lon": 79.22267586164526
  },
  {
    "partId": 63910,
    "stateCode": "S12",
    "stateName": "Madhya Pradesh",
    "districtCode": "S1210",
    "districtName": "TIKAMGARH",
    "acNumber": 47,
    "acName": "KHARGAPUR",
    "partNumber": 53,
    "partName": "BAKHATAPURA",
    "lat": 24.82087215,
    "lon": 79.1347042409219
  },
  {
    "partId": 38574,
    "stateCode": "S12",
    "stateName": "Madhya Pradesh",
    "districtCode": "S1210",
    "districtName": "TIKAMGARH",
    "acNumber": 47,
    "acName": "KHARGAPUR",
    "partNumber": 54,
    "partName": "BAKHATAPURA",
    "lat": 24.82087215,
    "lon": 79.1347042409219
  },
  {
    "partId": 8286,
    "stateCode": "S12",
    "stateName": "Madhya Pradesh",
    "districtCode": "S1210",
    "districtName": "TIKAMGARH",
    "acNumber": 47,
    "acName": "KHARGAPUR",
    "partNumber": 55,
    "partName": "MURRAHA BABA",
    "lat": 25.0174678,
    "lon": 79.2819022
  },
  {
    "partId": 8287,
    "stateCode": "S12",
    "stateName": "Madhya Pradesh",
    "districtCode": "S1210",
    "districtName": "TIKAMGARH",
    "acNumber": 47,
    "acName": "KHARGAPUR",
    "partNumber": 56,
    "partName": "HANOUTA",
    "lat": 24.85521045,
    "lon": 79.04725459918899
  },
  {
    "partId": 38573,
    "stateCode": "S12",
    "stateName": "Madhya Pradesh",
    "districtCode": "S1210",
    "districtName": "TIKAMGARH",
    "acNumber": 47,
    "acName": "KHARGAPUR",
    "partNumber": 57,
    "partName": "HANOUTA",
    "lat": 24.82087215,
    "lon": 79.1347042409219
  },
  {
    "partId": 8288,
    "stateCode": "S12",
    "stateName": "Madhya Pradesh",
    "districtCode": "S1210",
    "districtName": "TIKAMGARH",
    "acNumber": 47,
    "acName": "KHARGAPUR",
    "partNumber": 58,
    "partName": "ALAMAPURA KHAS",
    "lat": 24.82087215,
    "lon": 79.1347042409219
  },
  {
    "partId": 8289,
    "stateCode": "S12",
    "stateName": "Madhya Pradesh",
    "districtCode": "S1210",
    "districtName": "TIKAMGARH",
    "acNumber": 47,
    "acName": "KHARGAPUR",
    "partNumber": 59,
    "partName": "ALAMAPURA KHAS",
    "lat": 24.85521045,
    "lon": 79.04725459918899
  },
  {
    "partId": 38572,
    "stateCode": "S12",
    "stateName": "Madhya Pradesh",
    "districtCode": "S1210",
    "districtName": "TIKAMGARH",
    "acNumber": 47,
    "acName": "KHARGAPUR",
    "partNumber": 60,
    "partName": "ALAMAPURA KHAS",
    "lat": 24.85521045,
    "lon": 79.04725459918899
  },
  {
    "partId": 8290,
    "stateCode": "S12",
    "stateName": "Madhya Pradesh",
    "districtCode": "S1210",
    "districtName": "TIKAMGARH",
    "acNumber": 47,
    "acName": "KHARGAPUR",
    "partNumber": 61,
    "partName": "BELA",
    "lat": 25.0784801,
    "lon": 79.32266235383977
  },
  {
    "partId": 8291,
    "stateCode": "S12",
    "stateName": "Madhya Pradesh",
    "districtCode": "S1210",
    "districtName": "TIKAMGARH",
    "acNumber": 47,
    "acName": "KHARGAPUR",
    "partNumber": 62,
    "partName": "PADU",
    "lat": 24.82087215,
    "lon": 79.1347042409219
  },
  {
    "partId": 15731,
    "stateCode": "S12",
    "stateName": "Madhya Pradesh",
    "districtCode": "S1210",
    "districtName": "TIKAMGARH",
    "acNumber": 47,
    "acName": "KHARGAPUR",
    "partNumber": 63,
    "partName": "TAPARIYAN KHIRAK",
    "lat": 24.82087215,
    "lon": 79.1347042409219
  },
  {
    "partId": 8292,
    "stateCode": "S12",
    "stateName": "Madhya Pradesh",
    "districtCode": "S1210",
    "districtName": "TIKAMGARH",
    "acNumber": 47,
    "acName": "KHARGAPUR",
    "partNumber": 64,
    "partName": "BANNE BUJURG",
    "lat": 25.0004598,
    "lon": 79.3185459
  },
  {
    "partId": 38571,
    "stateCode": "S12",
    "stateName": "Madhya Pradesh",
    "districtCode": "S1210",
    "districtName": "TIKAMGARH",
    "acNumber": 47,
    "acName": "KHARGAPUR",
    "partNumber": 65,
    "partName": "BANNE BUJURG",
    "lat": 24.85521045,
    "lon": 79.04725459918899
  },
  {
    "partId": 8293,
    "stateCode": "S12",
    "stateName": "Madhya Pradesh",
    "districtCode": "S1210",
    "districtName": "TIKAMGARH",
    "acNumber": 47,
    "acName": "KHARGAPUR",
    "partNumber": 66,
    "partName": "DANTAGORA",
    "lat": 24.82087215,
    "lon": 79.1347042409219
  },
  {
    "partId": 8294,
    "stateCode": "S12",
    "stateName": "Madhya Pradesh",
    "districtCode": "S1210",
    "districtName": "TIKAMGARH",
    "acNumber": 47,
    "acName": "KHARGAPUR",
    "partNumber": 67,
    "partName": "BHADARRA",
    "lat": 24.96180585,
    "lon": 79.30046007256968
  },
  {
    "partId": 8295,
    "stateCode": "S12",
    "stateName": "Madhya Pradesh",
    "districtCode": "S1210",
    "districtName": "TIKAMGARH",
    "acNumber": 47,
    "acName": "KHARGAPUR",
    "partNumber": 68,
    "partName": "KISHANAPURA",
    "lat": 24.82087215,
    "lon": 79.1347042409219
  },
  {
    "partId": 8259,
    "stateCode": "S12",
    "stateName": "Madhya Pradesh",
    "districtCode": "S1210",
    "districtName": "TIKAMGARH",
    "acNumber": 47,
    "acName": "KHARGAPUR",
    "partNumber": 69,
    "partName": "PURAINIYA",
    "lat": 24.64283165,
    "lon": 79.06730762679152
  },
  {
    "partId": 38570,
    "stateCode": "S12",
    "stateName": "Madhya Pradesh",
    "districtCode": "S1210",
    "districtName": "TIKAMGARH",
    "acNumber": 47,
    "acName": "KHARGAPUR",
    "partNumber": 70,
    "partName": "PURAINIYA",
    "lat": 24.64283165,
    "lon": 79.06730762679152
  },
  {
    "partId": 8260,
    "stateCode": "S12",
    "stateName": "Madhya Pradesh",
    "districtCode": "S1210",
    "districtName": "TIKAMGARH",
    "acNumber": 47,
    "acName": "KHARGAPUR",
    "partNumber": 71,
    "partName": "RAM NAGAR BUJURG",
    "lat": 24.9459831,
    "lon": 79.2556845
  },
  {
    "partId": 8261,
    "stateCode": "S12",
    "stateName": "Madhya Pradesh",
    "districtCode": "S1210",
    "districtName": "TIKAMGARH",
    "acNumber": 47,
    "acName": "KHARGAPUR",
    "partNumber": 72,
    "partName": "RAM NAGAR BUJURG",
    "lat": 24.9459831,
    "lon": 79.2556845
  },
  {
    "partId": 8262,
    "stateCode": "S12",
    "stateName": "Madhya Pradesh",
    "districtCode": "S1210",
    "districtName": "TIKAMGARH",
    "acNumber": 47,
    "acName": "KHARGAPUR",
    "partNumber": 73,
    "partName": "CHHIDARA",
    "lat": 24.85521045,
    "lon": 79.04725459918899
  },
  {
    "partId": 60208,
    "stateCode": "S12",
    "stateName": "Madhya Pradesh",
    "districtCode": "S1210",
    "districtName": "TIKAMGARH",
    "acNumber": 47,
    "acName": "KHARGAPUR",
    "partNumber": 74,
    "partName": "DADAGANY KHAS",
    "lat": 24.85521045,
    "lon": 79.04725459918899
  },
  {
    "partId": 8263,
    "stateCode": "S12",
    "stateName": "Madhya Pradesh",
    "districtCode": "S1210",
    "districtName": "TIKAMGARH",
    "acNumber": 47,
    "acName": "KHARGAPUR",
    "partNumber": 75,
    "partName": "RAMASAGARA",
    "lat": 24.82087215,
    "lon": 79.1347042409219
  },
  {
    "partId": 8264,
    "stateCode": "S12",
    "stateName": "Madhya Pradesh",
    "districtCode": "S1210",
    "districtName": "TIKAMGARH",
    "acNumber": 47,
    "acName": "KHARGAPUR",
    "partNumber": 76,
    "partName": "CHHIDARI",
    "lat": 24.915036450000002,
    "lon": 79.30266032560358
  },
  {
    "partId": 8280,
    "stateCode": "S12",
    "stateName": "Madhya Pradesh",
    "districtCode": "S1210",
    "districtName": "TIKAMGARH",
    "acNumber": 47,
    "acName": "KHARGAPUR",
    "partNumber": 77,
    "partName": "CHHIDARI",
    "lat": 24.915036450000002,
    "lon": 79.30266032560358
  },