[
  {
    "partId": 126693,
    "stateCode": "S12",
    "stateName": "Madhya Pradesh",
    "districtCode": "S1247",
    "districtName": "UJJAIN",
    "acNumber": 218,
    "acName": "BADNAGAR",
    "partNumber": 1,
    "partName": "BHAT PACHALANA",
    "lat": 23.06401785,
    "lon": 75.4493728125683
  },
  {
    "partId": 126841,
    "stateCode": "S12",
    "stateName": "Madhya Pradesh",
    "districtCode": "S1247",
    "districtName": "UJJAIN",
    "acNumber": 218,
    "acName": "BADNAGAR",
    "partNumber": 2,
    "partName": "BHAT PACHALANA",
    "lat": 23.06401785,
    "lon": 75.4493728125683
  },
  {
    "partId": 126694,
    "stateCode": "S12",
    "stateName": "Madhya Pradesh",
    "districtCode": "S1247",
    "districtName": "UJJAIN",
    "acNumber": 218,
    "acName": "BADNAGAR",
    "partNumber": 3,
    "partName": "BHAT PACHALANA",
    "lat": 23.06401785,
    "lon": 75.4493728125683
  },
  {
    "partId": 126695,
    "stateCode": "S12",
    "stateName": "Madhya Pradesh",
    "districtCode": "S1247",
    "districtName": "UJJAIN",
    "acNumber": 218,
    "acName": "BADNAGAR",
    "partNumber": 4,
    "partName": "BHAT PACHALANA",
    "lat": 23.06401785,
    "lon": 75.4493728125683
  },
  {
    "partId": 126908,
    "stateCode": "S12",
    "stateName": "Madhya Pradesh",
    "districtCode": "S1247",
    "districtName": "UJJAIN",
    "acNumber": 218,
    "acName": "BADNAGAR",
    "partNumber": 5,
    "partName": "SAWANTPURA",
    "lat": 23.06401785,
    "lon": 75.4493728125683
  },
  {
    "partId": 126696,
    "stateCode": "S12",
    "stateName": "Madhya Pradesh",
    "districtCode": "S1247",
    "districtName": "UJJAIN",
    "acNumber": 218,
    "acName": "BADNAGAR",
    "partNumber": 6,
    "partName": "MALODA",
    "lat": 23.2446564,
    "lon": 75.3173415901903
  },
  {
    "partId": 126697,
    "stateCode": "S12",
    "stateName": "Madhya Pradesh",
    "districtCode": "S1247",
    "districtName": "UJJAIN",
    "acNumber": 218,
    "acName": "BADNAGAR",
    "partNumber": 7,
    "partName": "NOGANVA",
    "lat": 23.06401785,
    "lon": 75.4493728125683
  },
  {
    "partId": 126698,
    "stateCode": "S12",
    "stateName": "Madhya Pradesh",
    "districtCode": "S1247",
    "districtName": "UJJAIN",
    "acNumber": 218,
    "acName": "BADNAGAR",
    "partNumber": 8,
    "partName": "BARADIYA",
    "lat": 23.2133829,
    "lon": 75.3233559
  },
  {
    "partId": 126840,
    "stateCode": "S12",
    "stateName": "Madhya Pradesh",
    "districtCode": "S1247",
    "districtName": "UJJAIN",
    "acNumber": 218,
    "acName": "BADNAGAR",
    "partNumber": 9,
    "partName": "BARADIYA",
    "lat": 23.2133829,
    "lon": 75.3233559
  },
  {
    "partId": 126699,
    "stateCode": "S12",
    "stateName": "Madhya Pradesh",
    "districtCode": "S1247",
    "districtName": "UJJAIN",
    "acNumber": 218,
    "acName": "BADNAGAR",
    "partNumber": 10,
    "partName": "ORADI",
    "lat": 23.06401785,
    "lon": 75.4493728125683
  },
  {
    "partId": 126700,
    "stateCode": "S12",
    "stateName": "Madhya Pradesh",
    "districtCode": "S1247",
    "districtName": "UJJAIN",
    "acNumber": 218,
    "acName": "BADNAGAR",
    "partNumber": 11,
    "partName": "BANDARABELA",
    "lat": 23.06401785,
    "lon": 75.4493728125683
  },
  {
    "partId": 126728,
    "stateCode": "S12",
    "stateName": "Madhya Pradesh",
    "districtCode": "S1247",
    "districtName": "UJJAIN",
    "acNumber": 218,
    "acName": "BADNAGAR",
    "partNumber": 12,
    "partName": "BANABANI",
    "lat": 23.06401785,
    "lon": 75.4493728125683
  },
  {
    "partId": 126729,
    "stateCode": "S12",
    "stateName": "Madhya Pradesh",
    "districtCode": "S1247",
    "districtName": "UJJAIN",
    "acNumber": 218,
    "acName": "BADNAGAR",
    "partNumber": 13,
    "partName": "BHUVANSA",
    "lat": 23.06401785,
    "lon": 75.4493728125683
  },
  {
    "partId": 126744,
    "stateCode": "S12",
    "stateName": "Madhya Pradesh",
    "districtCode": "S1247",
    "districtName": "UJJAIN",
    "acNumber": 218,
    "acName": "BADNAGAR",
    "partNumber": 14,
    "partName": "LIMBAS",
    "lat": 23.06401785,
    "lon": 75.4493728125683
  },
  {
    "partId": 126745,
    "stateCode": "S12",
    "stateName": "Madhya Pradesh",
    "districtCode": "S1247",
    "districtName": "UJJAIN",
    "acNumber": 218,
    "acName": "BADNAGAR",
    "partNumber": 15,
    "partName": "CHIROLA",
    "lat": 23.2781965,
    "lon": 75.40323389745483
  },
  {
    "partId": 126548,
    "stateCode": "S12",
    "stateName": "Madhya Pradesh",
    "districtCode": "S1247",
    "districtName": "UJJAIN",
    "acNumber": 218,
    "acName": "BADNAGAR",
    "partNumber": 16,
    "partName": "CHIROLA",
    "lat": 23.2781965,
    "lon": 75.40323389745483
  },
  {
    "partId": 126746,
    "stateCode": "S12",
    "stateName": "Madhya Pradesh",
    "districtCode": "S1247",
    "districtName": "UJJAIN",
    "acNumber": 218,
    "acName": "BADNAGAR",
    "partNumber": 17,
    "partName": "CHIROLA",
    "lat": 23.2781965,
    "lon": 75.40323389745483
  },
  {
    "partId": 126747,
    "stateCode": "S12",
    "stateName": "Madhya Pradesh",
    "districtCode": "S1247",
    "districtName": "UJJAIN",
    "acNumber": 218,
    "acName": "BADNAGAR",
    "partNumber": 18,
    "partName": "SALAVA",
    "lat": 23.06401785,
    "lon": 75.4493728125683
  },
  {
    "partId": 126748,
    "stateCode": "S12",
    "stateName": "Madhya Pradesh",
    "districtCode": "S1247",
    "districtName": "UJJAIN",
    "acNumber": 218,
    "acName": "BADNAGAR",
    "partNumber": 19,
    "partName": "SILODIYA",
    "lat": 23.240341,
    "lon": 75.42560760575839
  },
  {
    "partId": 126749,
    "stateCode": "S12",
    "stateName": "Madhya Pradesh",
    "districtCode": "S1247",
    "districtName": "UJJAIN",
    "acNumber": 218,
    "acName": "BADNAGAR",
    "partNumber": 20,
    "partName": "MUNGAVADI",
    "lat": 23.06401785,
    "lon": 75.4493728125683
  },
  {
    "partId": 126750,
    "stateCode": "S12",
    "stateName": "Madhya Pradesh",
    "districtCode": "S1247",
    "districtName": "UJJAIN",
    "acNumber": 218,
    "acName": "BADNAGAR",
    "partNumber": 21,
    "partName": "MUNGAVADA",
    "lat": 23.06401785,
    "lon": 75.4493728125683
  },
  {
    "partId": 126909,
    "stateCode": "S12",
    "stateName": "Madhya Pradesh",
    "districtCode": "S1247",
    "districtName": "UJJAIN",
    "acNumber": 218,
    "acName": "BADNAGAR",
    "partNumber": 22,
    "partName": "LASUDIYA",
    "lat": 23.2586744,
    "lon": 75.42759105123017
  },
  {
    "partId": 126751,
    "stateCode": "S12",
    "stateName": "Madhya Pradesh",
    "districtCode": "S1247",
    "districtName": "UJJAIN",
    "acNumber": 218,
    "acName": "BADNAGAR",
    "partNumber": 23,
    "partName": "RATHOUDAKHEDI",
    "lat": 23.06401785,
    "lon": 75.4493728125683
  },
  {
    "partId": 126910,
    "stateCode": "S12",
    "stateName": "Madhya Pradesh",
    "districtCode": "S1247",
    "districtName": "UJJAIN",
    "acNumber": 218,
    "acName": "BADNAGAR",
    "partNumber": 24,
    "partName": "KARADVAS",
    "lat": 23.06401785,
    "lon": 75.4493728125683
  },
  {
    "partId": 126752,
    "stateCode": "S12",
    "stateName": "Madhya Pradesh",
    "districtCode": "S1247",
    "districtName": "UJJAIN",
    "acNumber": 218,
    "acName": "BADNAGAR",
    "partNumber": 25,
    "partName": "DEHATA",
    "lat": 23.06401785,
    "lon": 75.4493728125683
  },
  {
    "partId": 126753,
    "stateCode": "S12",
    "stateName": "Madhya Pradesh",
    "districtCode": "S1247",
    "districtName": "UJJAIN",
    "acNumber": 218,
    "acName": "BADNAGAR",
    "partNumber": 26,
    "partName": "AMALAVAD KALA",
    "lat": 23.06401785,
    "lon": 75.4493728125683
  },
  {
    "partId": 126754,
    "stateCode": "S12",
    "stateName": "Madhya Pradesh",
    "districtCode": "S1247",
    "districtName": "UJJAIN",
    "acNumber": 218,
    "acName": "BADNAGAR",
    "partNumber": 27,
    "partName": "DUNALAJA",
    "lat": 23.2320373,
    "lon": 75.4776032
  },
  {
    "partId": 126755,
    "stateCode": "S12",
    "stateName": "Madhya Pradesh",
    "districtCode": "S1247",
    "districtName": "UJJAIN",
    "acNumber": 218,
    "acName": "BADNAGAR",
    "partNumber": 28,
    "partName": "MALPURA",
    "lat": 23.2372984,
    "lon": 75.48995466266578
  },
  {
    "partId": 126756,
    "stateCode": "S12",
    "stateName": "Madhya Pradesh",
    "districtCode": "S1247",
    "districtName": "UJJAIN",
    "acNumber": 218,
    "acName": "BADNAGAR",
    "partNumber": 29,
    "partName": "AMALAVAD BIKA",
    "lat": 23.06401785,
    "lon": 75.4493728125683
  },
  {
    "partId": 126911,
    "stateCode": "S12",
    "stateName": "Madhya Pradesh",
    "districtCode": "S1247",
    "districtName": "UJJAIN",
    "acNumber": 218,
    "acName": "BADNAGAR",
    "partNumber": 30,
    "partName": "MOLAKHEDI",
    "lat": 23.1913102,
    "lon": 75.94508899910113
  },
  {
    "partId": 126757,
    "stateCode": "S12",
    "stateName": "Madhya Pradesh",
    "districtCode": "S1247",
    "districtName": "UJJAIN",
    "acNumber": 218,
    "acName": "BADNAGAR",
    "partNumber": 31,
    "partName": "PALASODA",
    "lat": 23.06401785,
    "lon": 75.4493728125683
  },
  {
    "partId": 126758,
    "stateCode": "S12",
    "stateName": "Madhya Pradesh",
    "districtCode": "S1247",
    "districtName": "UJJAIN",
    "acNumber": 218,
    "acName": "BADNAGAR",
    "partNumber": 32,
    "partName": "PALASODA",
    "lat": 23.06401785,
    "lon": 75.4493728125683
  },
  {
    "partId": 126759,
    "stateCode": "S12",
    "stateName": "Madhya Pradesh",
    "districtCode": "S1247",
    "districtName": "UJJAIN",
    "acNumber": 218,
    "acName": "BADNAGAR",
    "partNumber": 33,
    "partName": "MAKADAVAN",
    "lat": 23.06401785,
    "lon": 75.4493728125683
  },
  {
    "partId": 126839,
    "stateCode": "S12",
    "stateName": "Madhya Pradesh",
    "districtCode": "S1247",
    "districtName": "UJJAIN",
    "acNumber": 218,
    "acName": "BADNAGAR",
    "partNumber": 34,
    "partName": "MAKADAVAN",
    "lat": 23.06401785,
    "lon": 75.4493728125683
  },
  {
    "partId": 126760,
    "stateCode": "S12",
    "stateName": "Madhya Pradesh",
    "districtCode": "S1247",
    "districtName": "UJJAIN",
    "acNumber": 218,
    "acName": "BADNAGAR",
    "partNumber": 35,
    "partName": "MAHUDIALAM",
    "lat": 23.23848155,
    "lon": 75.51937670898558
  },
  {
    "partId": 126761,
    "stateCode": "S12",
    "stateName": "Madhya Pradesh",
    "districtCode": "S1247",
    "districtName": "UJJAIN",
    "acNumber": 218,
    "acName": "BADNAGAR",
    "partNumber": 36,
    "partName": "NARELAKALA",
    "lat": 23.06401785,
    "lon": 75.4493728125683
  },
  {
    "partId": 126912,
    "stateCode": "S12",
    "stateName": "Madhya Pradesh",
    "districtCode": "S1247",
    "districtName": "UJJAIN",
    "acNumber": 218,
    "acName": "BADNAGAR",
    "partNumber": 37,
    "partName": "KALMODA",
    "lat": 23.22099985,
    "lon": 75.57867470226958
  },
  {
    "partId": 126883,
    "stateCode": "S12",
    "stateName": "Madhya Pradesh",
    "districtCode": "S1247",
    "districtName": "UJJAIN",
    "acNumber": 218,
    "acName": "BADNAGAR",
    "partNumber": 38,
    "partName": "BANBANA",
    "lat": 23.23694085,
    "lon": 75.5475653713471
  },
  {
    "partId": 126762,
    "stateCode": "S12",
    "stateName": "Madhya Pradesh",
    "districtCode": "S1247",
    "districtName": "UJJAIN",
    "acNumber": 218,
    "acName": "BADNAGAR",
    "partNumber": 39,
    "partName": "SUVASA",
    "lat": 23.06401785,
    "lon": 75.4493728125683
  },
  {
    "partId": 126763,
    "stateCode": "S12",
    "stateName": "Madhya Pradesh",
    "districtCode": "S1247",
    "districtName": "UJJAIN",
    "acNumber": 218,
    "acName": "BADNAGAR",
    "partNumber": 40,
    "partName": "SUVASA",
    "lat": 23.06401785,
    "lon": 75.4493728125683
  },
  {
    "partId": 126764,
    "stateCode": "S12",
    "stateName": "Madhya Pradesh",
    "districtCode": "S1247",
    "districtName": "UJJAIN",
    "acNumber": 218,
    "acName": "BADNAGAR",
    "partNumber": 41,
    "partName": "KANJAD",
    "lat": 23.248718150000002,
    "lon": 75.59490422205596
  },
  {
    "partId": 126719,
    "stateCode": "S12",
    "stateName": "Madhya Pradesh",
    "districtCode": "S1247",
    "districtName": "UJJAIN",
    "acNumber": 218,
    "acName": "BADNAGAR",
    "partNumber": 42,
    "partName": "KANJAD",
    "lat": 23.248718150000002,
    "lon": 75.59490422205596
  },
  {
    "partId": 126765,
    "stateCode": "S12",
    "stateName": "Madhya Pradesh",
    "districtCode": "S1247",
    "districtName": "UJJAIN",
    "acNumber": 218,
    "acName": "BADNAGAR",
    "partNumber": 43,
    "partName": "ASALAVADA",
    "lat": 23.06401785,
    "lon": 75.4493728125683
  },
  {
    "partId": 126913,
    "stateCode": "S12",
    "stateName": "Madhya Pradesh",
    "districtCode": "S1247",
    "districtName": "UJJAIN",
    "acNumber": 218,
    "acName": "BADNAGAR",
    "partNumber": 44,
    "partName": "STATION BLOCK ASLAVADA",
    "lat": 23.06401785,
    "lon": 75.4493728125683
  },
  {
    "partId": 126766,
    "stateCode": "S12",
    "stateName": "Madhya Pradesh",
    "districtCode": "S1247",
    "districtName": "UJJAIN",
    "acNumber": 218,
    "acName": "BADNAGAR",
    "partNumber": 45,
    "partName": "BANYAKHEDI",
    "lat": 23.06401785,
    "lon": 75.4493728125683
  },
  {
    "partId": 126767,
    "stateCode": "S12",
    "stateName": "Madhya Pradesh",
    "districtCode": "S1247",
    "districtName": "UJJAIN",
    "acNumber": 218,
    "acName": "BADNAGAR",
    "partNumber": 46,
    "partName": "KANTHARAKHEDI",
    "lat": 23.06401785,
    "lon": 75.4493728125683
  },
  {
    "partId": 126768,
    "stateCode": "S12",
    "stateName": "Madhya Pradesh",
    "districtCode": "S1247",
    "districtName": "UJJAIN",
    "acNumber": 218,
    "acName": "BADNAGAR",
    "partNumber": 47,
    "partName": "KOTHADI",
    "lat": 23.06401785,
    "lon": 75.4493728125683
  },
  {
    "partId": 126769,
    "stateCode": "S12",
    "stateName": "Madhya Pradesh",
    "districtCode": "S1247",
    "districtName": "UJJAIN",
    "acNumber": 218,
    "acName": "BADNAGAR",
    "partNumber": 48,
    "partName": "SIKANDRAKHEDA",
    "lat": 23.06401785,
    "lon": 75.4493728125683
  },
  {
    "partId": 126770,
    "stateCode": "S12",
    "stateName": "Madhya Pradesh",
    "districtCode": "S1247",
    "districtName": "UJJAIN",
    "acNumber": 218,
    "acName": "BADNAGAR",
    "partNumber": 49,
    "partName": "JAHANGIRAPUR",
    "lat": 23.06401785,
    "lon": 75.4493728125683
  },
  {
    "partId": 126771,
    "stateCode": "S12",
    "stateName": "Madhya Pradesh",
    "districtCode": "S1247",
    "districtName": "UJJAIN",
    "acNumber": 218,
    "acName": "BADNAGAR",
    "partNumber": 50,
    "partName": "JAHANGIRAPUR",
    "lat": 23.06401785,
    "lon": 75.4493728125683
  },
  {
    "partId": 126838,
    "stateCode": "S12",
    "stateName": "Madhya Pradesh",
    "districtCode": "S1247",
    "districtName": "UJJAIN",
    "acNumber": 218,
    "acName": "BADNAGAR",
    "partNumber": 51,
    "partName": "JAHANGIRAPUR",
    "lat": 23.06401785,
    "lon": 75.4493728125683
  },
  {
    "partId": 126772,
    "stateCode": "S12",
    "stateName": "Madhya Pradesh",
    "districtCode": "S1247",
    "districtName": "UJJAIN",
    "acNumber": 218,
    "acName": "BADNAGAR",
    "partNumber": 52,
    "partName": "MURARAKHEDI",
    "lat": 23.06401785,
    "lon": 75.4493728125683
  },
  {
    "partId": 126842,
    "stateCode": "S12",
    "stateName": "Madhya Pradesh",
    "districtCode": "S1247",
    "districtName": "UJJAIN",
    "acNumber": 218,
    "acName": "BADNAGAR",
    "partNumber": 53,
    "partName": "HARANAVADA",
    "lat": 23.06401785,
    "lon": 75.4493728125683
  },
  {
    "partId": 126843,
    "stateCode": "S12",
    "stateName": "Madhya Pradesh",
    "districtCode": "S1247",
    "districtName": "UJJAIN",
    "acNumber": 218,
    "acName": "BADNAGAR",
    "partNumber": 54,
    "partName": "BALODA HASAN",
    "lat": 23.06401785,
    "lon": 75.4493728125683
  },
  {
    "partId": 126844,
    "stateCode": "S12",
    "stateName": "Madhya Pradesh",
    "districtCode": "S1247",
    "districtName": "UJJAIN",
    "acNumber": 218,
    "acName": "BADNAGAR",
    "partNumber": 55,
    "partName": "GANVADI DEVASI",
    "lat": 23.06401785,
    "lon": 75.4493728125683
  },
  {
    "partId": 126845,
    "stateCode": "S12",
    "stateName": "Madhya Pradesh",
    "districtCode": "S1247",
    "districtName": "UJJAIN",
    "acNumber": 218,
    "acName": "BADNAGAR",
    "partNumber": 56,
    "partName": "KHARASOUD KALAN",
    "lat": 23.06401785,
    "lon": 75.4493728125683
  },
  {
    "partId": 126846,
    "stateCode": "S12",
    "stateName": "Madhya Pradesh",
    "districtCode": "S1247",
    "districtName": "UJJAIN",
    "acNumber": 218,
    "acName": "BADNAGAR",
    "partNumber": 57,
    "partName": "KHARASOUD KALAN",
    "lat": 23.06401785,
    "lon": 75.4493728125683
  },
  {
    "partId": 126847,
    "stateCode": "S12",
    "stateName": "Madhya Pradesh",
    "districtCode": "S1247",
    "districtName": "UJJAIN",
    "acNumber": 218,
    "acName": "BADNAGAR",
    "partNumber": 58,
    "partName": "KHARASOUDAKALAN",
    "lat": 23.06401785,
    "lon": 75.4493728125683
  },
  {
    "partId": 126837,
    "stateCode": "S12",
    "stateName": "Madhya Pradesh",
    "districtCode": "S1247",
    "districtName": "UJJAIN",
    "acNumber": 218,
    "acName": "BADNAGAR",
    "partNumber": 59,
    "partName": "KHARASOUDAKALAN",
    "lat": 23.06401785,
    "lon": 75.4493728125683
  },
  {
    "partId": 126848,
    "stateCode": "S12",
    "stateName": "Madhya Pradesh",
    "districtCode": "S1247",
    "districtName": "UJJAIN",
    "acNumber": 218,
    "acName": "BADNAGAR",
    "partNumber": 60,
    "partName": "KHARASOD KALA",
    "lat": 23.06401785,
    "lon": 75.4493728125683
  },
  {
    "partId": 126849,
    "stateCode": "S12",
    "stateName": "Madhya Pradesh",
    "districtCode": "S1247",
    "districtName": "UJJAIN",
    "acNumber": 218,
    "acName": "BADNAGAR",
    "partNumber": 61,
    "partName": "KHARASOUDAKALAN",
    "lat": 23.06401785,
    "lon": 75.4493728125683
  },
  {
    "partId": 126850,
    "stateCode": "S12",
    "stateName": "Madhya Pradesh",
    "districtCode": "S1247",
    "districtName": "UJJAIN",
    "acNumber": 218,
    "acName": "BADNAGAR",
    "partNumber": 62,
    "partName": "RAVADIYAPIR",
    "lat": 23.06401785,
    "lon": 75.4493728125683
  },
  {
    "partId": 126788,
    "stateCode": "S12",
    "stateName": "Madhya Pradesh",
    "districtCode": "S1247",
    "districtName": "UJJAIN",
    "acNumber": 218,
    "acName": "BADNAGAR",
    "partNumber": 63,
    "partName": "AJADAVADA",
    "lat": 23.06401785,
    "lon": 75.4493728125683
  },
  {
    "partId": 126718,
    "stateCode": "S12",
    "stateName": "Madhya Pradesh",
    "districtCode": "S1247",
    "districtName": "UJJAIN",
    "acNumber": 218,
    "acName": "BADNAGAR",
    "partNumber": 64,
    "partName": "AJADAVADA",
    "lat": 23.06401785,
    "lon": 75.4493728125683
  },
  {
    "partId": 126789,
    "stateCode": "S12",
    "stateName": "Madhya Pradesh",
    "districtCode": "S1247",
    "districtName": "UJJAIN",
    "acNumber": 218,
    "acName": "BADNAGAR",
    "partNumber": 65,
    "partName": "BALODAKORAN",
    "lat": 23.18925415,
    "lon": 75.32470162207845
  },
  {
    "partId": 126717,
    "stateCode": "S12",
    "stateName": "Madhya Pradesh",
    "districtCode": "S1247",
    "districtName": "UJJAIN",
    "acNumber": 218,
    "acName": "BADNAGAR",
    "partNumber": 66,
    "partName": "BALODAKORAN",
    "lat": 23.18925415,
    "lon": 75.32470162207845
  },
  {
    "partId": 126790,
    "stateCode": "S12",
    "stateName": "Madhya Pradesh",
    "districtCode": "S1247",
    "districtName": "UJJAIN",
    "acNumber": 218,
    "acName": "BADNAGAR",
    "partNumber": 67,
    "partName": "BALODALAKKHA",
    "lat": 23.06401785,
    "lon": 75.4493728125683
  },
  {
    "partId": 126707,
    "stateCode": "S12",
    "stateName": "Madhya Pradesh",
    "districtCode": "S1247",
    "districtName": "UJJAIN",
    "acNumber": 218,
    "acName": "BADNAGAR",
    "partNumber": 68,
    "partName": "BALODALAKKHA",
    "lat": 23.06401785,
    "lon": 75.4493728125683
  },
  {
    "partId": 126730,
    "stateCode": "S12",
    "stateName": "Madhya Pradesh",
    "districtCode": "S1247",
    "districtName": "UJJAIN",
    "acNumber": 218,
    "acName": "BADNAGAR",
    "partNumber": 69,
    "partName": "BALODALAKKHA",
    "lat": 23.06401785,
    "lon": 75.4493728125683
  },
  {
    "partId": 126731,
    "stateCode": "S12",
    "stateName": "Madhya Pradesh",
    "districtCode": "S1247",
    "districtName": "UJJAIN",
    "acNumber": 218,
    "acName": "BADNAGAR",
    "partNumber": 70,
    "partName": "MALAGAVADI",
    "lat": 23.06401785,
    "lon": 75.4493728125683
  },
  {
    "partId": 126732,
    "stateCode": "S12",
    "stateName": "Madhya Pradesh",
    "districtCode": "S1247",
    "districtName": "UJJAIN",
    "acNumber": 218,
    "acName": "BADNAGAR",
    "partNumber": 71,
    "partName": "KHEDAVADA",
    "lat": 23.06401785,
    "lon": 75.4493728125683
  },
  {
    "partId": 126733,
    "stateCode": "S12",
    "stateName": "Madhya Pradesh",
    "districtCode": "S1247",
    "districtName": "UJJAIN",
    "acNumber": 218,
    "acName": "BADNAGAR",
    "partNumber": 72,
    "partName": "KHEDAVADA",
    "lat": 23.06401785,
    "lon": 75.4493728125683
  },
  {
    "partId": 126882,
    "stateCode": "S12",
    "stateName": "Madhya Pradesh",
    "districtCode": "S1247",
    "districtName": "UJJAIN",
    "acNumber": 218,
    "acName": "BADNAGAR",
    "partNumber": 73,
    "partName": "KHEDAVADA",
    "lat": 23.06401785,
    "lon": 75.4493728125683
  },
  {
    "partId": 126734,
    "stateCode": "S12",
    "stateName": "Madhya Pradesh",
    "districtCode": "S1247",
    "districtName": "UJJAIN",
    "acNumber": 218,
    "acName": "BADNAGAR",
    "partNumber": 74,
    "partName": "BADAGAVA",
    "lat": 23.06401785,
    "lon": 75.4493728125683
  },
  {
    "partId": 126706,
    "stateCode": "S12",
    "stateName": "Madhya Pradesh",
    "districtCode": "S1247",
    "districtName": "UJJAIN",
    "acNumber": 218,
    "acName": "BADNAGAR",
    "partNumber": 75,
    "partName": "BADAGAVA",
    "lat": 23.06401785,
    "lon": 75.4493728125683
  },
  {
    "partId": 126735,
    "stateCode": "S12",
    "stateName": "Madhya Pradesh",
    "districtCode": "S1247",
    "districtName": "UJJAIN",
    "acNumber": 218,
    "acName": "BADNAGAR",
    "partNumber": 76,
    "partName": "MASAVADIYA DHAR",
    "lat": 23.06401785,
    "lon": 75.4493728125683
  },
  {
    "partId": 126736,
    "stateCode": "S12",
    "stateName": "Madhya Pradesh",
    "districtCode": "S1247",
    "districtName": "UJJAIN",
    "acNumber": 218,
    "acName": "BADNAGAR",
    "partNumber": 77,
    "partName": "GAJANIKHEDI",
    "lat": 23.06401785,
    "lon": 75.4493728125683
  },
  {
    "partId": 126716,
    "stateCode": "S12",
    "stateName": "Madhya Pradesh",
    "districtCode": "S1247",
    "districtName": "UJJAIN",
    "acNumber": 218,
    "acName": "BADNAGAR",
    "partNumber": 78,
    "partName": "GAJANIKHEDI",
    "lat": 23.06401785,
    "lon": 75.4493728125683
  },
  {
    "partId": 126737,
    "stateCode": "S12",
    "stateName": "Madhya Pradesh",
    "districtCode": "S1247",
    "districtName": "UJJAIN",
    "acNumber": 218,
    "acName": "BADNAGAR",
    "partNumber": 79,
    "partName": "RUNIJA",
    "lat": 23.1663555,
    "lon": 75.2711142
  },
  {
    "partId": 126860,
    "stateCode": "S12",
    "stateName": "Madhya Pradesh",
    "districtCode": "S1247",
    "districtName": "UJJAIN",
    "acNumber": 218,
    "acName": "BADNAGAR",
    "partNumber": 80,
    "partName": "RUNIJA",
    "lat": 23.1663555,
    "lon": 75.2711142
  },
  {
    "partId": 126861,
    "stateCode": "S12",
    "stateName": "Madhya Pradesh",
    "districtCode": "S1247",
    "districtName": "UJJAIN",
    "acNumber": 218,
    "acName": "BADNAGAR",
    "partNumber": 81,
    "partName": "MADHOUPURA",
    "lat": 23.06401785,
    "lon": 75.4493728125683
  },
  {
    "partId": 126862,
    "stateCode": "S12",
    "stateName": "Madhya Pradesh",
    "districtCode": "S1247",
    "districtName": "UJJAIN",
    "acNumber": 218,
    "acName": "BADNAGAR",
    "partNumber": 82,
    "partName": "MADHAVAPURA",
    "lat": 23.06401785,
    "lon": 75.4493728125683
  },
  {
    "partId": 126881,
    "stateCode": "S12",
    "stateName": "Madhya Pradesh",
    "districtCode": "S1247",
    "districtName": "UJJAIN",
    "acNumber": 218,
    "acName": "BADNAGAR",
    "partNumber": 83,
    "partName": "MADHAVAPURA",
    "lat": 23.06401785,
    "lon": 75.4493728125683
  },
  {
    "partId": 126741,
    "stateCode": "S12",
    "stateName": "Madhya Pradesh",
    "districtCode": "S1247",
    "districtName": "UJJAIN",
    "acNumber": 218,
    "acName": "BADNAGAR",
    "partNumber": 84,
    "partName": "SUNDARABAD",
    "lat": 23.1311791,
    "lon": 75.308003
  },
  {
    "partId": 126742,
    "stateCode": "S12",
    "stateName": "Madhya Pradesh",
    "districtCode": "S1247",
    "districtName": "UJJAIN",
    "acNumber": 218,
    "acName": "BADNAGAR",
    "partNumber": 85,
    "partName": "JALODASANJAR",
    "lat": 23.06401785,
    "lon": 75.4493728125683
  },
  {
    "partId": 126743,
    "stateCode": "S12",
    "stateName": "Madhya Pradesh",
    "districtCode": "S1247",
    "districtName": "UJJAIN",
    "acNumber": 218,
    "acName": "BADNAGAR",
    "partNumber": 86,
    "partName": "PACHALANABIL",
    "lat": 23.06401785,
    "lon": 75.4493728125683
  },
  {
    "partId": 126802,
    "stateCode": "S12",
    "stateName": "Madhya Pradesh",
    "districtCode": "S1247",
    "districtName": "UJJAIN",
    "acNumber": 218,
    "acName": "BADNAGAR",
    "partNumber": 87,
    "partName": "MINDAKA",
    "lat": 23.06401785,
    "lon": 75.4493728125683
  },
  {
    "partId": 126803,
    "stateCode": "S12",
    "stateName": "Madhya Pradesh",
    "districtCode": "S1247",
    "districtName": "UJJAIN",
    "acNumber": 218,
    "acName": "BADNAGAR",
    "partNumber": 88,
    "partName": "KAMANAPUR",
    "lat": 23.06401785,
    "lon": 75.4493728125683
  },
  {
    "partId": 126804,
    "stateCode": "S12",
    "stateName": "Madhya Pradesh",
    "districtCode": "S1247",
    "districtName": "UJJAIN",
    "acNumber": 218,
    "acName": "BADNAGAR",
    "partNumber": 89,
    "partName": "KALYANAPURA",
    "lat": 23.06401785,
    "lon": 75.4493728125683
  },
  {
    "partId": 126805,
    "stateCode": "S12",
    "stateName": "Madhya Pradesh",
    "districtCode": "S1247",
    "districtName": "UJJAIN",
    "acNumber": 218,
    "acName": "BADNAGAR",
    "partNumber": 90,
    "partName": "UDASINGA",
    "lat": 23.06401785,
    "lon": 75.4493728125683
  },
  {
    "partId": 126806,
    "stateCode": "S12",
    "stateName": "Madhya Pradesh",
    "districtCode": "S1247",
    "districtName": "UJJAIN",
    "acNumber": 218,
    "acName": "BADNAGAR",
    "partNumber": 91,
    "partName": "MUNDAT",
    "lat": 23.196676949999997,
    "lon": 75.44461124735065
  },
  {
    "partId": 126914,
    "stateCode": "S12",
    "stateName": "Madhya Pradesh",
    "districtCode": "S1247",
    "districtName": "UJJAIN",
    "acNumber": 218,
    "acName": "BADNAGAR",
    "partNumber": 92,
    "partName": "KHEDANARAYAN",
    "lat": 23.2062463,
    "lon": 75.4339313
  },
  {
    "partId": 126807,
    "stateCode": "S12",
    "stateName": "Madhya Pradesh",
    "districtCode": "S1247",
    "districtName": "UJJAIN",
    "acNumber": 218,
    "acName": "BADNAGAR",
    "partNumber": 93,
    "partName": "UNKARAPURA",
    "lat": 23.06401785,
    "lon": 75.4493728125683
  },
  {
    "partId": 126808,
    "stateCode": "S12",
    "stateName": "Madhya Pradesh",
    "districtCode": "S1247",
    "districtName": "UJJAIN",
    "acNumber": 218,
    "acName": "BADNAGAR",
    "partNumber": 94,
    "partName": "JHUMAKI",
    "lat": 23.06401785,
    "lon": 75.4493728125683
  },
  {
    "partId": 126809,
    "stateCode": "S12",
    "stateName": "Madhya Pradesh",
    "districtCode": "S1247",
    "districtName": "UJJAIN",
    "acNumber": 218,
    "acName": "BADNAGAR",
    "partNumber": 95,
    "partName": "DHUDAVAN",
    "lat": 23.06401785,
    "lon": 75.4493728125683
  },
  {
    "partId": 126810,
    "stateCode": "S12",
    "stateName": "Madhya Pradesh",
    "districtCode": "S1247",
    "districtName": "UJJAIN",
    "acNumber": 218,
    "acName": "BADNAGAR",
    "partNumber": 96,
    "partName": "PATYAKHEDI",
    "lat": 23.181575549999998,
    "lon": 75.54152001974077
  },
  {
    "partId": 126915,
    "stateCode": "S12",
    "stateName": "Madhya Pradesh",
    "districtCode": "S1247",
    "districtName": "UJJAIN",
    "acNumber": 218,
    "acName": "BADNAGAR",
    "partNumber": 97,
    "partName": "KARANPURA",
    "lat": 23.1947859,
    "lon": 75.5463249709191
  },
  {
    "partId": 126811,
    "stateCode": "S12",
    "stateName": "Madhya Pradesh",
    "districtCode": "S1247",
    "districtName": "UJJAIN",
    "acNumber": 218,
    "acName": "BADNAGAR",
    "partNumber": 98,
    "partName": "RUPAHEDA",
    "lat": 23.09217475840708,
    "lon": 75.4559977579183
  },
  {
    "partId": 126812,
    "stateCode": "S12",
    "stateName": "Madhya Pradesh",
    "districtCode": "S1247",
    "districtName": "UJJAIN",
    "acNumber": 218,
    "acName": "BADNAGAR",
    "partNumber": 99,
    "partName": "MANIYAVADA",
    "lat": 23.09217475840708,
    "lon": 75.4559977579183
  },
  {
    "partId": 126813,
    "stateCode": "S12",
    "stateName": "Madhya Pradesh",
    "districtCode": "S1247",
    "districtName": "UJJAIN",
    "acNumber": 218,
    "acName": "BADNAGAR",
    "partNumber": 100,
    "partName": "BAMANAPATI",
    "lat": 23.06401785,
    "lon": 75.4493728125683
  },
  {
    "partId": 126814,
    "stateCode": "S12",
    "stateName": "Madhya Pradesh",
    "districtCode": "S1247",
    "districtName": "UJJAIN",
    "acNumber": 218,
    "acName": "BADNAGAR",
    "partNumber": 101,
    "partName": "KHADOTIYA",
    "lat": 23.17431595,
    "lon": 75.62179390700388
  },
  {
    "partId": 126916,
    "stateCode": "S12",
    "stateName": "Madhya Pradesh",
    "districtCode": "S1247",
    "districtName": "UJJAIN",
    "acNumber": 218,
    "acName": "BADNAGAR",
    "partNumber": 102,
    "partName": "CHHANKHEDI",
    "lat": 23.1532866,
    "lon": 75.62501814559684
  },
  {
    "partId": 126815,
    "stateCode": "S12",
    "stateName": "Madhya Pradesh",
    "districtCode": "S1247",
    "districtName": "UJJAIN",
    "acNumber": 218,
    "acName": "BADNAGAR",
    "partNumber": 103,
    "partName": "MATAGANNA",
    "lat": 23.06401785,
    "lon": 75.4493728125683
  },
  {
    "partId": 126816,
    "stateCode": "S12",
    "stateName": "Madhya Pradesh",
    "districtCode": "S1247",
    "districtName": "UJJAIN",
    "acNumber": 218,
    "acName": "BADNAGAR",
    "partNumber": 104,
    "partName": "SURAKHEDI",
    "lat": 23.17364035,
    "lon": 75.58332956046937
  },
  {
    "partId": 126817,
    "stateCode": "S12",
    "stateName": "Madhya Pradesh",
    "districtCode": "S1247",
    "districtName": "UJJAIN",
    "acNumber": 218,
    "acName": "BADNAGAR",
    "partNumber": 105,
    "partName": "KULAVADA",
    "lat": 23.09217475840708,
    "lon": 75.4559977579183
  },
  {
    "partId": 126871,
    "stateCode": "S12",
    "stateName": "Madhya Pradesh",
    "districtCode": "S1247",
    "districtName": "UJJAIN",
    "acNumber": 218,
    "acName": "BADNAGAR",
    "partNumber": 106,
    "partName": "CHIKALI",
    "lat": 23.06401785,
    "lon": 75.4493728125683
  },
  {
    "partId": 126872,
    "stateCode": "S12",
    "stateName": "Madhya Pradesh",
    "districtCode": "S1247",
    "districtName": "UJJAIN",
    "acNumber": 218,
    "acName": "BADNAGAR",
    "partNumber": 107,
    "partName": "CHIKALI",
    "lat": 23.06401785,
    "lon": 75.4493728125683
  },
  {
    "partId": 126873,
    "stateCode": "S12",
    "stateName": "Madhya Pradesh",
    "districtCode": "S1247",
    "districtName": "UJJAIN",
    "acNumber": 218,
    "acName": "BADNAGAR",
    "partNumber": 108,
    "partName": "KADHAI",
    "lat": 23.09217475840708,
    "lon": 75.4559977579183
  },
  {
    "partId": 126884,
    "stateCode": "S12",
    "stateName": "Madhya Pradesh",
    "districtCode": "S1247",
    "districtName": "UJJAIN",
    "acNumber": 218,
    "acName": "BADNAGAR",
    "partNumber": 109,
    "partName": "BHONDAVAS",
    "lat": 23.06401785,
    "lon": 75.4493728125683
  },
  {
    "partId": 126885,
    "stateCode": "S12",
    "stateName": "Madhya Pradesh",
    "districtCode": "S1247",
    "districtName": "UJJAIN",
    "acNumber": 218,
    "acName": "BADNAGAR",
    "partNumber": 110,
    "partName": "NIMBODA",
    "lat": 23.10028475,
    "lon": 75.6095740563691
  },
  {
    "partId": 126917,
    "stateCode": "S12",
    "stateName": "Madhya Pradesh",
    "districtCode": "S1247",
    "districtName": "UJJAIN",
    "acNumber": 218,
    "acName": "BADNAGAR",
    "partNumber": 111,
    "partName": "NAHARKHEDI",
    "lat": 23.09217475840708,
    "lon": 75.4559977579183
  },
  {
    "partId": 126886,
    "stateCode": "S12",
    "stateName": "Madhya Pradesh",
    "districtCode": "S1247",
    "districtName": "UJJAIN",
    "acNumber": 218,
    "acName": "BADNAGAR",
    "partNumber": 112,
    "partName": "GHADASINGA",
    "lat": 23.06401785,
    "lon": 75.4493728125683
  },
  {
    "partId": 126887,
    "stateCode": "S12",
    "stateName": "Madhya Pradesh",
    "districtCode": "S1247",
    "districtName": "UJJAIN",
    "acNumber": 218,
    "acName": "BADNAGAR",
    "partNumber": 113,
    "partName": "BALEDI",
    "lat": 23.12260895,
    "lon": 75.55128411474504
  },
  {
    "partId": 126888,
    "stateCode": "S12",
    "stateName": "Madhya Pradesh",
    "districtCode": "S1247",
    "districtName": "UJJAIN",
    "acNumber": 218,
    "acName": "BADNAGAR",
    "partNumber": 114,
    "partName": "BALEDI",
    "lat": 23.12260895,
    "lon": 75.55128411474504
  },
  {
    "partId": 126889,
    "stateCode": "S12",
    "stateName": "Madhya Pradesh",
    "districtCode": "S1247",
    "districtName": "UJJAIN",
    "acNumber": 218,
    "acName": "BADNAGAR",
    "partNumber": 115,
    "partName": "BALEDI",
    "lat": 23.12260895,
    "lon": 75.55128411474504
  },
  {
    "partId": 126890,
    "stateCode": "S12",
    "stateName": "Madhya Pradesh",
    "districtCode": "S1247",
    "districtName": "UJJAIN",
    "acNumber": 218,
    "acName": "BADNAGAR",
    "partNumber": 116,
    "partName": "INGORIYA",
    "lat": 23.15857785,
    "lon": 75.56065476648371
  },
  {
    "partId": 126705,
    "stateCode": "S12",
    "stateName": "Madhya Pradesh",
    "districtCode": "S1247",
    "districtName": "UJJAIN",
    "acNumber": 218,
    "acName": "BADNAGAR",
    "partNumber": 117,
    "partName": "INGORIYA",
    "lat": 23.09217475840708,
    "lon": 75.4559977579183
  },
  {
    "partId": 126891,
    "stateCode": "S12",
    "stateName": "Madhya Pradesh",
    "districtCode": "S1247",
    "districtName": "UJJAIN",
    "acNumber": 218,
    "acName": "BADNAGAR",
    "partNumber": 118,
    "partName": "INGORIYA",
    "lat": 23.15857785,
    "lon": 75.56065476648371
  },
  {
    "partId": 126892,
    "stateCode": "S12",
    "stateName": "Madhya Pradesh",
    "districtCode": "S1247",
    "districtName": "UJJAIN",
    "acNumber": 218,
    "acName": "BADNAGAR",
    "partNumber": 119,
    "partName": "BHAISALAKHURD",
    "lat": 23.06401785,
    "lon": 75.4493728125683
  },
  {
    "partId": 126893,
    "stateCode": "S12",
    "stateName": "Madhya Pradesh",
    "districtCode": "S1247",
    "districtName": "UJJAIN",
    "acNumber": 218,
    "acName": "BADNAGAR",
    "partNumber": 120,
    "partName": "SARASANA",
    "lat": 23.09217475840708,
    "lon": 75.4559977579183
  },
  {
    "partId": 126859,
    "stateCode": "S12",
    "stateName": "Madhya Pradesh",
    "districtCode": "S1247",
    "districtName": "UJJAIN",
    "acNumber": 218,
    "acName": "BADNAGAR",
    "partNumber": 121,
    "partName": "GHURERI",
    "lat": 23.09217475840708,
    "lon": 75.4559977579183
  },
  {
    "partId": 126867,
    "stateCode": "S12",
    "stateName": "Madhya Pradesh",
    "districtCode": "S1247",
    "districtName": "UJJAIN",
    "acNumber": 218,
    "acName": "BADNAGAR",
    "partNumber": 122,
    "partName": "RAJOTA",
    "lat": 23.14496485,
    "lon": 75.48386491770918
  },
  {
    "partId": 126868,
    "stateCode": "S12",
    "stateName": "Madhya Pradesh",
    "districtCode": "S1247",
    "districtName": "UJJAIN",
    "acNumber": 218,
    "acName": "BADNAGAR",
    "partNumber": 123,
    "partName": "GANVADILOUDHA",
    "lat": 23.06401785,
    "lon": 75.4493728125683
  },
  {
    "partId": 126869,
    "stateCode": "S12",
    "stateName": "Madhya Pradesh",
    "districtCode": "S1247",
    "districtName": "UJJAIN",
    "acNumber": 218,
    "acName": "BADNAGAR",
    "partNumber": 124,
    "partName": "SIJAVATA",
    "lat": 23.06401785,
    "lon": 75.4493728125683
  },
  {
    "partId": 126870,
    "stateCode": "S12",
    "stateName": "Madhya Pradesh",
    "districtCode": "S1247",
    "districtName": "UJJAIN",
    "acNumber": 218,
    "acName": "BADNAGAR",
    "partNumber": 125,
    "partName": "KHANDODA",
    "lat": 23.1823684,
    "lon": 75.43780037534466
  },
  {
    "partId": 126863,
    "stateCode": "S12",
    "stateName": "Madhya Pradesh",
    "districtCode": "S1247",
    "districtName": "UJJAIN",
    "acNumber": 218,
    "acName": "BADNAGAR",
    "partNumber": 126,
    "partName": "SIMALAVADA",
    "lat": 23.06401785,
    "lon": 75.4493728125683
  },
  {
    "partId": 126864,
    "stateCode": "S12",
    "stateName": "Madhya Pradesh",
    "districtCode": "S1247",
    "districtName": "UJJAIN",
    "acNumber": 218,
    "acName": "BADNAGAR",
    "partNumber": 127,
    "partName": "PALAVA",
    "lat": 23.06401785,
    "lon": 75.4493728125683
  },
  {
    "partId": 126865,
    "stateCode": "S12",
    "stateName": "Madhya Pradesh",
    "districtCode": "S1247",
    "districtName": "UJJAIN",
    "acNumber": 218,
    "acName": "BADNAGAR",
    "partNumber": 128,
    "partName": "ITAVA",
    "lat": 23.06401785,
    "lon": 75.4493728125683
  },
  {
    "partId": 126866,
    "stateCode": "S12",
    "stateName": "Madhya Pradesh",
    "districtCode": "S1247",
    "districtName": "UJJAIN",
    "acNumber": 218,
    "acName": "BADNAGAR",
    "partNumber": 129,
    "partName": "SANVARA",
    "lat": 23.06401785,
    "lon": 75.4493728125683
  },
  {
    "partId": 126779,
    "stateCode": "S12",
    "stateName": "Madhya Pradesh",
    "districtCode": "S1247",
    "districtName": "UJJAIN",
    "acNumber": 218,
    "acName": "BADNAGAR",
    "partNumber": 130,
    "partName": "SINGAVADA",
    "lat": 23.06401785,
    "lon": 75.4493728125683
  },
  {
    "partId": 126918,
    "stateCode": "S12",
    "stateName": "Madhya Pradesh",
    "districtCode": "S1247",
    "districtName": "UJJAIN",
    "acNumber": 218,
    "acName": "BADNAGAR",
    "partNumber": 131,
    "partName": "MITHIKHEDI",
    "lat": 23.06401785,
    "lon": 75.4493728125683
  },
  {
    "partId": 126780,
    "stateCode": "S12",
    "stateName": "Madhya Pradesh",
    "districtCode": "S1247",
    "districtName": "UJJAIN",
    "acNumber": 218,
    "acName": "BADNAGAR",
    "partNumber": 132,
    "partName": "BIRAKHEDI",
    "lat": 23.1180677,
    "lon": 75.34273397472782
  },
  {
    "partId": 126708,
    "stateCode": "S12",
    "stateName": "Madhya Pradesh",
    "districtCode": "S1247",
    "districtName": "UJJAIN",
    "acNumber": 218,
    "acName": "BADNAGAR",
    "partNumber": 133,
    "partName": "RANAVADA",
    "lat": 23.06401785,
    "lon": 75.4493728125683
  },
  {
    "partId": 126709,
    "stateCode": "S12",
    "stateName": "Madhya Pradesh",
    "districtCode": "S1247",
    "districtName": "UJJAIN",
    "acNumber": 218,
    "acName": "BADNAGAR",
    "partNumber": 134,
    "partName": "PITALAVADIYA",
    "lat": 23.09217475840708,
    "lon": 75.4559977579183
  },
  {
    "partId": 126710,
    "stateCode": "S12",
    "stateName": "Madhya Pradesh",
    "districtCode": "S1247",
    "districtName": "UJJAIN",
    "acNumber": 218,
    "acName": "BADNAGAR",
    "partNumber": 135,
    "partName": "BALODA ARASI",
    "lat": 23.06401785,
    "lon": 75.4493728125683
  },
  {
    "partId": 126919,
    "stateCode": "S12",
    "stateName": "Madhya Pradesh",
    "districtCode": "S1247",
    "districtName": "UJJAIN",
    "acNumber": 218,
    "acName": "BADNAGAR",
    "partNumber": 136,
    "partName": "TOKRA",
    "lat": 23.10452665,
    "lon": 75.3308062199228
  },
  {
    "partId": 126720,
    "stateCode": "S12",
    "stateName": "Madhya Pradesh",
    "districtCode": "S1247",
    "districtName": "UJJAIN",
    "acNumber": 218,
    "acName": "BADNAGAR",
    "partNumber": 137,
    "partName": "JASSAKHEDI",
    "lat": 23.083484400000003,
    "lon": 75.32633799220773
  },
  {
    "partId": 126721,
    "stateCode": "S12",
    "stateName": "Madhya Pradesh",
    "districtCode": "S1247",
    "districtName": "UJJAIN",
    "acNumber": 218,
    "acName": "BADNAGAR",
    "partNumber": 138,
    "partName": "JANDALA",
    "lat": 23.09217475840708,
    "lon": 75.4559977579183
  },
  {
    "partId": 126715,
    "stateCode": "S12",
    "stateName": "Madhya Pradesh",
    "districtCode": "S1247",
    "districtName": "UJJAIN",
    "acNumber": 218,
    "acName": "BADNAGAR",
    "partNumber": 139,
    "partName": "JANDALA",
    "lat": 23.06401785,
    "lon": 75.4493728125683
  },
  {
    "partId": 126722,
    "stateCode": "S12",
    "stateName": "Madhya Pradesh",
    "districtCode": "S1247",
    "districtName": "UJJAIN",
    "acNumber": 218,
    "acName": "BADNAGAR",
    "partNumber": 140,
    "partName": "BISAHEDA",
    "lat": 23.06401785,
    "lon": 75.4493728125683
  },
  {
    "partId": 126834,
    "stateCode": "S12",
    "stateName": "Madhya Pradesh",
    "districtCode": "S1247",
    "districtName": "UJJAIN",
    "acNumber": 218,
    "acName": "BADNAGAR",
    "partNumber": 141,
    "partName": "DANTARWA",
    "lat": 23.1064968,
    "lon": 75.4045206843328
  },
  {
    "partId": 126835,
    "stateCode": "S12",
    "stateName": "Madhya Pradesh",
    "districtCode": "S1247",
    "districtName": "UJJAIN",
    "acNumber": 218,
    "acName": "BADNAGAR",
    "partNumber": 142,
    "partName": "MOULANA",
    "lat": 23.06401785,
    "lon": 75.4493728125683
  },
  {
    "partId": 126836,
    "stateCode": "S12",
    "stateName": "Madhya Pradesh",
    "districtCode": "S1247",
    "districtName": "UJJAIN",
    "acNumber": 218,
    "acName": "BADNAGAR",
    "partNumber": 143,
    "partName": "MOULANA",
    "lat": 23.06401785,
    "lon": 75.4493728125683
  },
  {
    "partId": 126894,
    "stateCode": "S12",
    "stateName": "Madhya Pradesh",
    "districtCode": "S1247",
    "districtName": "UJJAIN",
    "acNumber": 218,
    "acName": "BADNAGAR",
    "partNumber": 144,
    "partName": "RASULABAD",
    "lat": 23.1038725,
    "lon": 75.4237806282597
  },
  {
    "partId": 126895,
    "stateCode": "S12",
    "stateName": "Madhya Pradesh",
    "districtCode": "S1247",
    "districtName": "UJJAIN",
    "acNumber": 218,
    "acName": "BADNAGAR",
    "partNumber": 145,
    "partName": "KHARASOD KHURD",
    "lat": 23.06401785,
    "lon": 75.4493728125683
  },
  {
    "partId": 126896,
    "stateCode": "S12",
    "stateName": "Madhya Pradesh",
    "districtCode": "S1247",
    "districtName": "UJJAIN",
    "acNumber": 218,
    "acName": "BADNAGAR",
    "partNumber": 146,
    "partName": "KHARASODAKHURD",
    "lat": 23.09217475840708,
    "lon": 75.4559977579183
  },
  {
    "partId": 126897,
    "stateCode": "S12",
    "stateName": "Madhya Pradesh",
    "districtCode": "S1247",
    "districtName": "UJJAIN",
    "acNumber": 218,
    "acName": "BADNAGAR",
    "partNumber": 147,
    "partName": "KHARASOUDAKHURD",
    "lat": 23.06401785,
    "lon": 75.4493728125683
  },
  {
    "partId": 126880,
    "stateCode": "S12",
    "stateName": "Madhya Pradesh",
    "districtCode": "S1247",
    "districtName": "UJJAIN",
    "acNumber": 218,
    "acName": "BADNAGAR",
    "partNumber": 148,
    "partName": "KHARASOUDAKHURD",
    "lat": 23.06401785,
    "lon": 75.4493728125683
  },
  {
    "partId": 126898,
    "stateCode": "S12",
    "stateName": "Madhya Pradesh",
    "districtCode": "S1247",
    "districtName": "UJJAIN",
    "acNumber": 218,
    "acName": "BADNAGAR",
    "partNumber": 149,
    "partName": "SUNEDA",
    "lat": 23.09217475840708,
    "lon": 75.4559977579183
  },
  {
    "partId": 126726,
    "stateCode": "S12",
    "stateName": "Madhya Pradesh",
    "districtCode": "S1247",
    "districtName": "UJJAIN",
    "acNumber": 218,
    "acName": "BADNAGAR",
    "partNumber": 150,
    "partName": "KILOLI",
    "lat": 23.09217475840708,
    "lon": 75.4559977579183
  },
  {
    "partId": 126920,
    "stateCode": "S12",
    "stateName": "Madhya Pradesh",
    "districtCode": "S1247",
    "districtName": "UJJAIN",
    "acNumber": 218,
    "acName": "BADNAGAR",
    "partNumber": 151,
    "partName": "CHICHODIYA",
    "lat": 23.06401785,
    "lon": 75.4493728125683
  },
  {
    "partId": 126791,
    "stateCode": "S12",
    "stateName": "Madhya Pradesh",
    "districtCode": "S1247",
    "districtName": "UJJAIN",
    "acNumber": 218,
    "acName": "BADNAGAR",
    "partNumber": 152,
    "partName": "RANAVA",
    "lat": 23.06401785,
    "lon": 75.4493728125683
  },
  {
    "partId": 126792,
    "stateCode": "S12",
    "stateName": "Madhya Pradesh",
    "districtCode": "S1247",
    "districtName": "UJJAIN",
    "acNumber": 218,
    "acName": "BADNAGAR",
    "partNumber": 153,
    "partName": "UTAVAS",
    "lat": 23.06401785,
    "lon": 75.4493728125683
  },
  {
    "partId": 126793,
    "stateCode": "S12",
    "stateName": "Madhya Pradesh",
    "districtCode": "S1247",
    "districtName": "UJJAIN",
    "acNumber": 218,
    "acName": "BADNAGAR",
    "partNumber": 154,
    "partName": "PALADUNA",
    "lat": 23.06401785,
    "lon": 75.4493728125683
  },
  {
    "partId": 126794,
    "stateCode": "S12",
    "stateName": "Madhya Pradesh",
    "districtCode": "S1247",
    "districtName": "UJJAIN",
    "acNumber": 218,
    "acName": "BADNAGAR",
    "partNumber": 155,
    "partName": "PALADUNA",
    "lat": 23.06401785,
    "lon": 75.4493728125683
  },
  {
    "partId": 126795,
    "stateCode": "S12",
    "stateName": "Madhya Pradesh",
    "districtCode": "S1247",
    "districtName": "UJJAIN",
    "acNumber": 218,
    "acName": "BADNAGAR",
    "partNumber": 156,
    "partName": "LAKHESARA",
    "lat": 23.0584363,
    "lon": 75.50389702504579
  },
  {
    "partId": 126796,
    "stateCode": "S12",
    "stateName": "Madhya Pradesh",
    "districtCode": "S1247",
    "districtName": "UJJAIN",
    "acNumber": 218,
    "acName": "BADNAGAR",
    "partNumber": 157,
    "partName": "MASAVADIYA KHALSA",
    "lat": 23.09217475840708,
    "lon": 75.4559977579183
  },
  {
    "partId": 126879,
    "stateCode": "S12",
    "stateName": "Madhya Pradesh",
    "districtCode": "S1247",
    "districtName": "UJJAIN",
    "acNumber": 218,
    "acName": "BADNAGAR",
    "partNumber": 158,
    "partName": "NAMALPUR",
    "lat": 23.09217475840708,
    "lon": 75.4559977579183
  },
  {
    "partId": 126797,
    "stateCode": "S12",
    "stateName": "Madhya Pradesh",
    "districtCode": "S1247",
    "districtName": "UJJAIN",
    "acNumber": 218,
    "acName": "BADNAGAR",
    "partNumber": 159,
    "partName": "DANGAVADA",
    "lat": 23.06401785,
    "lon": 75.4493728125683
  },
  {
    "partId": 126798,
    "stateCode": "S12",
    "stateName": "Madhya Pradesh",
    "districtCode": "S1247",
    "districtName": "UJJAIN",
    "acNumber": 218,
    "acName": "BADNAGAR",
    "partNumber": 160,
    "partName": "DANGAVADA",
    "lat": 23.06401785,
    "lon": 75.4493728125683
  },
  {
    "partId": 126704,
    "stateCode": "S12",
    "stateName": "Madhya Pradesh",
    "districtCode": "S1247",
    "districtName": "UJJAIN",
    "acNumber": 218,
    "acName": "BADNAGAR",
    "partNumber": 161,
    "partName": "DANGAVADA",
    "lat": 23.06401785,
    "lon": 75.4493728125683
  },
  {
    "partId": 126799,
    "stateCode": "S12",
    "stateName": "Madhya Pradesh",
    "districtCode": "S1247",
    "districtName": "UJJAIN",
    "acNumber": 218,
    "acName": "BADNAGAR",
    "partNumber": 162,
    "partName": "PANSALOD",
    "lat": 23.06401785,
    "lon": 75.4493728125683
  },
  {
    "partId": 126800,
    "stateCode": "S12",
    "stateName": "Madhya Pradesh",
    "districtCode": "S1247",
    "districtName": "UJJAIN",
    "acNumber": 218,
    "acName": "BADNAGAR",
    "partNumber": 163,
    "partName": "NARASINGA",
    "lat": 23.09217475840708,
    "lon": 75.4559977579183
  },
  {
    "partId": 126878,
    "stateCode": "S12",
    "stateName": "Madhya Pradesh",
    "districtCode": "S1247",
    "districtName": "UJJAIN",
    "acNumber": 218,
    "acName": "BADNAGAR",
    "partNumber": 164,
    "partName": "NARASINGA",
    "lat": 23.06401785,
    "lon": 75.4493728125683
  },
  {
    "partId": 126801,
    "stateCode": "S12",
    "stateName": "Madhya Pradesh",
    "districtCode": "S1247",
    "districtName": "UJJAIN",
    "acNumber": 218,
    "acName": "BADNAGAR",
    "partNumber": 165,
    "partName": "SOHAD",
    "lat": 23.048387849999997,
    "lon": 75.4889048573468
  },
  {
    "partId": 126690,
    "stateCode": "S12",
    "stateName": "Madhya Pradesh",
    "districtCode": "S1247",
    "districtName": "UJJAIN",
    "acNumber": 218,
    "acName": "BADNAGAR",
    "partNumber": 166,
    "partName": "DOULATAPUR",
    "lat": 23.06401785,
    "lon": 75.4493728125683
  },
  {
    "partId": 126691,
    "stateCode": "S12",
    "stateName": "Madhya Pradesh",
    "districtCode": "S1247",
    "districtName": "UJJAIN",
    "acNumber": 218,
    "acName": "BADNAGAR",
    "partNumber": 167,
    "partName": "DOTARADI",
    "lat": 23.09217475840708,
    "lon": 75.4559977579183
  },
  {
    "partId": 126692,
    "stateCode": "S12",
    "stateName": "Madhya Pradesh",
    "districtCode": "S1247",
    "districtName": "UJJAIN",
    "acNumber": 218,
    "acName": "BADNAGAR",
    "partNumber": 168,
    "partName": "PIRAJHALAR",
    "lat": 23.06401785,
    "lon": 75.4493728125683
  },
  {
    "partId": 126899,
    "stateCode": "S12",
    "stateName": "Madhya Pradesh",
    "districtCode": "S1247",
    "districtName": "UJJAIN",
    "acNumber": 218,
    "acName": "BADNAGAR",
    "partNumber": 169,
    "partName": "PIRAJHALAR",
    "lat": 23.06401785,
    "lon": 75.4493728125683
  },
  {
    "partId": 126900,
    "stateCode": "S12",
    "stateName": "Madhya Pradesh",
    "districtCode": "S1247",
    "districtName": "UJJAIN",
    "acNumber": 218,
    "acName": "BADNAGAR",
    "partNumber": 170,
    "partName": "BIRAGODARANADHIR",
    "lat": 23.06401785,
    "lon": 75.4493728125683
  },
  {
    "partId": 126901,
    "stateCode": "S12",
    "stateName": "Madhya Pradesh",
    "districtCode": "S1247",
    "districtName": "UJJAIN",
    "acNumber": 218,
    "acName": "BADNAGAR",
    "partNumber": 171,
    "partName": "KHEDA MADHAV",
    "lat": 23.06401785,
    "lon": 75.4493728125683
  },
  {
    "partId": 126902,
    "stateCode": "S12",
    "stateName": "Madhya Pradesh",
    "districtCode": "S1247",
    "districtName": "UJJAIN",
    "acNumber": 218,
    "acName": "BADNAGAR",
    "partNumber": 172,
    "partName": "JHALARIYA",
    "lat": 23.06401785,
    "lon": 75.4493728125683
  },
  {
    "partId": 126903,
    "stateCode": "S12",
    "stateName": "Madhya Pradesh",
    "districtCode": "S1247",
    "districtName": "UJJAIN",
    "acNumber": 218,
    "acName": "BADNAGAR",
    "partNumber": 173,
    "partName": "KAJALANA",
    "lat": 23.06401785,
    "lon": 75.4493728125683
  },
  {
    "partId": 126904,
    "stateCode": "S12",
    "stateName": "Madhya Pradesh",
    "districtCode": "S1247",
    "districtName": "UJJAIN",
    "acNumber": 218,
    "acName": "BADNAGAR",
    "partNumber": 174,
    "partName": "BADANAGAR",
    "lat": 23.06401785,
    "lon": 75.4493728125683
  },
  {
    "partId": 126905,
    "stateCode": "S12",
    "stateName": "Madhya Pradesh",
    "districtCode": "S1247",
    "districtName": "UJJAIN",
    "acNumber": 218,
    "acName": "BADNAGAR",
    "partNumber": 175,
    "partName": "BADANAGAR",
    "lat": 23.06401785,
    "lon": 75.4493728125683
  },
  {
    "partId": 126906,
    "stateCode": "S12",
    "stateName": "Madhya Pradesh",
    "districtCode": "S1247",
    "districtName": "UJJAIN",
    "acNumber": 218,
    "acName": "BADNAGAR",
    "partNumber": 176,
    "partName": "BADANAGAR",
    "lat": 23.09217475840708,
    "lon": 75.4559977579183
  },
  {
    "partId": 126907,
    "stateCode": "S12",
    "stateName": "Madhya Pradesh",
    "districtCode": "S1247",
    "districtName": "UJJAIN",
    "acNumber": 218,
    "acName": "BADNAGAR",
    "partNumber": 177,
    "partName": "BADANAGAR",
    "lat": 23.06401785,
    "lon": 75.4493728125683
  },
  {
    "partId": 126679,
    "stateCode": "S12",
    "stateName": "Madhya Pradesh",
    "districtCode": "S1247",
    "districtName": "UJJAIN",
    "acNumber": 218,
    "acName": "BADNAGAR",
    "partNumber": 178,
    "partName": "BADANAGAR",
    "lat": 23.09217475840708,
    "lon": 75.4559977579183
  },
  {
    "partId": 126680,
    "stateCode": "S12",
    "stateName": "Madhya Pradesh",
    "districtCode": "S1247",
    "districtName": "UJJAIN",
    "acNumber": 218,
    "acName": "BADNAGAR",
    "partNumber": 179,
    "partName": "BADANAGAR",
    "lat": 23.06401785,
    "lon": 75.4493728125683
  },
  {
    "partId": 126703,
    "stateCode": "S12",
    "stateName": "Madhya Pradesh",
    "districtCode": "S1247",
    "districtName": "UJJAIN",
    "acNumber": 218,
    "acName": "BADNAGAR",
    "partNumber": 180,
    "partName": "BADANAGAR",
    "lat": 23.06401785,
    "lon": 75.4493728125683
  },
  {
    "partId": 126681,
    "stateCode": "S12",
    "stateName": "Madhya Pradesh",
    "districtCode": "S1247",
    "districtName": "UJJAIN",
    "acNumber": 218,
    "acName": "BADNAGAR",
    "partNumber": 181,
    "partName": "BADANAGAR",
    "lat": 23.06401785,
    "lon": 75.4493728125683
  },
  {
    "partId": 126714,
    "stateCode": "S12",
    "stateName": "Madhya Pradesh",
    "districtCode": "S1247",
    "districtName": "UJJAIN",
    "acNumber": 218,
    "acName": "BADNAGAR",
    "partNumber": 182,
    "partName": "BADANAGAR",
    "lat": 23.06401785,
    "lon": 75.4493728125683
  },
  {
    "partId": 126682,
    "stateCode": "S12",
    "stateName": "Madhya Pradesh",
    "districtCode": "S1247",
    "districtName": "UJJAIN",
    "acNumber": 218,
    "acName": "BADNAGAR",
    "partNumber": 183,
    "partName": "BADANAGAR",
    "lat": 23.06401785,
    "lon": 75.4493728125683
  },
  {
    "partId": 126921,
    "stateCode": "S12",
    "stateName": "Madhya Pradesh",
    "districtCode": "S1247",
    "districtName": "UJJAIN",
    "acNumber": 218,
    "acName": "BADNAGAR",
    "partNumber": 184,
    "partName": "BADNAGAR",
    "lat": 23.06401785,
    "lon": 75.4493728125683
  },
  {
    "partId": 126683,
    "stateCode": "S12",
    "stateName": "Madhya Pradesh",
    "districtCode": "S1247",
    "districtName": "UJJAIN",
    "acNumber": 218,
    "acName": "BADNAGAR",
    "partNumber": 185,
    "partName": "BADANAGAR",
    "lat": 23.06401785,
    "lon": 75.4493728125683
  },
  {
    "partId": 126684,
    "stateCode": "S12",
    "stateName": "Madhya Pradesh",
    "districtCode": "S1247",
    "districtName": "UJJAIN",
    "acNumber": 218,
    "acName": "BADNAGAR",
    "partNumber": 186,
    "partName": "BADANAGAR",
    "lat": 23.06401785,
    "lon": 75.4493728125683
  },
  {
    "partId": 126685,
    "stateCode": "S12",
    "stateName": "Madhya Pradesh",
    "districtCode": "S1247",
    "districtName": "UJJAIN",
    "acNumber": 218,
    "acName": "BADNAGAR",
    "partNumber": 187,
    "partName": "BADANAGAR",
    "lat": 23.06401785,
    "lon": 75.4493728125683
  },
  {
    "partId": 126686,
    "stateCode": "S12",
    "stateName": "Madhya Pradesh",
    "districtCode": "S1247",
    "districtName": "UJJAIN",
    "acNumber": 218,
    "acName": "BADNAGAR",
    "partNumber": 188,
    "partName": "BADANAGAR",
    "lat": 23.06401785,
    "lon": 75.4493728125683
  },
  {
    "partId": 126687,
    "stateCode": "S12",
    "stateName": "Madhya Pradesh",
    "districtCode": "S1247",
    "districtName": "UJJAIN",
    "acNumber": 218,
    "acName": "BADNAGAR",
    "partNumber": 189,
    "partName": "BADANAGAR",
    "lat": 23.06401785,
    "lon": 75.4493728125683
  },
  {
    "partId": 126787,
    "stateCode": "S12",
    "stateName": "Madhya Pradesh",
    "districtCode": "S1247",
    "districtName": "UJJAIN",
    "acNumber": 218,
    "acName": "BADNAGAR",
    "partNumber": 190,
    "partName": "BADANAGAR",
    "lat": 23.06401785,
    "lon": 75.4493728125683
  },
  {
    "partId": 126688,
    "stateCode": "S12",
    "stateName": "Madhya Pradesh",
    "districtCode": "S1247",
    "districtName": "UJJAIN",
    "acNumber": 218,
    "acName": "BADNAGAR",
    "partNumber": 191,
    "partName": "BADANAGAR",
    "lat": 23.06401785,
    "lon": 75.4493728125683
  },
  {
    "partId": 126689,
    "stateCode": "S12",
    "stateName": "Madhya Pradesh",
    "districtCode": "S1247",
    "districtName": "UJJAIN",
    "acNumber": 218,
    "acName": "BADNAGAR",
    "partNumber": 192,
    "partName": "BADANAGAR",
    "lat": 23.06401785,
    "lon": 75.4493728125683
  },
  {
    "partId": 126857,
    "stateCode": "S12",
    "stateName": "Madhya Pradesh",
    "districtCode": "S1247",
    "districtName": "UJJAIN",
    "acNumber": 218,
    "acName": "BADNAGAR",
    "partNumber": 193,
    "partName": "BADANAGAR",
    "lat": 23.06401785,
    "lon": 75.4493728125683
  },
  {
    "partId": 126858,
    "stateCode": "S12",
    "stateName": "Madhya Pradesh",
    "districtCode": "S1247",
    "districtName": "UJJAIN",
    "acNumber": 218,
    "acName": "BADNAGAR",
    "partNumber": 194,
    "partName": "BADANAGAR",
    "lat": 23.06401785,
    "lon": 75.4493728125683
  },
  {
    "partId": 126781,
    "stateCode": "S12",
    "stateName": "Madhya Pradesh",
    "districtCode": "S1247",
    "districtName": "UJJAIN",
    "acNumber": 218,
    "acName": "BADNAGAR",
    "partNumber": 195,
    "partName": "BADANAGAR",
    "lat": 23.06401785,
    "lon": 75.4493728125683
  },
  {
    "partId": 126782,
    "stateCode": "S12",
    "stateName": "Madhya Pradesh",
    "districtCode": "S1247",
    "districtName": "UJJAIN",
    "acNumber": 218,
    "acName": "BADNAGAR",
    "partNumber": 196,
    "partName": "BADANAGAR",
    "lat": 23.09217475840708,
    "lon": 75.4559977579183
  },
  {
    "partId": 126783,
    "stateCode": "S12",
    "stateName": "Madhya Pradesh",
    "districtCode": "S1247",
    "districtName": "UJJAIN",
    "acNumber": 218,
    "acName": "BADNAGAR",
    "partNumber": 197,
    "partName": "BADANAGAR",
    "lat": 23.06401785,
    "lon": 75.4493728125683
  },
  {
    "partId": 126711,
    "stateCode": "S12",
    "stateName": "Madhya Pradesh",
    "districtCode": "S1247",
    "districtName": "UJJAIN",
    "acNumber": 218,
    "acName": "BADNAGAR",
    "partNumber": 198,
    "partName": "BADANAGAR",
    "lat": 23.09217475840708,
    "lon": 75.4559977579183
  },
  {
    "partId": 126786,
    "stateCode": "S12",
    "stateName": "Madhya Pradesh",
    "districtCode": "S1247",
    "districtName": "UJJAIN",
    "acNumber": 218,
    "acName": "BADNAGAR",
    "partNumber": 199,
    "partName": "BADANAGAR",
    "lat": 23.06401785,
    "lon": 75.4493728125683
  },
  {
    "partId": 126712,
    "stateCode": "S12",
    "stateName": "Madhya Pradesh",
    "districtCode": "S1247",
    "districtName": "UJJAIN",
    "acNumber": 218,
    "acName": "BADNAGAR",
    "partNumber": 200,
    "partName": "BADANAGAR",
    "lat": 23.06401785,
    "lon": 75.4493728125683
  },
  {
    "partId": 126922,
    "stateCode": "S12",
    "stateName": "Madhya Pradesh",
    "districtCode": "S1247",
    "districtName": "UJJAIN",
    "acNumber": 218,
    "acName": "BADNAGAR",
    "partNumber": 201,
    "partName": "BADNAGAR",
    "lat": 23.06401785,
    "lon": 75.4493728125683
  },
  {
    "partId": 126713,
    "stateCode": "S12",
    "stateName": "Madhya Pradesh",
    "districtCode": "S1247",
    "districtName": "UJJAIN",
    "acNumber": 218,
    "acName": "BADNAGAR",
    "partNumber": 202,
    "partName": "BADANAGAR",
    "lat": 23.09217475840708,
    "lon": 75.4559977579183
  },
  {
    "partId": 126727,
    "stateCode": "S12",
    "stateName": "Madhya Pradesh",
    "districtCode": "S1247",
    "districtName": "UJJAIN",
    "acNumber": 218,
    "acName": "BADNAGAR",
    "partNumber": 203,
    "partName": "BARAGADI",
    "lat": 23.06401785,
    "lon": 75.4493728125683
  },
  {
    "partId": 126832,
    "stateCode": "S12",
    "stateName": "Madhya Pradesh",
    "districtCode": "S1247",
    "districtName": "UJJAIN",
    "acNumber": 218,
    "acName": "BADNAGAR",
    "partNumber": 204,
    "partName": "JAPHALA",
    "lat": 23.06401785,
    "lon": 75.4493728125683
  },
  {
    "partId": 126833,
    "stateCode": "S12",
    "stateName": "Madhya Pradesh",
    "districtCode": "S1247",
    "districtName": "UJJAIN",
    "acNumber": 218,
    "acName": "BADNAGAR",
    "partNumber": 205,
    "partName": "BHOMALAVAS",
    "lat": 23.06401785,
    "lon": 75.4493728125683
  },
  {
    "partId": 126723,
    "stateCode": "S12",
    "stateName": "Madhya Pradesh",
    "districtCode": "S1247",
    "districtName": "UJJAIN",
    "acNumber": 218,
    "acName": "BADNAGAR",
    "partNumber": 206,
    "partName": "UMARIYA",
    "lat": 23.4353987,
    "lon": 75.62613457638389
  },
  {
    "partId": 126785,
    "stateCode": "S12",
    "stateName": "Madhya Pradesh",
    "districtCode": "S1247",
    "districtName": "UJJAIN",
    "acNumber": 218,
    "acName": "BADNAGAR",
    "partNumber": 207,
    "partName": "UMARIYA",
    "lat": 23.4353987,
    "lon": 75.62613457638389
  },
  {
    "partId": 126724,
    "stateCode": "S12",
    "stateName": "Madhya Pradesh",
    "districtCode": "S1247",
    "districtName": "UJJAIN",
    "acNumber": 218,
    "acName": "BADNAGAR",
    "partNumber": 208,
    "partName": "JALODIYA",
    "lat": 23.438069050000003,
    "lon": 75.51733966928235
  },
  {
    "partId": 126784,
    "stateCode": "S12",
    "stateName": "Madhya Pradesh",
    "districtCode": "S1247",
    "districtName": "UJJAIN",
    "acNumber": 218,
    "acName": "BADNAGAR",
    "partNumber": 209,
    "partName": "JALODIYA",
    "lat": 23.438069050000003,
    "lon": 75.51733966928235
  },
  {
    "partId": 126725,
    "stateCode": "S12",
    "stateName": "Madhya Pradesh",
    "districtCode": "S1247",
    "districtName": "UJJAIN",
    "acNumber": 218,
    "acName": "BADNAGAR",
    "partNumber": 210,
    "partName": "ASAVATA",
    "lat": 23.06401785,
    "lon": 75.4493728125683
  },
  {
    "partId": 126819,
    "stateCode": "S12",
    "stateName": "Madhya Pradesh",
    "districtCode": "S1247",
    "districtName": "UJJAIN",
    "acNumber": 218,
    "acName": "BADNAGAR",
    "partNumber": 211,
    "partName": "AKOLIYA",
    "lat": 22.98791085,
    "lon": 75.46525044987337
  },
  {
    "partId": 126923,
    "stateCode": "S12",
    "stateName": "Madhya Pradesh",
    "districtCode": "S1247",
    "districtName": "UJJAIN",
    "acNumber": 218,
    "acName": "BADNAGAR",
    "partNumber": 212,
    "partName": "TAKRAVADA",
    "lat": 23.06401785,
    "lon": 75.4493728125683
  },
  {
    "partId": 126820,
    "stateCode": "S12",
    "stateName": "Madhya Pradesh",
    "districtCode": "S1247",
    "districtName": "UJJAIN",
    "acNumber": 218,
    "acName": "BADNAGAR",
    "partNumber": 213,
    "partName": "PHATEHAPUR",
    "lat": 23.06401785,
    "lon": 75.4493728125683
  },
  {
    "partId": 126877,
    "stateCode": "S12",
    "stateName": "Madhya Pradesh",
    "districtCode": "S1247",
    "districtName": "UJJAIN",
    "acNumber": 218,
    "acName": "BADNAGAR",
    "partNumber": 214,
    "partName": "PHATEHAPUR",
    "lat": 23.06401785,
    "lon": 75.4493728125683
  },
  {
    "partId": 126821,
    "stateCode": "S12",
    "stateName": "Madhya Pradesh",
    "districtCode": "S1247",
    "districtName": "UJJAIN",
    "acNumber": 218,
    "acName": "BADNAGAR",
    "partNumber": 215,
    "partName": "BISALAKHEDI",
    "lat": 23.06401785,
    "lon": 75.4493728125683
  },
  {
    "partId": 126822,
    "stateCode": "S12",
    "stateName": "Madhya Pradesh",
    "districtCode": "S1247",
    "districtName": "UJJAIN",
    "acNumber": 218,
    "acName": "BADNAGAR",
    "partNumber": 216,
    "partName": "GUNAVAD",
    "lat": 23.06401785,
    "lon": 75.4493728125683
  },
  {
    "partId": 126818,
    "stateCode": "S12",
    "stateName": "Madhya Pradesh",
    "districtCode": "S1247",
    "districtName": "UJJAIN",
    "acNumber": 218,
    "acName": "BADNAGAR",
    "partNumber": 217,
    "partName": "GUNAVAD",
    "lat": 23.06401785,
    "lon": 75.4493728125683
  },
  {
    "partId": 126823,
    "stateCode": "S12",
    "stateName": "Madhya Pradesh",
    "districtCode": "S1247",
    "districtName": "UJJAIN",
    "acNumber": 218,
    "acName": "BADNAGAR",
    "partNumber": 218,
    "partName": "DOTARU",
    "lat": 23.06401785,
    "lon": 75.4493728125683
  },
  {
    "partId": 126824,
    "stateCode": "S12",
    "stateName": "Madhya Pradesh",
    "districtCode": "S1247",
    "districtName": "UJJAIN",
    "acNumber": 218,
    "acName": "BADNAGAR",
    "partNumber": 219,
    "partName": "PIPALU",
    "lat": 23.06401785,
    "lon": 75.4493728125683
  },
  {
    "partId": 126825,
    "stateCode": "S12",
    "stateName": "Madhya Pradesh",
    "districtCode": "S1247",
    "districtName": "UJJAIN",
    "acNumber": 218,
    "acName": "BADNAGAR",
    "partNumber": 220,
    "partName": "PIPALU",
    "lat": 23.06401785,
    "lon": 75.4493728125683
  },
  {
    "partId": 126876,
    "stateCode": "S12",
    "stateName": "Madhya Pradesh",
    "districtCode": "S1247",
    "districtName": "UJJAIN",
    "acNumber": 218,
    "acName": "BADNAGAR",
    "partNumber": 221,
    "partName": "GAJI KHEDI",
    "lat": 23.06401785,
    "lon": 75.4493728125683
  },
  {
    "partId": 126826,
    "stateCode": "S12",
    "stateName": "Madhya Pradesh",
    "districtCode": "S1247",
    "districtName": "UJJAIN",
    "acNumber": 218,
    "acName": "BADNAGAR",
    "partNumber": 222,
    "partName": "BIRAGODANATHU",
    "lat": 22.9154869,
    "lon": 75.4122194
  },
  {
    "partId": 126827,
    "stateCode": "S12",
    "stateName": "Madhya Pradesh",
    "districtCode": "S1247",
    "districtName": "UJJAIN",
    "acNumber": 218,
    "acName": "BADNAGAR",
    "partNumber": 223,
    "partName": "PITHOURA",
    "lat": 23.06401785,
    "lon": 75.4493728125683
  },
  {
    "partId": 126828,
    "stateCode": "S12",
    "stateName": "Madhya Pradesh",
    "districtCode": "S1247",
    "districtName": "UJJAIN",
    "acNumber": 218,
    "acName": "BADNAGAR",
    "partNumber": 224,
    "partName": "BANGARED",
    "lat": 23.06401785,
    "lon": 75.4493728125683
  },
  {
    "partId": 126829,
    "stateCode": "S12",
    "stateName": "Madhya Pradesh",
    "districtCode": "S1247",
    "districtName": "UJJAIN",
    "acNumber": 218,
    "acName": "BADNAGAR",
    "partNumber": 225,
    "partName": "BANGARED",
    "lat": 23.06401785,
    "lon": 75.4493728125683
  },
  {
    "partId": 126830,
    "stateCode": "S12",
    "stateName": "Madhya Pradesh",
    "districtCode": "S1247",
    "districtName": "UJJAIN",
    "acNumber": 218,
    "acName": "BADNAGAR",
    "partNumber": 226,
    "partName": "KHANDAVASURA",
    "lat": 23.06401785,
    "lon": 75.4493728125683
  },
  {
    "partId": 126831,
    "stateCode": "S12",
    "stateName": "Madhya Pradesh",
    "districtCode": "S1247",
    "districtName": "UJJAIN",
    "acNumber": 218,
    "acName": "BADNAGAR",
    "partNumber": 227,
    "partName": "LIKHODA",
    "lat": 23.0008067,
    "lon": 75.37756199010094
  },
  {
    "partId": 126773,
    "stateCode": "S12",
    "stateName": "Madhya Pradesh",
    "districtCode": "S1247",
    "districtName": "UJJAIN",
    "acNumber": 218,
    "acName": "BADNAGAR",
    "partNumber": 228,
    "partName": "UBARADIYA",
    "lat": 23.06401785,
    "lon": 75.4493728125683
  },
  {
    "partId": 126774,
    "stateCode": "S12",
    "stateName": "Madhya Pradesh",
    "districtCode": "S1247",
    "districtName": "UJJAIN",
    "acNumber": 218,
    "acName": "BADNAGAR",
    "partNumber": 229,
    "partName": "ANJADA",
    "lat": 23.06401785,
    "lon": 75.4493728125683
  },
  {
    "partId": 126775,
    "stateCode": "S12",
    "stateName": "Madhya Pradesh",
    "districtCode": "S1247",
    "districtName": "UJJAIN",
    "acNumber": 218,
    "acName": "BADNAGAR",
    "partNumber": 230,
    "partName": "AMALA",
    "lat": 23.06401785,
    "lon": 75.4493728125683
  },
  {
    "partId": 126776,
    "stateCode": "S12",
    "stateName": "Madhya Pradesh",
    "districtCode": "S1247",
    "districtName": "UJJAIN",
    "acNumber": 218,
    "acName": "BADNAGAR",
    "partNumber": 231,
    "partName": "AMALA",
    "lat": 23.06401785,
    "lon": 75.4493728125683
  },
  {
    "partId": 126777,
    "stateCode": "S12",
    "stateName": "Madhya Pradesh",
    "districtCode": "S1247",
    "districtName": "UJJAIN",
    "acNumber": 218,
    "acName": "BADNAGAR",
    "partNumber": 232,
    "partName": "AMALA",
    "lat": 23.06401785,
    "lon": 75.4493728125683
  },
  {
    "partId": 126778,
    "stateCode": "S12",
    "stateName": "Madhya Pradesh",
    "districtCode": "S1247",
    "districtName": "UJJAIN",
    "acNumber": 218,
    "acName": "BADNAGAR",
    "partNumber": 233,
    "partName": "AMALA",
    "lat": 23.06401785,
    "lon": 75.4493728125683
  },
  {
    "partId": 126875,
    "stateCode": "S12",
    "stateName": "Madhya Pradesh",
    "districtCode": "S1247",
    "districtName": "UJJAIN",
    "acNumber": 218,
    "acName": "BADNAGAR",
    "partNumber": 234,
    "partName": "ARJUNA KHEDI",
    "lat": 23.06401785,
    "lon": 75.4493728125683
  },
  {
    "partId": 126701,
    "stateCode": "S12",
    "stateName": "Madhya Pradesh",
    "districtCode": "S1247",
    "districtName": "UJJAIN",
    "acNumber": 218,
    "acName": "BADNAGAR",
    "partNumber": 235,
    "partName": "LOHARIYA",
    "lat": 22.9680722,
    "lon": 75.3378564
  },
  {
    "partId": 126677,
    "stateCode": "S12",
    "stateName": "Madhya Pradesh",
    "districtCode": "S1247",
    "districtName": "UJJAIN",
    "acNumber": 218,
    "acName": "BADNAGAR",
    "partNumber": 236,
    "partName": "RAVADIYAKALA",
    "lat": 23.06401785,
    "lon": 75.4493728125683
  },
  {
    "partId": 126678,
    "stateCode": "S12",
    "stateName": "Madhya Pradesh",
    "districtCode": "S1247",
    "districtName": "UJJAIN",
    "acNumber": 218,
    "acName": "BADNAGAR",
    "partNumber": 237,
    "partName": "SUKALANA",
    "lat": 23.06401785,
    "lon": 75.4493728125683
  },
  {
    "partId": 126874,
    "stateCode": "S12",
    "stateName": "Madhya Pradesh",
    "districtCode": "S1247",
    "districtName": "UJJAIN",
    "acNumber": 218,
    "acName": "BADNAGAR",
    "partNumber": 238,
    "partName": "BIDAVAD K 3",
    "lat": 23.06401785,
    "lon": 75.4493728125683
  },
  {
    "partId": 126738,
    "stateCode": "S12",
    "stateName": "Madhya Pradesh",
    "districtCode": "S1247",
    "districtName": "UJJAIN",
    "acNumber": 218,
    "acName": "BADNAGAR",
    "partNumber": 239,
    "partName": "BHIDAVAD",
    "lat": 23.06401785,
    "lon": 75.4493728125683
  },
  {
    "partId": 126739,
    "stateCode": "S12",
    "stateName": "Madhya Pradesh",
    "districtCode": "S1247",
    "districtName": "UJJAIN",
    "acNumber": 218,
    "acName": "BADNAGAR",
    "partNumber": 240,
    "partName": "SAROLA",
    "lat": 23.195313849999998,
    "lon": 76.07032637679973
  },
  {
    "partId": 126740,
    "stateCode": "S12",
    "stateName": "Madhya Pradesh",
    "districtCode": "S1247",
    "districtName": "UJJAIN",
    "acNumber": 218,
    "acName": "BADNAGAR",
    "partNumber": 241,
    "partName": "DHATURIYA",
    "lat": 23.53365205,
    "lon": 75.28182438963427
  },
  {
    "partId": 126851,
    "stateCode": "S12",
    "stateName": "Madhya Pradesh",
    "districtCode": "S1247",
    "districtName": "UJJAIN",
    "acNumber": 218,
    "acName": "BADNAGAR",
    "partNumber": 242,
    "partName": "MUNDALA",
    "lat": 23.06401785,
    "lon": 75.4493728125683
  },
  {
    "partId": 126852,
    "stateCode": "S12",
    "stateName": "Madhya Pradesh",
    "districtCode": "S1247",
    "districtName": "UJJAIN",
    "acNumber": 218,
    "acName": "BADNAGAR",
    "partNumber": 243,
    "partName": "LOHANA",
    "lat": 22.908967349999998,
    "lon": 75.39109130544313
  },
  {
    "partId": 126853,
    "stateCode": "S12",
    "stateName": "Madhya Pradesh",
    "districtCode": "S1247",
    "districtName": "UJJAIN",
    "acNumber": 218,
    "acName": "BADNAGAR",
    "partNumber": 244,
    "partName": "LOHANA",
    "lat": 22.908967349999998,
    "lon": 75.39109130544313
  },
  {
    "partId": 126854,
    "stateCode": "S12",
    "stateName": "Madhya Pradesh",
    "districtCode": "S1247",
    "districtName": "UJJAIN",
    "acNumber": 218,
    "acName": "BADNAGAR",
    "partNumber": 245,
    "partName": "KUNAGARA",
    "lat": 23.06401785,
    "lon": 75.4493728125683
  },
  {
    "partId": 126855,
    "stateCode": "S12",
    "stateName": "Madhya Pradesh",
    "districtCode": "S1247",
    "districtName": "UJJAIN",
    "acNumber": 218,
    "acName": "BADNAGAR",
    "partNumber": 246,
    "partName": "KHANDAVABIBI",
    "lat": 23.06401785,
    "lon": 75.4493728125683
  },
  {
    "partId": 126924,
    "stateCode": "S12",
    "stateName": "Madhya Pradesh",
    "districtCode": "S1247",
    "districtName": "UJJAIN",
    "acNumber": 218,
    "acName": "BADNAGAR",
    "partNumber": 247,
    "partName": "SATWASA",
    "lat": 23.09217475840708,
    "lon": 75.4559977579183
  },
  {
    "partId": 126856,
    "stateCode": "S12",
    "stateName": "Madhya Pradesh",
    "districtCode": "S1247",
    "districtName": "UJJAIN",
    "acNumber": 218,
    "acName": "BADNAGAR",
    "partNumber": 248,
    "partName": "NAVADA",
    "lat": 23.06401785,
    "lon": 75.4493728125683
  },
  {
    "partId": 126702,
    "stateCode": "S12",
    "stateName": "Madhya Pradesh",
    "districtCode": "S1247",
    "districtName": "UJJAIN",
    "acNumber": 218,
    "acName": "BADNAGAR",
    "partNumber": 249,
    "partName": "BADAGARA",
    "lat": 23.06401785,
    "lon": 75.4493728125683
  },
  {
    "partId": 125066,
    "stateCode": "S12",
    "stateName": "Madhya Pradesh",
    "districtCode": "S1247",
    "districtName": "UJJAIN",
    "acNumber": 215,
    "acName": "GHATIYA",
    "partNumber": 1,
    "partName": "JALODIYA UNHEL",
    "lat": 23.438069050000003,
    "lon": 75.51733966928235
  },
  {
    "partId": 125067,
    "stateCode": "S12",
    "stateName": "Madhya Pradesh",
    "districtCode": "S1247",
    "districtName": "UJJAIN",
    "acNumber": 215,
    "acName": "GHATIYA",
    "partNumber": 2,
    "partName": "KHIMLAKHEDI",
    "lat": 23.383483599999998,
    "lon": 75.85537538153358
  },
  {
    "partId": 125068,
    "stateCode": "S12",
    "stateName": "Madhya Pradesh",
    "districtCode": "S1247",
    "districtName": "UJJAIN",
    "acNumber": 215,
    "acName": "GHATIYA",
    "partNumber": 3,
    "partName": "MAHU",
    "lat": 23.41700795,
    "lon": 75.5324720860581
  },
  {
    "partId": 125069,
    "stateCode": "S12",
    "stateName": "Madhya Pradesh",
    "districtCode": "S1247",
    "districtName": "UJJAIN",
    "acNumber": 215,
    "acName": "GHATIYA",
    "partNumber": 4,
    "partName": "BARKHEDA MANDAN",
    "lat": 23.383483599999998,
    "lon": 75.85537538153358
  },
  {
    "partId": 125032,
    "stateCode": "S12",
    "stateName": "Madhya Pradesh",
    "districtCode": "S1247",
    "districtName": "UJJAIN",
    "acNumber": 215,
    "acName": "GHATIYA",
    "partNumber": 5,
    "partName": "GURACHHA",
    "lat": 23.349378395652174,
    "lon": 75.8223851212459
  },
  {
    "partId": 125070,
    "stateCode": "S12",
    "stateName": "Madhya Pradesh",
    "districtCode": "S1247",
    "districtName": "UJJAIN",
    "acNumber": 215,
    "acName": "GHATIYA",
    "partNumber": 6,
    "partName": "PANKHEDI",
    "lat": 23.4361794,
    "lon": 75.5845556246073
  },
  {
    "partId": 125071,
    "stateCode": "S12",
    "stateName": "Madhya Pradesh",
    "districtCode": "S1247",
    "districtName": "UJJAIN",
    "acNumber": 215,
    "acName": "GHATIYA",
    "partNumber": 7,
    "partName": "MEL MUNDLA",
    "lat": 23.383483599999998,
    "lon": 75.85537538153358
  },
  {
    "partId": 124938,
    "stateCode": "S12",
    "stateName": "Madhya Pradesh",
    "districtCode": "S1247",
    "districtName": "UJJAIN",
    "acNumber": 215,
    "acName": "GHATIYA",
    "partNumber": 8,
    "partName": "UMARIYA",
    "lat": 23.4353987,
    "lon": 75.62613457638389
  },
  {
    "partId": 125024,
    "stateCode": "S12",
    "stateName": "Madhya Pradesh",
    "districtCode": "S1247",
    "districtName": "UJJAIN",
    "acNumber": 215,
    "acName": "GHATIYA",
    "partNumber": 9,
    "partName": "RAYYAPUR",
    "lat": 23.383483599999998,
    "lon": 75.85537538153358
  },
  {
    "partId": 124939,
    "stateCode": "S12",
    "stateName": "Madhya Pradesh",
    "districtCode": "S1247",
    "districtName": "UJJAIN",
    "acNumber": 215,
    "acName": "GHATIYA",
    "partNumber": 10,
    "partName": "GURADIYA SANGA",
    "lat": 23.4203628,
    "lon": 75.62843533783033
  },
  {
    "partId": 124940,
    "stateCode": "S12",
    "stateName": "Madhya Pradesh",
    "districtCode": "S1247",
    "districtName": "UJJAIN",
    "acNumber": 215,
    "acName": "GHATIYA",
    "partNumber": 11,
    "partName": "ALOT JAGIR",
    "lat": 23.40566105,
    "lon": 75.61040166345762
  },
  {
    "partId": 124993,
    "stateCode": "S12",
    "stateName": "Madhya Pradesh",
    "districtCode": "S1247",
    "districtName": "UJJAIN",
    "acNumber": 215,
    "acName": "GHATIYA",
    "partNumber": 12,
    "partName": "ALOT JAGIR",
    "lat": 23.40566105,
    "lon": 75.61040166345762
  },
  {
    "partId": 124941,
    "stateCode": "S12",
    "stateName": "Madhya Pradesh",
    "districtCode": "S1247",
    "districtName": "UJJAIN",
    "acNumber": 215,
    "acName": "GHATIYA",
    "partNumber": 13,
    "partName": "CHIDIRAVADIYA",
    "lat": 23.383483599999998,
    "lon": 75.85537538153358
  },
  {
    "partId": 124942,
    "stateCode": "S12",
    "stateName": "Madhya Pradesh",
    "districtCode": "S1247",
    "districtName": "UJJAIN",
    "acNumber": 215,
    "acName": "GHATIYA",
    "partNumber": 14,
    "partName": "PIPALYA SARANG",
    "lat": 23.3737812,
    "lon": 75.63048370100282
  },
  {
    "partId": 125015,
    "stateCode": "S12",
    "stateName": "Madhya Pradesh",
    "districtCode": "S1247",
    "districtName": "UJJAIN",
    "acNumber": 215,
    "acName": "GHATIYA",
    "partNumber": 15,
    "partName": "KARANAVAD",
    "lat": 23.383483599999998,
    "lon": 75.85537538153358
  },
  {
    "partId": 124992,
    "stateCode": "S12",
    "stateName": "Madhya Pradesh",
    "districtCode": "S1247",
    "districtName": "UJJAIN",
    "acNumber": 215,
    "acName": "GHATIYA",
    "partNumber": 16,
    "partName": "KARANAVAD",
    "lat": 23.383483599999998,
    "lon": 75.85537538153358
  },
  {
    "partId": 125016,
    "stateCode": "S12",
    "stateName": "Madhya Pradesh",
    "districtCode": "S1247",
    "districtName": "UJJAIN",
    "acNumber": 215,
    "acName": "GHATIYA",
    "partNumber": 17,
    "partName": "ITAVA",
    "lat": 23.383483599999998,
    "lon": 75.85537538153358
  },
  {
    "partId": 125031,
    "stateCode": "S12",
    "stateName": "Madhya Pradesh",
    "districtCode": "S1247",
    "districtName": "UJJAIN",
    "acNumber": 215,
    "acName": "GHATIYA",
    "partNumber": 18,
    "partName": "BAIJNATH KHEDI",
    "lat": 23.383483599999998,
    "lon": 75.85537538153358
  },
  {
    "partId": 125017,
    "stateCode": "S12",
    "stateName": "Madhya Pradesh",
    "districtCode": "S1247",
    "districtName": "UJJAIN",
    "acNumber": 215,
    "acName": "GHATIYA",
    "partNumber": 19,
    "partName": "DIDIYAKHEDI",
    "lat": 23.3591141,
    "lon": 75.5728422949554
  },
  {
    "partId": 125030,
    "stateCode": "S12",
    "stateName": "Madhya Pradesh",
    "districtCode": "S1247",
    "districtName": "UJJAIN",
    "acNumber": 215,
    "acName": "GHATIYA",
    "partNumber": 20,
    "partName": "PAGARA",
    "lat": 23.3299009,
    "lon": 75.59529583223144
  },
  {
    "partId": 125018,
    "stateCode": "S12",
    "stateName": "Madhya Pradesh",
    "districtCode": "S1247",
    "districtName": "UJJAIN",
    "acNumber": 215,
    "acName": "GHATIYA",
    "partNumber": 21,
    "partName": "JHIRANYA UNHEL",
    "lat": 23.399979199999997,
    "lon": 75.58037333211703
  },
  {
    "partId": 125019,
    "stateCode": "S12",
    "stateName": "Madhya Pradesh",
    "districtCode": "S1247",
    "districtName": "UJJAIN",
    "acNumber": 215,
    "acName": "GHATIYA",
    "partNumber": 22,
    "partName": "SARAVANA UNHEL",
    "lat": 23.383483599999998,
    "lon": 75.85537538153358
  },
  {
    "partId": 124943,
    "stateCode": "S12",
    "stateName": "Madhya Pradesh",
    "districtCode": "S1247",
    "districtName": "UJJAIN",
    "acNumber": 215,
    "acName": "GHATIYA",
    "partNumber": 23,
    "partName": "DALLAHEDA",
    "lat": 23.383483599999998,
    "lon": 75.85537538153358
  },
  {
    "partId": 125023,
    "stateCode": "S12",
    "stateName": "Madhya Pradesh",
    "districtCode": "S1247",
    "districtName": "UJJAIN",
    "acNumber": 215,
    "acName": "GHATIYA",
    "partNumber": 24,
    "partName": "CHIKUGANG",
    "lat": 23.383483599999998,
    "lon": 75.85537538153358
  },
  {
    "partId": 124944,
    "stateCode": "S12",
    "stateName": "Madhya Pradesh",
    "districtCode": "S1247",
    "districtName": "UJJAIN",
    "acNumber": 215,
    "acName": "GHATIYA",
    "partNumber": 25,
    "partName": "DHUMAHEDA",
    "lat": 23.383483599999998,
    "lon": 75.85537538153358
  },
  {
    "partId": 125089,
    "stateCode": "S12",
    "stateName": "Madhya Pradesh",
    "districtCode": "S1247",
    "districtName": "UJJAIN",
    "acNumber": 215,
    "acName": "GHATIYA",
    "partNumber": 26,
    "partName": "HATAI",
    "lat": 23.3988789,
    "lon": 75.48394150117798
  },
  {
    "partId": 125062,
    "stateCode": "S12",
    "stateName": "Madhya Pradesh",
    "districtCode": "S1247",
    "districtName": "UJJAIN",
    "acNumber": 215,
    "acName": "GHATIYA",
    "partNumber": 27,
    "partName": "PIPALYASHISH",
    "lat": 23.383483599999998,
    "lon": 75.85537538153358
  },
  {
    "partId": 125090,
    "stateCode": "S12",
    "stateName": "Madhya Pradesh",
    "districtCode": "S1247",
    "districtName": "UJJAIN",
    "acNumber": 215,
    "acName": "GHATIYA",
    "partNumber": 28,
    "partName": "JHIRANYA KHACHROD",
    "lat": 23.383483599999998,
    "lon": 75.85537538153358
  },
  {
    "partId": 125091,
    "stateCode": "S12",
    "stateName": "Madhya Pradesh",
    "districtCode": "S1247",
    "districtName": "UJJAIN",
    "acNumber": 215,
    "acName": "GHATIYA",
    "partNumber": 29,
    "partName": "NIMBODIYA KHURD",
    "lat": 23.38531515,
    "lon": 75.4251453116268
  },
  {
    "partId": 125092,
    "stateCode": "S12",
    "stateName": "Madhya Pradesh",
    "districtCode": "S1247",
    "districtName": "UJJAIN",
    "acNumber": 215,
    "acName": "GHATIYA",
    "partNumber": 30,
    "partName": "PIPALODA SAGOTIMATA",
    "lat": 23.383483599999998,
    "lon": 75.85537538153358
  },
  {
    "partId": 125025,
    "stateCode": "S12",
    "stateName": "Madhya Pradesh",
    "districtCode": "S1247",
    "districtName": "UJJAIN",
    "acNumber": 215,
    "acName": "GHATIYA",
    "partNumber": 31,
    "partName": "PIPALODA SAGOTIMATA",
    "lat": 23.383483599999998,
    "lon": 75.85537538153358
  },
  {
    "partId": 124987,
    "stateCode": "S12",
    "stateName": "Madhya Pradesh",
    "districtCode": "S1247",
    "districtName": "UJJAIN",
    "acNumber": 215,
    "acName": "GHATIYA",
    "partNumber": 32,
    "partName": "PIPALODA SAGOTIMATA",
    "lat": 23.383483599999998,
    "lon": 75.85537538153358
  },
  {
    "partId": 125026,
    "stateCode": "S12",
    "stateName": "Madhya Pradesh",
    "districtCode": "S1247",
    "districtName": "UJJAIN",
    "acNumber": 215,
    "acName": "GHATIYA",
    "partNumber": 33,
    "partName": "BHAKHEDA",
    "lat": 23.383483599999998,
    "lon": 75.85537538153358
  },
  {
    "partId": 125048,
    "stateCode": "S12",
    "stateName": "Madhya Pradesh",
    "districtCode": "S1247",
    "districtName": "UJJAIN",
    "acNumber": 215,
    "acName": "GHATIYA",
    "partNumber": 34,
    "partName": "PIPALYA MOLU",
    "lat": 23.3778617,
    "lon": 75.4904097723022
  },
  {
    "partId": 125049,
    "stateCode": "S12",
    "stateName": "Madhya Pradesh",
    "districtCode": "S1247",
    "districtName": "UJJAIN",
    "acNumber": 215,
    "acName": "GHATIYA",
    "partNumber": 35,
    "partName": "KUNDALA",
    "lat": 23.383483599999998,
    "lon": 75.85537538153358
  },
  {
    "partId": 125082,
    "stateCode": "S12",
    "stateName": "Madhya Pradesh",
    "districtCode": "S1247",
    "districtName": "UJJAIN",
    "acNumber": 215,
    "acName": "GHATIYA",
    "partNumber": 36,
    "partName": "NAGAJHIRI",
    "lat": 23.383483599999998,
    "lon": 75.85537538153358
  },
  {
    "partId": 125022,
    "stateCode": "S12",
    "stateName": "Madhya Pradesh",
    "districtCode": "S1247",
    "districtName": "UJJAIN",
    "acNumber": 215,
    "acName": "GHATIYA",
    "partNumber": 37,
    "partName": "BAGALA",
    "lat": 23.383483599999998,
    "lon": 75.85537538153358
  },
  {
    "partId": 124975,
    "stateCode": "S12",
    "stateName": "Madhya Pradesh",
    "districtCode": "S1247",
    "districtName": "UJJAIN",
    "acNumber": 215,
    "acName": "GHATIYA",
    "partNumber": 38,
    "partName": "CHAMBAL PADALYA",
    "lat": 23.383483599999998,
    "lon": 75.85537538153358
  },
  {
    "partId": 124976,
    "stateCode": "S12",
    "stateName": "Madhya Pradesh",
    "districtCode": "S1247",
    "districtName": "UJJAIN",
    "acNumber": 215,
    "acName": "GHATIYA",
    "partNumber": 39,
    "partName": "CHAMBAL PADALYA",
    "lat": 23.383483599999998,
    "lon": 75.85537538153358
  },
  {
    "partId": 124977,
    "stateCode": "S12",
    "stateName": "Madhya Pradesh",
    "districtCode": "S1247",
    "districtName": "UJJAIN",
    "acNumber": 215,
    "acName": "GHATIYA",
    "partNumber": 40,
    "partName": "CHAVAND",
    "lat": 23.383483599999998,
    "lon": 75.85537538153358
  },
  {
    "partId": 125063,
    "stateCode": "S12",
    "stateName": "Madhya Pradesh",
    "districtCode": "S1247",
    "districtName": "UJJAIN",
    "acNumber": 215,
    "acName": "GHATIYA",
    "partNumber": 41,
    "partName": "RAJOTA",
    "lat": 23.14496485,
    "lon": 75.48386491770918
  },
  {
    "partId": 124978,
    "stateCode": "S12",
    "stateName": "Madhya Pradesh",
    "districtCode": "S1247",
    "districtName": "UJJAIN",
    "acNumber": 215,
    "acName": "GHATIYA",
    "partNumber": 42,
    "partName": "LEKODA ANJANA",
    "lat": 23.349378395652174,
    "lon": 75.8223851212459
  },
  {
    "partId": 124979,
    "stateCode": "S12",
    "stateName": "Madhya Pradesh",
    "districtCode": "S1247",
    "districtName": "UJJAIN",
    "acNumber": 215,
    "acName": "GHATIYA",
    "partNumber": 43,
    "partName": "LEKODA ANJANA",
    "lat": 23.383483599999998,
    "lon": 75.85537538153358
  },
  {
    "partId": 124980,
    "stateCode": "S12",
    "stateName": "Madhya Pradesh",
    "districtCode": "S1247",
    "districtName": "UJJAIN",
    "acNumber": 215,
    "acName": "GHATIYA",
    "partNumber": 44,
    "partName": "KALALKHEDI",
    "lat": 23.383483599999998,
    "lon": 75.85537538153358
  },
  {
    "partId": 124981,
    "stateCode": "S12",
    "stateName": "Madhya Pradesh",
    "districtCode": "S1247",
    "districtName": "UJJAIN",
    "acNumber": 215,
    "acName": "GHATIYA",
    "partNumber": 45,
    "partName": "BARKHEDA NAJIK",
    "lat": 23.383483599999998,
    "lon": 75.85537538153358
  },
  {
    "partId": 125088,
    "stateCode": "S12",
    "stateName": "Madhya Pradesh",
    "districtCode": "S1247",
    "districtName": "UJJAIN",
    "acNumber": 215,
    "acName": "GHATIYA",
    "partNumber": 46,
    "partName": "NAVADA",
    "lat": 23.383483599999998,
    "lon": 75.85537538153358
  },
  {
    "partId": 125141,
    "stateCode": "S12",
    "stateName": "Madhya Pradesh",
    "districtCode": "S1247",
    "districtName": "UJJAIN",
    "acNumber": 215,
    "acName": "GHATIYA",
    "partNumber": 47,
    "partName": "AKYA NAJIK",
    "lat": 23.3479787,
    "lon": 75.4975116692743
  },
  {
    "partId": 125142,
    "stateCode": "S12",
    "stateName": "Madhya Pradesh",
    "districtCode": "S1247",
    "districtName": "UJJAIN",
    "acNumber": 215,
    "acName": "GHATIYA",
    "partNumber": 48,
    "partName": "MALIKHEDI",
    "lat": 23.34047985,
    "lon": 76.02359587168193
  },
  {
    "partId": 125158,
    "stateCode": "S12",
    "stateName": "Madhya Pradesh",
    "districtCode": "S1247",
    "districtName": "UJJAIN",
    "acNumber": 215,
    "acName": "GHATIYA",
    "partNumber": 49,
    "partName": "BEDAWAN",
    "lat": 23.349378395652174,
    "lon": 75.8223851212459
  },
  {
    "partId": 125008,
    "stateCode": "S12",
    "stateName": "Madhya Pradesh",
    "districtCode": "S1247",
    "districtName": "UJJAIN",
    "acNumber": 215,
    "acName": "GHATIYA",
    "partNumber": 50,
    "partName": "BEDAWAN",
    "lat": 23.375247,
    "lon": 75.5533302457404
  },
  {
    "partId": 125021,
    "stateCode": "S12",
    "stateName": "Madhya Pradesh",
    "districtCode": "S1247",
    "districtName": "UJJAIN",
    "acNumber": 215,
    "acName": "GHATIYA",
    "partNumber": 51,
    "partName": "AROLIYA DEVADA",
    "lat": 23.383483599999998,
    "lon": 75.85537538153358
  },
  {
    "partId": 125029,
    "stateCode": "S12",
    "stateName": "Madhya Pradesh",
    "districtCode": "S1247",
    "districtName": "UJJAIN",
    "acNumber": 215,
    "acName": "GHATIYA",
    "partNumber": 52,
    "partName": "KANKADHDA",
    "lat": 23.383483599999998,
    "lon": 75.85537538153358
  },
  {
    "partId": 125041,
    "stateCode": "S12",
    "stateName": "Madhya Pradesh",
    "districtCode": "S1247",
    "districtName": "UJJAIN",
    "acNumber": 215,
    "acName": "GHATIYA",
    "partNumber": 53,
    "partName": "NAGAR PANCHAYAT UNHEL",
    "lat": 23.383483599999998,
    "lon": 75.85537538153358
  },
  {
    "partId": 124945,
    "stateCode": "S12",
    "stateName": "Madhya Pradesh",
    "districtCode": "S1247",
    "districtName": "UJJAIN",
    "acNumber": 215,
    "acName": "GHATIYA",
    "partNumber": 54,
    "partName": "NAGAR PANCHAYAT UNHEL",
    "lat": 23.383483599999998,
    "lon": 75.85537538153358
  },
  {
    "partId": 125028,
    "stateCode": "S12",
    "stateName": "Madhya Pradesh",
    "districtCode": "S1247",
    "districtName": "UJJAIN",
    "acNumber": 215,
    "acName": "GHATIYA",
    "partNumber": 55,
    "partName": "NAGAR PANCHAYAT UNHEL",
    "lat": 23.383483599999998,
    "lon": 75.85537538153358
  },
  {
    "partId": 124946,
    "stateCode": "S12",
    "stateName": "Madhya Pradesh",
    "districtCode": "S1247",
    "districtName": "UJJAIN",
    "acNumber": 215,
    "acName": "GHATIYA",
    "partNumber": 56,
    "partName": "NAGAR PANCHAYAT UNHEL",
    "lat": 23.383483599999998,
    "lon": 75.85537538153358
  },
  {
    "partId": 125027,
    "stateCode": "S12",
    "stateName": "Madhya Pradesh",
    "districtCode": "S1247",
    "districtName": "UJJAIN",
    "acNumber": 215,
    "acName": "GHATIYA",
    "partNumber": 57,
    "partName": "NAGAR PANCHAYAT UNHEL",
    "lat": 23.383483599999998,
    "lon": 75.85537538153358
  },
  {
    "partId": 124947,
    "stateCode": "S12",
    "stateName": "Madhya Pradesh",
    "districtCode": "S1247",
    "districtName": "UJJAIN",
    "acNumber": 215,
    "acName": "GHATIYA",
    "partNumber": 58,
    "partName": "NAGAR PANCHAYAT UNHEL",
    "lat": 23.349378395652174,
    "lon": 75.8223851212459
  },
  {
    "partId": 125072,
    "stateCode": "S12",
    "stateName": "Madhya Pradesh",
    "districtCode": "S1247",
    "districtName": "UJJAIN",
    "acNumber": 215,
    "acName": "GHATIYA",
    "partNumber": 59,
    "partName": "NAGAR PANCHAYAT UNHEL",
    "lat": 23.383483599999998,
    "lon": 75.85537538153358
  },
  {
    "partId": 125020,
    "stateCode": "S12",
    "stateName": "Madhya Pradesh",
    "districtCode": "S1247",
    "districtName": "UJJAIN",
    "acNumber": 215,
    "acName": "GHATIYA",
    "partNumber": 60,
    "partName": "NAGAR PANCHAYAT UNHEL",
    "lat": 23.349378395652174,
    "lon": 75.8223851212459
  },
  {
    "partId": 125073,
    "stateCode": "S12",
    "stateName": "Madhya Pradesh",
    "districtCode": "S1247",
    "districtName": "UJJAIN",
    "acNumber": 215,
    "acName": "GHATIYA",
    "partNumber": 61,
    "partName": "NAGAR PANCHAYAT UNHEL",
    "lat": 23.383483599999998,
    "lon": 75.85537538153358
  },
  {
    "partId": 125074,
    "stateCode": "S12",
    "stateName": "Madhya Pradesh",
    "districtCode": "S1247",
    "districtName": "UJJAIN",
    "acNumber": 215,
    "acName": "GHATIYA",
    "partNumber": 62,
    "partName": "NAGAR PANCHAYAT UNHEL",
    "lat": 23.383483599999998,
    "lon": 75.85537538153358
  },
  {
    "partId": 125002,
    "stateCode": "S12",
    "stateName": "Madhya Pradesh",
    "districtCode": "S1247",
    "districtName": "UJJAIN",
    "acNumber": 215,
    "acName": "GHATIYA",
    "partNumber": 63,
    "partName": "NAGAR PANCHAYAT UNHEL",
    "lat": 23.383483599999998,
    "lon": 75.85537538153358
  },
  {
    "partId": 125075,
    "stateCode": "S12",
    "stateName": "Madhya Pradesh",
    "districtCode": "S1247",
    "districtName": "UJJAIN",
    "acNumber": 215,
    "acName": "GHATIYA",
    "partNumber": 64,
    "partName": "NAGAR PANCHAYAT UNHEL",
    "lat": 23.383483599999998,
    "lon": 75.85537538153358
  },
  {
    "partId": 125076,
    "stateCode": "S12",
    "stateName": "Madhya Pradesh",
    "districtCode": "S1247",
    "districtName": "UJJAIN",
    "acNumber": 215,
    "acName": "GHATIYA",
    "partNumber": 65,
    "partName": "PASLOD",
    "lat": 23.29613775,
    "lon": 75.51102118432048
  },
  {
    "partId": 125077,
    "stateCode": "S12",
    "stateName": "Madhya Pradesh",
    "districtCode": "S1247",
    "districtName": "UJJAIN",
    "acNumber": 215,
    "acName": "GHATIYA",
    "partNumber": 66,
    "partName": "PASLOD",
    "lat": 23.29613775,
    "lon": 75.51102118432048
  },
  {
    "partId": 125078,
    "stateCode": "S12",
    "stateName": "Madhya Pradesh",
    "districtCode": "S1247",
    "districtName": "UJJAIN",
    "acNumber": 215,
    "acName": "GHATIYA",
    "partNumber": 67,
    "partName": "GURALA",
    "lat": 23.383483599999998,
    "lon": 75.85537538153358
  },
  {
    "partId": 125079,
    "stateCode": "S12",
    "stateName": "Madhya Pradesh",
    "districtCode": "S1247",
    "districtName": "UJJAIN",
    "acNumber": 215,
    "acName": "GHATIYA",
    "partNumber": 68,
    "partName": "KARODIYA",
    "lat": 23.383483599999998,
    "lon": 75.85537538153358
  },
  {
    "partId": 125001,
    "stateCode": "S12",
    "stateName": "Madhya Pradesh",
    "districtCode": "S1247",
    "districtName": "UJJAIN",
    "acNumber": 215,
    "acName": "GHATIYA",
    "partNumber": 69,
    "partName": "LASUDIYACHUVAD",
    "lat": 23.383483599999998,
    "lon": 75.85537538153358
  },
  {
    "partId": 125080,
    "stateCode": "S12",
    "stateName": "Madhya Pradesh",
    "districtCode": "S1247",
    "districtName": "UJJAIN",
    "acNumber": 215,
    "acName": "GHATIYA",
    "partNumber": 70,
    "partName": "PIPALIYA DABI",
    "lat": 23.383483599999998,
    "lon": 75.85537538153358
  },
  {
    "partId": 125064,
    "stateCode": "S12",
    "stateName": "Madhya Pradesh",
    "districtCode": "S1247",
    "districtName": "UJJAIN",
    "acNumber": 215,
    "acName": "GHATIYA",
    "partNumber": 71,
    "partName": "RAMABALODA",
    "lat": 23.28553795,
    "lon": 75.57899013294747
  },
  {
    "partId": 125081,
    "stateCode": "S12",
    "stateName": "Madhya Pradesh",
    "districtCode": "S1247",
    "districtName": "UJJAIN",
    "acNumber": 215,
    "acName": "GHATIYA",
    "partNumber": 72,
    "partName": "KHOKARI",
    "lat": 23.383483599999998,
    "lon": 75.85537538153358
  },
  {
    "partId": 124948,
    "stateCode": "S12",
    "stateName": "Madhya Pradesh",
    "districtCode": "S1247",
    "districtName": "UJJAIN",
    "acNumber": 215,
    "acName": "GHATIYA",
    "partNumber": 73,
    "partName": "AROLIYA JASSA",
    "lat": 23.383483599999998,
    "lon": 75.85537538153358
  },
  {
    "partId": 125000,
    "stateCode": "S12",
    "stateName": "Madhya Pradesh",
    "districtCode": "S1247",
    "districtName": "UJJAIN",
    "acNumber": 215,
    "acName": "GHATIYA",
    "partNumber": 74,
    "partName": "JIYAJIGHARH",
    "lat": 23.383483599999998,
    "lon": 75.85537538153358
  },
  {
    "partId": 124949,
    "stateCode": "S12",
    "stateName": "Madhya Pradesh",
    "districtCode": "S1247",
    "districtName": "UJJAIN",
    "acNumber": 215,
    "acName": "GHATIYA",
    "partNumber": 75,
    "partName": "SURAJAKHEDI",
    "lat": 23.383483599999998,
    "lon": 75.85537538153358
  },
  {
    "partId": 124999,
    "stateCode": "S12",
    "stateName": "Madhya Pradesh",
    "districtCode": "S1247",
    "districtName": "UJJAIN",
    "acNumber": 215,
    "acName": "GHATIYA",
    "partNumber": 76,
    "partName": "RUPAKHEDI",
    "lat": 23.472452099999998,
    "lon": 75.98016012539372
  },
  {
    "partId": 124950,
    "stateCode": "S12",
    "stateName": "Madhya Pradesh",
    "districtCode": "S1247",
    "districtName": "UJJAIN",
    "acNumber": 215,
    "acName": "GHATIYA",
    "partNumber": 77,
    "partName": "GUDHA",
    "lat": 23.312404450000002,
    "lon": 75.6239400955665
  },
  {
    "partId": 124951,
    "stateCode": "S12",
    "stateName": "Madhya Pradesh",
    "districtCode": "S1247",
    "districtName": "UJJAIN",
    "acNumber": 215,
    "acName": "GHATIYA",
    "partNumber": 78,
    "partName": "LASUDIYA BAZAR",
    "lat": 23.383483599999998,
    "lon": 75.85537538153358
  },
  {
    "partId": 124952,
    "stateCode": "S12",
    "stateName": "Madhya Pradesh",
    "districtCode": "S1247",
    "districtName": "UJJAIN",
    "acNumber": 215,
    "acName": "GHATIYA",
    "partNumber": 79,
    "partName": "BORAKHEDABHALLA",
    "lat": 23.349378395652174,
    "lon": 75.8223851212459
  },
  {
    "partId": 124953,
    "stateCode": "S12",
    "stateName": "Madhya Pradesh",
    "districtCode": "S1247",
    "districtName": "UJJAIN",
    "acNumber": 215,
    "acName": "GHATIYA",
    "partNumber": 80,
    "partName": "CHHITAR DEVI",
    "lat": 23.35062705,
    "lon": 75.62599851076882
  },
  {
    "partId": 124986,
    "stateCode": "S12",
    "stateName": "Madhya Pradesh",
    "districtCode": "S1247",
    "districtName": "UJJAIN",
    "acNumber": 215,
    "acName": "GHATIYA",
    "partNumber": 81,
    "partName": "ILAHIPUR",
    "lat": 23.3385598,
    "lon": 75.62056486739186
  },
  {
    "partId": 124954,
    "stateCode": "S12",
    "stateName": "Madhya Pradesh",
    "districtCode": "S1247",
    "districtName": "UJJAIN",
    "acNumber": 215,
    "acName": "GHATIYA",
    "partNumber": 82,
    "partName": "DHANADA  BHALLA",
    "lat": 23.383483599999998,
    "lon": 75.85537538153358
  },