[
  {
    "partId": 106514,
    "stateCode": "S20",
    "stateName": "Rajasthan",
    "districtCode": "S2025",
    "districtName": "Banswara",
    "acNumber": 165,
    "acName": "Bagidora",
    "partNumber": 1,
    "partName": "VANDA",
    "lat": 23.4033108,
    "lon": 74.2662004
  },
  {
    "partId": 106515,
    "stateCode": "S20",
    "stateName": "Rajasthan",
    "districtCode": "S2025",
    "districtName": "Banswara",
    "acNumber": 165,
    "acName": "Bagidora",
    "partNumber": 2,
    "partName": "DOKAR",
    "lat": 23.3833073,
    "lon": 73.9846909
  },
  {
    "partId": 106516,
    "stateCode": "S20",
    "stateName": "Rajasthan",
    "districtCode": "S2025",
    "districtName": "Banswara",
    "acNumber": 165,
    "acName": "Bagidora",
    "partNumber": 3,
    "partName": "DOKAR",
    "lat": 23.3833073,
    "lon": 73.9846909
  },
  {
    "partId": 106517,
    "stateCode": "S20",
    "stateName": "Rajasthan",
    "districtCode": "S2025",
    "districtName": "Banswara",
    "acNumber": 165,
    "acName": "Bagidora",
    "partNumber": 4,
    "partName": "SERAVALA",
    "lat": 23.4033108,
    "lon": 74.2662004
  },
  {
    "partId": 106518,
    "stateCode": "S20",
    "stateName": "Rajasthan",
    "districtCode": "S2025",
    "districtName": "Banswara",
    "acNumber": 165,
    "acName": "Bagidora",
    "partNumber": 5,
    "partName": "CHHAJA",
    "lat": 23.4033108,
    "lon": 74.2662004
  },
  {
    "partId": 106519,
    "stateCode": "S20",
    "stateName": "Rajasthan",
    "districtCode": "S2025",
    "districtName": "Banswara",
    "acNumber": 165,
    "acName": "Bagidora",
    "partNumber": 6,
    "partName": "BARAKOTA",
    "lat": 23.4033108,
    "lon": 74.2662004
  },
  {
    "partId": 106520,
    "stateCode": "S20",
    "stateName": "Rajasthan",
    "districtCode": "S2025",
    "districtName": "Banswara",
    "acNumber": 165,
    "acName": "Bagidora",
    "partNumber": 7,
    "partName": "CHHAJA",
    "lat": 23.4033108,
    "lon": 74.2662004
  },
  {
    "partId": 106521,
    "stateCode": "S20",
    "stateName": "Rajasthan",
    "districtCode": "S2025",
    "districtName": "Banswara",
    "acNumber": 165,
    "acName": "Bagidora",
    "partNumber": 8,
    "partName": "NAVATAPARA",
    "lat": 23.4033108,
    "lon": 74.2662004
  },
  {
    "partId": 106522,
    "stateCode": "S20",
    "stateName": "Rajasthan",
    "districtCode": "S2025",
    "districtName": "Banswara",
    "acNumber": 165,
    "acName": "Bagidora",
    "partNumber": 9,
    "partName": "NAVAGAONV",
    "lat": 23.4033108,
    "lon": 74.2662004
  },
  {
    "partId": 106523,
    "stateCode": "S20",
    "stateName": "Rajasthan",
    "districtCode": "S2025",
    "districtName": "Banswara",
    "acNumber": 165,
    "acName": "Bagidora",
    "partNumber": 10,
    "partName": "KANGALIYA",
    "lat": 23.4332647,
    "lon": 74.0756584
  },
  {
    "partId": 106524,
    "stateCode": "S20",
    "stateName": "Rajasthan",
    "districtCode": "S2025",
    "districtName": "Banswara",
    "acNumber": 165,
    "acName": "Bagidora",
    "partNumber": 11,
    "partName": "KHUTA PHARAKI",
    "lat": 23.4033108,
    "lon": 74.2662004
  },
  {
    "partId": 106525,
    "stateCode": "S20",
    "stateName": "Rajasthan",
    "districtCode": "S2025",
    "districtName": "Banswara",
    "acNumber": 165,
    "acName": "Bagidora",
    "partNumber": 12,
    "partName": "KANELA",
    "lat": 23.436543,
    "lon": 74.0910888
  },
  {
    "partId": 106526,
    "stateCode": "S20",
    "stateName": "Rajasthan",
    "districtCode": "S2025",
    "districtName": "Banswara",
    "acNumber": 165,
    "acName": "Bagidora",
    "partNumber": 13,
    "partName": "CHANDARAVADA",
    "lat": 23.4033108,
    "lon": 74.2662004
  },
  {
    "partId": 106527,
    "stateCode": "S20",
    "stateName": "Rajasthan",
    "districtCode": "S2025",
    "districtName": "Banswara",
    "acNumber": 165,
    "acName": "Bagidora",
    "partNumber": 14,
    "partName": "CHANDARAVADA",
    "lat": 23.4033108,
    "lon": 74.2662004
  },
  {
    "partId": 106528,
    "stateCode": "S20",
    "stateName": "Rajasthan",
    "districtCode": "S2025",
    "districtName": "Banswara",
    "acNumber": 165,
    "acName": "Bagidora",
    "partNumber": 15,
    "partName": "KELAKUNA",
    "lat": 23.4033108,
    "lon": 74.2662004
  },
  {
    "partId": 106529,
    "stateCode": "S20",
    "stateName": "Rajasthan",
    "districtCode": "S2025",
    "districtName": "Banswara",
    "acNumber": 165,
    "acName": "Bagidora",
    "partNumber": 16,
    "partName": "PATIYA",
    "lat": 23.3711547,
    "lon": 74.2091918
  },
  {
    "partId": 106530,
    "stateCode": "S20",
    "stateName": "Rajasthan",
    "districtCode": "S2025",
    "districtName": "Banswara",
    "acNumber": 165,
    "acName": "Bagidora",
    "partNumber": 17,
    "partName": "CHHAYANA",
    "lat": 23.4033108,
    "lon": 74.2662004
  },
  {
    "partId": 106531,
    "stateCode": "S20",
    "stateName": "Rajasthan",
    "districtCode": "S2025",
    "districtName": "Banswara",
    "acNumber": 165,
    "acName": "Bagidora",
    "partNumber": 18,
    "partName": "PUCHHIYAVADA",
    "lat": 23.4033108,
    "lon": 74.2662004
  },
  {
    "partId": 106532,
    "stateCode": "S20",
    "stateName": "Rajasthan",
    "districtCode": "S2025",
    "districtName": "Banswara",
    "acNumber": 165,
    "acName": "Bagidora",
    "partNumber": 19,
    "partName": "NAHARAPURA",
    "lat": 23.4033108,
    "lon": 74.2662004
  },
  {
    "partId": 106533,
    "stateCode": "S20",
    "stateName": "Rajasthan",
    "districtCode": "S2025",
    "districtName": "Banswara",
    "acNumber": 165,
    "acName": "Bagidora",
    "partNumber": 20,
    "partName": "NAHARAPURA",
    "lat": 23.4033108,
    "lon": 74.2662004
  },
  {
    "partId": 106534,
    "stateCode": "S20",
    "stateName": "Rajasthan",
    "districtCode": "S2025",
    "districtName": "Banswara",
    "acNumber": 165,
    "acName": "Bagidora",
    "partNumber": 21,
    "partName": "PICHHAVADA",
    "lat": 23.4033108,
    "lon": 74.2662004
  },
  {
    "partId": 106535,
    "stateCode": "S20",
    "stateName": "Rajasthan",
    "districtCode": "S2025",
    "districtName": "Banswara",
    "acNumber": 165,
    "acName": "Bagidora",
    "partNumber": 22,
    "partName": "BHAVANAPURA",
    "lat": 23.4033108,
    "lon": 74.2662004
  },
  {
    "partId": 106536,
    "stateCode": "S20",
    "stateName": "Rajasthan",
    "districtCode": "S2025",
    "districtName": "Banswara",
    "acNumber": 165,
    "acName": "Bagidora",
    "partNumber": 23,
    "partName": "KATARO KA TALAB",
    "lat": 23.4033108,
    "lon": 74.2662004
  },
  {
    "partId": 106537,
    "stateCode": "S20",
    "stateName": "Rajasthan",
    "districtCode": "S2025",
    "districtName": "Banswara",
    "acNumber": 165,
    "acName": "Bagidora",
    "partNumber": 24,
    "partName": "RATANAPURA",
    "lat": 23.4033108,
    "lon": 74.2662004
  },
  {
    "partId": 106538,
    "stateCode": "S20",
    "stateName": "Rajasthan",
    "districtCode": "S2025",
    "districtName": "Banswara",
    "acNumber": 165,
    "acName": "Bagidora",
    "partNumber": 25,
    "partName": "GAMEERPURA KALIYA",
    "lat": 23.4361394,
    "lon": 74.1640878
  },
  {
    "partId": 106539,
    "stateCode": "S20",
    "stateName": "Rajasthan",
    "districtCode": "S2025",
    "districtName": "Banswara",
    "acNumber": 165,
    "acName": "Bagidora",
    "partNumber": 26,
    "partName": "GARADIYA",
    "lat": 23.3243854,
    "lon": 74.2535984
  },
  {
    "partId": 106540,
    "stateCode": "S20",
    "stateName": "Rajasthan",
    "districtCode": "S2025",
    "districtName": "Banswara",
    "acNumber": 165,
    "acName": "Bagidora",
    "partNumber": 27,
    "partName": "SOGAPURA",
    "lat": 23.4033108,
    "lon": 74.2662004
  },
  {
    "partId": 106541,
    "stateCode": "S20",
    "stateName": "Rajasthan",
    "districtCode": "S2025",
    "districtName": "Banswara",
    "acNumber": 165,
    "acName": "Bagidora",
    "partNumber": 28,
    "partName": "KHOKHARAVA",
    "lat": 23.4033108,
    "lon": 74.2662004
  },
  {
    "partId": 106542,
    "stateCode": "S20",
    "stateName": "Rajasthan",
    "districtCode": "S2025",
    "districtName": "Banswara",
    "acNumber": 165,
    "acName": "Bagidora",
    "partNumber": 29,
    "partName": "KHOKHARAVA",
    "lat": 23.4033108,
    "lon": 74.2662004
  },
  {
    "partId": 106543,
    "stateCode": "S20",
    "stateName": "Rajasthan",
    "districtCode": "S2025",
    "districtName": "Banswara",
    "acNumber": 165,
    "acName": "Bagidora",
    "partNumber": 30,
    "partName": "PATELIYAPADA",
    "lat": 23.4033108,
    "lon": 74.2662004
  },
  {
    "partId": 106544,
    "stateCode": "S20",
    "stateName": "Rajasthan",
    "districtCode": "S2025",
    "districtName": "Banswara",
    "acNumber": 165,
    "acName": "Bagidora",
    "partNumber": 31,
    "partName": "BODIGAMA",
    "lat": 23.474972,
    "lon": 74.275505
  },
  {
    "partId": 106545,
    "stateCode": "S20",
    "stateName": "Rajasthan",
    "districtCode": "S2025",
    "districtName": "Banswara",
    "acNumber": 165,
    "acName": "Bagidora",
    "partNumber": 32,
    "partName": "BODIGAMA",
    "lat": 23.474972,
    "lon": 74.275505
  },
  {
    "partId": 106546,
    "stateCode": "S20",
    "stateName": "Rajasthan",
    "districtCode": "S2025",
    "districtName": "Banswara",
    "acNumber": 165,
    "acName": "Bagidora",
    "partNumber": 33,
    "partName": "HAMIRAPURA",
    "lat": 23.4033108,
    "lon": 74.2662004
  },
  {
    "partId": 106547,
    "stateCode": "S20",
    "stateName": "Rajasthan",
    "districtCode": "S2025",
    "districtName": "Banswara",
    "acNumber": 165,
    "acName": "Bagidora",
    "partNumber": 34,
    "partName": "JALDA",
    "lat": 23.4033108,
    "lon": 74.2662004
  },
  {
    "partId": 106548,
    "stateCode": "S20",
    "stateName": "Rajasthan",
    "districtCode": "S2025",
    "districtName": "Banswara",
    "acNumber": 165,
    "acName": "Bagidora",
    "partNumber": 35,
    "partName": "JALDA",
    "lat": 23.4033108,
    "lon": 74.2662004
  },
  {
    "partId": 106549,
    "stateCode": "S20",
    "stateName": "Rajasthan",
    "districtCode": "S2025",
    "districtName": "Banswara",
    "acNumber": 165,
    "acName": "Bagidora",
    "partNumber": 36,
    "partName": "PATAN",
    "lat": 23.2395026,
    "lon": 74.6605968
  },
  {
    "partId": 106550,
    "stateCode": "S20",
    "stateName": "Rajasthan",
    "districtCode": "S2025",
    "districtName": "Banswara",
    "acNumber": 165,
    "acName": "Bagidora",
    "partNumber": 37,
    "partName": "PATAN",
    "lat": 23.2395026,
    "lon": 74.6605968
  },
  {
    "partId": 106551,
    "stateCode": "S20",
    "stateName": "Rajasthan",
    "districtCode": "S2025",
    "districtName": "Banswara",
    "acNumber": 165,
    "acName": "Bagidora",
    "partNumber": 38,
    "partName": "SHAMBHUPURA",
    "lat": 23.1534116,
    "lon": 74.536829
  },
  {
    "partId": 106552,
    "stateCode": "S20",
    "stateName": "Rajasthan",
    "districtCode": "S2025",
    "districtName": "Banswara",
    "acNumber": 165,
    "acName": "Bagidora",
    "partNumber": 39,
    "partName": "JUNI PATAN",
    "lat": 23.4033108,
    "lon": 74.2662004
  },
  {
    "partId": 106553,
    "stateCode": "S20",
    "stateName": "Rajasthan",
    "districtCode": "S2025",
    "districtName": "Banswara",
    "acNumber": 165,
    "acName": "Bagidora",
    "partNumber": 40,
    "partName": "CHHINCHH",
    "lat": 23.4033108,
    "lon": 74.2662004
  },
  {
    "partId": 106554,
    "stateCode": "S20",
    "stateName": "Rajasthan",
    "districtCode": "S2025",
    "districtName": "Banswara",
    "acNumber": 165,
    "acName": "Bagidora",
    "partNumber": 41,
    "partName": "CHHINCHH",
    "lat": 23.4033108,
    "lon": 74.2662004
  },
  {
    "partId": 106555,
    "stateCode": "S20",
    "stateName": "Rajasthan",
    "districtCode": "S2025",
    "districtName": "Banswara",
    "acNumber": 165,
    "acName": "Bagidora",
    "partNumber": 42,
    "partName": "CHHINCHH",
    "lat": 23.4033108,
    "lon": 74.2662004
  },
  {
    "partId": 106556,
    "stateCode": "S20",
    "stateName": "Rajasthan",
    "districtCode": "S2025",
    "districtName": "Banswara",
    "acNumber": 165,
    "acName": "Bagidora",
    "partNumber": 43,
    "partName": "CHHINCHH",
    "lat": 23.4033108,
    "lon": 74.2662004
  },
  {
    "partId": 106557,
    "stateCode": "S20",
    "stateName": "Rajasthan",
    "districtCode": "S2025",
    "districtName": "Banswara",
    "acNumber": 165,
    "acName": "Bagidora",
    "partNumber": 44,
    "partName": "RANGELAPADA",
    "lat": 23.4033108,
    "lon": 74.2662004
  },
  {
    "partId": 106558,
    "stateCode": "S20",
    "stateName": "Rajasthan",
    "districtCode": "S2025",
    "districtName": "Banswara",
    "acNumber": 165,
    "acName": "Bagidora",
    "partNumber": 45,
    "partName": "PINDARAMA",
    "lat": 23.4033108,
    "lon": 74.2662004
  },
  {
    "partId": 106794,
    "stateCode": "S20",
    "stateName": "Rajasthan",
    "districtCode": "S2025",
    "districtName": "Banswara",
    "acNumber": 165,
    "acName": "Bagidora",
    "partNumber": 46,
    "partName": "PINDARMA",
    "lat": 23.4539225,
    "lon": 74.267876
  },
  {
    "partId": 106559,
    "stateCode": "S20",
    "stateName": "Rajasthan",
    "districtCode": "S2025",
    "districtName": "Banswara",
    "acNumber": 165,
    "acName": "Bagidora",
    "partNumber": 47,
    "partName": "RATANAPURA",
    "lat": 23.4033108,
    "lon": 74.2662004
  },
  {
    "partId": 106560,
    "stateCode": "S20",
    "stateName": "Rajasthan",
    "districtCode": "S2025",
    "districtName": "Banswara",
    "acNumber": 165,
    "acName": "Bagidora",
    "partNumber": 48,
    "partName": "NAUGAMA",
    "lat": 23.448199,
    "lon": 74.2591026
  },
  {
    "partId": 106561,
    "stateCode": "S20",
    "stateName": "Rajasthan",
    "districtCode": "S2025",
    "districtName": "Banswara",
    "acNumber": 165,
    "acName": "Bagidora",
    "partNumber": 49,
    "partName": "NAUGAMA",
    "lat": 23.448199,
    "lon": 74.2591026
  },
  {
    "partId": 106562,
    "stateCode": "S20",
    "stateName": "Rajasthan",
    "districtCode": "S2025",
    "districtName": "Banswara",
    "acNumber": 165,
    "acName": "Bagidora",
    "partNumber": 50,
    "partName": "NAUGAMA",
    "lat": 23.448199,
    "lon": 74.2591026
  },
  {
    "partId": 106563,
    "stateCode": "S20",
    "stateName": "Rajasthan",
    "districtCode": "S2025",
    "districtName": "Banswara",
    "acNumber": 165,
    "acName": "Bagidora",
    "partNumber": 51,
    "partName": "SANGAMAPURA",
    "lat": 23.4033108,
    "lon": 74.2662004
  },
  {
    "partId": 106564,
    "stateCode": "S20",
    "stateName": "Rajasthan",
    "districtCode": "S2025",
    "districtName": "Banswara",
    "acNumber": 165,
    "acName": "Bagidora",
    "partNumber": 52,
    "partName": "SANGRAMAPURA",
    "lat": 23.4033108,
    "lon": 74.2662004
  },
  {
    "partId": 106565,
    "stateCode": "S20",
    "stateName": "Rajasthan",
    "districtCode": "S2025",
    "districtName": "Banswara",
    "acNumber": 165,
    "acName": "Bagidora",
    "partNumber": 53,
    "partName": "PITHAPURA",
    "lat": 23.4033108,
    "lon": 74.2662004
  },
  {
    "partId": 106566,
    "stateCode": "S20",
    "stateName": "Rajasthan",
    "districtCode": "S2025",
    "districtName": "Banswara",
    "acNumber": 165,
    "acName": "Bagidora",
    "partNumber": 54,
    "partName": "THAPADA",
    "lat": 23.4033108,
    "lon": 74.2662004
  },
  {
    "partId": 106567,
    "stateCode": "S20",
    "stateName": "Rajasthan",
    "districtCode": "S2025",
    "districtName": "Banswara",
    "acNumber": 165,
    "acName": "Bagidora",
    "partNumber": 55,
    "partName": "BORAKHANDI",
    "lat": 23.4033108,
    "lon": 74.2662004
  },
  {
    "partId": 106568,
    "stateCode": "S20",
    "stateName": "Rajasthan",
    "districtCode": "S2025",
    "districtName": "Banswara",
    "acNumber": 165,
    "acName": "Bagidora",
    "partNumber": 56,
    "partName": "RATAPAN",
    "lat": 23.4033108,
    "lon": 74.2662004
  },
  {
    "partId": 106569,
    "stateCode": "S20",
    "stateName": "Rajasthan",
    "districtCode": "S2025",
    "districtName": "Banswara",
    "acNumber": 165,
    "acName": "Bagidora",
    "partNumber": 57,
    "partName": "UDAYAPURA BADA",
    "lat": 23.4033108,
    "lon": 74.2662004
  },
  {
    "partId": 106570,
    "stateCode": "S20",
    "stateName": "Rajasthan",
    "districtCode": "S2025",
    "districtName": "Banswara",
    "acNumber": 165,
    "acName": "Bagidora",
    "partNumber": 58,
    "partName": "TARAVA",
    "lat": 23.4033108,
    "lon": 74.2662004
  },
  {
    "partId": 106571,
    "stateCode": "S20",
    "stateName": "Rajasthan",
    "districtCode": "S2025",
    "districtName": "Banswara",
    "acNumber": 165,
    "acName": "Bagidora",
    "partNumber": 59,
    "partName": "CHORADI",
    "lat": 23.4033108,
    "lon": 74.2662004
  },
  {
    "partId": 106572,
    "stateCode": "S20",
    "stateName": "Rajasthan",
    "districtCode": "S2025",
    "districtName": "Banswara",
    "acNumber": 165,
    "acName": "Bagidora",
    "partNumber": 60,
    "partName": "CHORADI",
    "lat": 23.4033108,
    "lon": 74.2662004
  },
  {
    "partId": 106573,
    "stateCode": "S20",
    "stateName": "Rajasthan",
    "districtCode": "S2025",
    "districtName": "Banswara",
    "acNumber": 165,
    "acName": "Bagidora",
    "partNumber": 61,
    "partName": "BODIYA TALAI",
    "lat": 23.4033108,
    "lon": 74.2662004
  },
  {
    "partId": 106574,
    "stateCode": "S20",
    "stateName": "Rajasthan",
    "districtCode": "S2025",
    "districtName": "Banswara",
    "acNumber": 165,
    "acName": "Bagidora",
    "partNumber": 62,
    "partName": "KAJALIYA",
    "lat": 23.4033108,
    "lon": 74.2662004
  },
  {
    "partId": 106575,
    "stateCode": "S20",
    "stateName": "Rajasthan",
    "districtCode": "S2025",
    "districtName": "Banswara",
    "acNumber": 165,
    "acName": "Bagidora",
    "partNumber": 63,
    "partName": "KAJALIYA",
    "lat": 23.4033108,
    "lon": 74.2662004
  },
  {
    "partId": 106576,
    "stateCode": "S20",
    "stateName": "Rajasthan",
    "districtCode": "S2025",
    "districtName": "Banswara",
    "acNumber": 165,
    "acName": "Bagidora",
    "partNumber": 64,
    "partName": "DHANEVA BADA",
    "lat": 23.4033108,
    "lon": 74.2662004
  },
  {
    "partId": 106577,
    "stateCode": "S20",
    "stateName": "Rajasthan",
    "districtCode": "S2025",
    "districtName": "Banswara",
    "acNumber": 165,
    "acName": "Bagidora",
    "partNumber": 65,
    "partName": "CHAUTHAMAL",
    "lat": 23.4033108,
    "lon": 74.2662004
  },
  {
    "partId": 106578,
    "stateCode": "S20",
    "stateName": "Rajasthan",
    "districtCode": "S2025",
    "districtName": "Banswara",
    "acNumber": 165,
    "acName": "Bagidora",
    "partNumber": 66,
    "partName": "KUMHARIYA",
    "lat": 23.4244544,
    "lon": 74.0977299
  },
  {
    "partId": 106579,
    "stateCode": "S20",
    "stateName": "Rajasthan",
    "districtCode": "S2025",
    "districtName": "Banswara",
    "acNumber": 165,
    "acName": "Bagidora",
    "partNumber": 67,
    "partName": "BORAVANIYA",
    "lat": 23.4033108,
    "lon": 74.2662004
  },
  {
    "partId": 106580,
    "stateCode": "S20",
    "stateName": "Rajasthan",
    "districtCode": "S2025",
    "districtName": "Banswara",
    "acNumber": 165,
    "acName": "Bagidora",
    "partNumber": 68,
    "partName": "BORAVANIYA",
    "lat": 23.4033108,
    "lon": 74.2662004
  },
  {
    "partId": 106581,
    "stateCode": "S20",
    "stateName": "Rajasthan",
    "districtCode": "S2025",
    "districtName": "Banswara",
    "acNumber": 165,
    "acName": "Bagidora",
    "partNumber": 69,
    "partName": "SUNDRAV",
    "lat": 23.4086036,
    "lon": 74.1206145
  },
  {
    "partId": 106582,
    "stateCode": "S20",
    "stateName": "Rajasthan",
    "districtCode": "S2025",
    "districtName": "Banswara",
    "acNumber": 165,
    "acName": "Bagidora",
    "partNumber": 70,
    "partName": "CHHAPARA",
    "lat": 23.4033108,
    "lon": 74.2662004
  },
  {
    "partId": 106583,
    "stateCode": "S20",
    "stateName": "Rajasthan",
    "districtCode": "S2025",
    "districtName": "Banswara",
    "acNumber": 165,
    "acName": "Bagidora",
    "partNumber": 71,
    "partName": "KUPADI",
    "lat": 23.4033108,
    "lon": 74.2662004
  },
  {
    "partId": 106584,
    "stateCode": "S20",
    "stateName": "Rajasthan",
    "districtCode": "S2025",
    "districtName": "Banswara",
    "acNumber": 165,
    "acName": "Bagidora",
    "partNumber": 72,
    "partName": "BHAMARIYA",
    "lat": 23.3954687,
    "lon": 74.0955841
  },
  {
    "partId": 106585,
    "stateCode": "S20",
    "stateName": "Rajasthan",
    "districtCode": "S2025",
    "districtName": "Banswara",
    "acNumber": 165,
    "acName": "Bagidora",
    "partNumber": 73,
    "partName": "DHODHIYA",
    "lat": 23.4033108,
    "lon": 74.2662004
  },
  {
    "partId": 106586,
    "stateCode": "S20",
    "stateName": "Rajasthan",
    "districtCode": "S2025",
    "districtName": "Banswara",
    "acNumber": 165,
    "acName": "Bagidora",
    "partNumber": 74,
    "partName": "DHODHIYA",
    "lat": 23.4033108,
    "lon": 74.2662004
  },
  {
    "partId": 106587,
    "stateCode": "S20",
    "stateName": "Rajasthan",
    "districtCode": "S2025",
    "districtName": "Banswara",
    "acNumber": 165,
    "acName": "Bagidora",
    "partNumber": 75,
    "partName": "MADAKOLA MOGAJI",
    "lat": 23.4033108,
    "lon": 74.2662004
  },
  {
    "partId": 106588,
    "stateCode": "S20",
    "stateName": "Rajasthan",
    "districtCode": "S2025",
    "districtName": "Banswara",
    "acNumber": 165,
    "acName": "Bagidora",
    "partNumber": 76,
    "partName": "MADAKOLA MOGAJI",
    "lat": 23.4033108,
    "lon": 74.2662004
  },
  {
    "partId": 106589,
    "stateCode": "S20",
    "stateName": "Rajasthan",
    "districtCode": "S2025",
    "districtName": "Banswara",
    "acNumber": 165,
    "acName": "Bagidora",
    "partNumber": 77,
    "partName": "BARAJADIYA",
    "lat": 23.4033108,
    "lon": 74.2662004
  },
  {
    "partId": 106590,
    "stateCode": "S20",
    "stateName": "Rajasthan",
    "districtCode": "S2025",
    "districtName": "Banswara",
    "acNumber": 165,
    "acName": "Bagidora",
    "partNumber": 78,
    "partName": "MADAKOLA MAKAN",
    "lat": 23.4033108,
    "lon": 74.2662004
  },
  {
    "partId": 106591,
    "stateCode": "S20",
    "stateName": "Rajasthan",
    "districtCode": "S2025",
    "districtName": "Banswara",
    "acNumber": 165,
    "acName": "Bagidora",
    "partNumber": 79,
    "partName": "TAMATIYA",
    "lat": 23.5258305,
    "lon": 74.3830521
  },
  {
    "partId": 106592,
    "stateCode": "S20",
    "stateName": "Rajasthan",
    "districtCode": "S2025",
    "districtName": "Banswara",
    "acNumber": 165,
    "acName": "Bagidora",
    "partNumber": 80,
    "partName": "SERANAGALA",
    "lat": 23.4033108,
    "lon": 74.2662004
  },
  {
    "partId": 106593,
    "stateCode": "S20",
    "stateName": "Rajasthan",
    "districtCode": "S2025",
    "districtName": "Banswara",
    "acNumber": 165,
    "acName": "Bagidora",
    "partNumber": 81,
    "partName": "NANA BHUKHIYA",
    "lat": 23.393178,
    "lon": 74.0320473
  },
  {
    "partId": 106594,
    "stateCode": "S20",
    "stateName": "Rajasthan",
    "districtCode": "S2025",
    "districtName": "Banswara",
    "acNumber": 165,
    "acName": "Bagidora",
    "partNumber": 82,
    "partName": "UBAPAN",
    "lat": 23.4033108,
    "lon": 74.2662004
  },
  {
    "partId": 106595,
    "stateCode": "S20",
    "stateName": "Rajasthan",
    "districtCode": "S2025",
    "districtName": "Banswara",
    "acNumber": 165,
    "acName": "Bagidora",
    "partNumber": 83,
    "partName": "DHANAKU",
    "lat": 23.4033108,
    "lon": 74.2662004
  },
  {
    "partId": 106596,
    "stateCode": "S20",
    "stateName": "Rajasthan",
    "districtCode": "S2025",
    "districtName": "Banswara",
    "acNumber": 165,
    "acName": "Bagidora",
    "partNumber": 84,
    "partName": "KHUENTA CHANDANA",
    "lat": 23.4033108,
    "lon": 74.2662004
  },
  {
    "partId": 106597,
    "stateCode": "S20",
    "stateName": "Rajasthan",
    "districtCode": "S2025",
    "districtName": "Banswara",
    "acNumber": 165,
    "acName": "Bagidora",
    "partNumber": 85,
    "partName": "ANANDAPURI",
    "lat": 23.4033108,
    "lon": 74.2662004
  },
  {
    "partId": 106598,
    "stateCode": "S20",
    "stateName": "Rajasthan",
    "districtCode": "S2025",
    "districtName": "Banswara",
    "acNumber": 165,
    "acName": "Bagidora",
    "partNumber": 86,
    "partName": "ANANDAPURI",
    "lat": 23.4033108,
    "lon": 74.2662004
  },
  {
    "partId": 106599,
    "stateCode": "S20",
    "stateName": "Rajasthan",
    "districtCode": "S2025",
    "districtName": "Banswara",
    "acNumber": 165,
    "acName": "Bagidora",
    "partNumber": 87,
    "partName": "ANANDAPURI",
    "lat": 23.4033108,
    "lon": 74.2662004
  },
  {
    "partId": 106600,
    "stateCode": "S20",
    "stateName": "Rajasthan",
    "districtCode": "S2025",
    "districtName": "Banswara",
    "acNumber": 165,
    "acName": "Bagidora",
    "partNumber": 88,
    "partName": "BAVADI",
    "lat": 23.4033108,
    "lon": 74.2662004
  },
  {
    "partId": 106601,
    "stateCode": "S20",
    "stateName": "Rajasthan",
    "districtCode": "S2025",
    "districtName": "Banswara",
    "acNumber": 165,
    "acName": "Bagidora",
    "partNumber": 89,
    "partName": "DAD",
    "lat": 23.3814067,
    "lon": 74.0108263
  },
  {
    "partId": 106602,
    "stateCode": "S20",
    "stateName": "Rajasthan",
    "districtCode": "S2025",
    "districtName": "Banswara",
    "acNumber": 165,
    "acName": "Bagidora",
    "partNumber": 90,
    "partName": "DANDAV",
    "lat": 23.4033108,
    "lon": 74.2662004
  },
  {
    "partId": 106603,
    "stateCode": "S20",
    "stateName": "Rajasthan",
    "districtCode": "S2025",
    "districtName": "Banswara",
    "acNumber": 165,
    "acName": "Bagidora",
    "partNumber": 91,
    "partName": "PATANAVADHARA",
    "lat": 23.4033108,
    "lon": 74.2662004
  },
  {
    "partId": 106604,
    "stateCode": "S20",
    "stateName": "Rajasthan",
    "districtCode": "S2025",
    "districtName": "Banswara",
    "acNumber": 165,
    "acName": "Bagidora",
    "partNumber": 92,
    "partName": "AMALIYA AMBADARA",
    "lat": 23.4033108,
    "lon": 74.2662004
  },
  {
    "partId": 106605,
    "stateCode": "S20",
    "stateName": "Rajasthan",
    "districtCode": "S2025",
    "districtName": "Banswara",
    "acNumber": 165,
    "acName": "Bagidora",
    "partNumber": 93,
    "partName": "AMALIYA AMBADARA",
    "lat": 23.4033108,
    "lon": 74.2662004
  },
  {
    "partId": 106606,
    "stateCode": "S20",
    "stateName": "Rajasthan",
    "districtCode": "S2025",
    "districtName": "Banswara",
    "acNumber": 165,
    "acName": "Bagidora",
    "partNumber": 94,
    "partName": "SARAVAI",
    "lat": 23.4033108,
    "lon": 74.2662004
  },
  {
    "partId": 106607,
    "stateCode": "S20",
    "stateName": "Rajasthan",
    "districtCode": "S2025",
    "districtName": "Banswara",
    "acNumber": 165,
    "acName": "Bagidora",
    "partNumber": 95,
    "partName": "MENAPADAR",
    "lat": 23.4033108,
    "lon": 74.2662004
  },
  {
    "partId": 106608,
    "stateCode": "S20",
    "stateName": "Rajasthan",
    "districtCode": "S2025",
    "districtName": "Banswara",
    "acNumber": 165,
    "acName": "Bagidora",
    "partNumber": 96,
    "partName": "NANIPADAR",
    "lat": 23.392041934572493,
    "lon": 74.26209918810409
  },
  {
    "partId": 106609,
    "stateCode": "S20",
    "stateName": "Rajasthan",
    "districtCode": "S2025",
    "districtName": "Banswara",
    "acNumber": 165,
    "acName": "Bagidora",
    "partNumber": 97,
    "partName": "GATAROD",
    "lat": 23.392041934572493,
    "lon": 74.26209918810409
  },
  {
    "partId": 106610,
    "stateCode": "S20",
    "stateName": "Rajasthan",
    "districtCode": "S2025",
    "districtName": "Banswara",
    "acNumber": 165,
    "acName": "Bagidora",
    "partNumber": 98,
    "partName": "POTHIVADA",
    "lat": 23.392041934572493,
    "lon": 74.26209918810409
  },
  {
    "partId": 106611,
    "stateCode": "S20",
    "stateName": "Rajasthan",
    "districtCode": "S2025",
    "districtName": "Banswara",
    "acNumber": 165,
    "acName": "Bagidora",
    "partNumber": 99,
    "partName": "OBALA",
    "lat": 23.4033108,
    "lon": 74.2662004
  },
  {
    "partId": 106612,
    "stateCode": "S20",
    "stateName": "Rajasthan",
    "districtCode": "S2025",
    "districtName": "Banswara",
    "acNumber": 165,
    "acName": "Bagidora",
    "partNumber": 100,
    "partName": "OBALA",
    "lat": 23.4033108,
    "lon": 74.2662004
  },
  {
    "partId": 106613,
    "stateCode": "S20",
    "stateName": "Rajasthan",
    "districtCode": "S2025",
    "districtName": "Banswara",
    "acNumber": 165,
    "acName": "Bagidora",
    "partNumber": 101,
    "partName": "KHUNTA LALU PARAGI",
    "lat": 23.4033108,
    "lon": 74.2662004
  },
  {
    "partId": 106614,
    "stateCode": "S20",
    "stateName": "Rajasthan",
    "districtCode": "S2025",
    "districtName": "Banswara",
    "acNumber": 165,
    "acName": "Bagidora",
    "partNumber": 102,
    "partName": "KHUNTI CHANDANA",
    "lat": 23.4033108,
    "lon": 74.2662004
  },
  {
    "partId": 106615,
    "stateCode": "S20",
    "stateName": "Rajasthan",
    "districtCode": "S2025",
    "districtName": "Banswara",
    "acNumber": 165,
    "acName": "Bagidora",
    "partNumber": 103,
    "partName": "JHER",
    "lat": 23.3371826,
    "lon": 74.0704143
  },
  {
    "partId": 106616,
    "stateCode": "S20",
    "stateName": "Rajasthan",
    "districtCode": "S2025",
    "districtName": "Banswara",
    "acNumber": 165,
    "acName": "Bagidora",
    "partNumber": 104,
    "partName": "AMALA",
    "lat": 23.4033108,
    "lon": 74.2662004
  },
  {
    "partId": 106617,
    "stateCode": "S20",
    "stateName": "Rajasthan",
    "districtCode": "S2025",
    "districtName": "Banswara",
    "acNumber": 165,
    "acName": "Bagidora",
    "partNumber": 105,
    "partName": "VADALIYA",
    "lat": 23.392041934572493,
    "lon": 74.26209918810409
  },
  {
    "partId": 106618,
    "stateCode": "S20",
    "stateName": "Rajasthan",
    "districtCode": "S2025",
    "districtName": "Banswara",
    "acNumber": 165,
    "acName": "Bagidora",
    "partNumber": 106,
    "partName": "AMBA",
    "lat": 23.290293,
    "lon": 74.2407346
  },
  {
    "partId": 106619,
    "stateCode": "S20",
    "stateName": "Rajasthan",
    "districtCode": "S2025",
    "districtName": "Banswara",
    "acNumber": 165,
    "acName": "Bagidora",
    "partNumber": 107,
    "partName": "KHUNTA",
    "lat": 23.392041934572493,
    "lon": 74.26209918810409
  },
  {
    "partId": 106620,
    "stateCode": "S20",
    "stateName": "Rajasthan",
    "districtCode": "S2025",
    "districtName": "Banswara",
    "acNumber": 165,
    "acName": "Bagidora",
    "partNumber": 108,
    "partName": "MUNDRI UPALAPADA",
    "lat": 23.4033108,
    "lon": 74.2662004
  },
  {
    "partId": 106621,
    "stateCode": "S20",
    "stateName": "Rajasthan",
    "districtCode": "S2025",
    "districtName": "Banswara",
    "acNumber": 165,
    "acName": "Bagidora",
    "partNumber": 109,
    "partName": "MUNDRI UPALAPADA",
    "lat": 23.4033108,
    "lon": 74.2662004
  },
  {
    "partId": 106622,
    "stateCode": "S20",
    "stateName": "Rajasthan",
    "districtCode": "S2025",
    "districtName": "Banswara",
    "acNumber": 165,
    "acName": "Bagidora",
    "partNumber": 110,
    "partName": "PUJA KHULADI",
    "lat": 23.392041934572493,
    "lon": 74.26209918810409
  },
  {
    "partId": 106623,
    "stateCode": "S20",
    "stateName": "Rajasthan",
    "districtCode": "S2025",
    "districtName": "Banswara",
    "acNumber": 165,
    "acName": "Bagidora",
    "partNumber": 111,
    "partName": "BADALIYA",
    "lat": 23.6156459,
    "lon": 74.3523788
  },
  {
    "partId": 106624,
    "stateCode": "S20",
    "stateName": "Rajasthan",
    "districtCode": "S2025",
    "districtName": "Banswara",
    "acNumber": 165,
    "acName": "Bagidora",
    "partNumber": 112,
    "partName": "TEMARAN",
    "lat": 23.4033108,
    "lon": 74.2662004
  },
  {
    "partId": 106625,
    "stateCode": "S20",
    "stateName": "Rajasthan",
    "districtCode": "S2025",
    "districtName": "Banswara",
    "acNumber": 165,
    "acName": "Bagidora",
    "partNumber": 113,
    "partName": "GAMANA",
    "lat": 23.3400985,
    "lon": 74.1478014
  },
  {
    "partId": 106626,
    "stateCode": "S20",
    "stateName": "Rajasthan",
    "districtCode": "S2025",
    "districtName": "Banswara",
    "acNumber": 165,
    "acName": "Bagidora",
    "partNumber": 114,
    "partName": "KADADA",
    "lat": 23.4033108,
    "lon": 74.2662004
  },
  {
    "partId": 106627,
    "stateCode": "S20",
    "stateName": "Rajasthan",
    "districtCode": "S2025",
    "districtName": "Banswara",
    "acNumber": 165,
    "acName": "Bagidora",
    "partNumber": 115,
    "partName": "MAHUWAL",
    "lat": 23.4033108,
    "lon": 74.2662004
  },
  {
    "partId": 106628,
    "stateCode": "S20",
    "stateName": "Rajasthan",
    "districtCode": "S2025",
    "districtName": "Banswara",
    "acNumber": 165,
    "acName": "Bagidora",
    "partNumber": 116,
    "partName": "UMMEDAPURA",
    "lat": 23.4033108,
    "lon": 74.2662004
  },
  {
    "partId": 106629,
    "stateCode": "S20",
    "stateName": "Rajasthan",
    "districtCode": "S2025",
    "districtName": "Banswara",
    "acNumber": 165,
    "acName": "Bagidora",
    "partNumber": 117,
    "partName": "BHALER CHAMANA",
    "lat": 23.4033108,
    "lon": 74.2662004
  },
  {
    "partId": 106630,
    "stateCode": "S20",
    "stateName": "Rajasthan",
    "districtCode": "S2025",
    "districtName": "Banswara",
    "acNumber": 165,
    "acName": "Bagidora",
    "partNumber": 118,
    "partName": "BHALER BHODAR",
    "lat": 23.4033108,
    "lon": 74.2662004
  },
  {
    "partId": 106631,
    "stateCode": "S20",
    "stateName": "Rajasthan",
    "districtCode": "S2025",
    "districtName": "Banswara",
    "acNumber": 165,
    "acName": "Bagidora",
    "partNumber": 119,
    "partName": "RAJAPURA",
    "lat": 23.4033108,
    "lon": 74.2662004
  },
  {
    "partId": 106795,
    "stateCode": "S20",
    "stateName": "Rajasthan",
    "districtCode": "S2025",
    "districtName": "Banswara",
    "acNumber": 165,
    "acName": "Bagidora",
    "partNumber": 120,
    "partName": "DALPURA",
    "lat": 23.3862321,
    "lon": 74.2099643
  },
  {
    "partId": 106632,
    "stateCode": "S20",
    "stateName": "Rajasthan",
    "districtCode": "S2025",
    "districtName": "Banswara",
    "acNumber": 165,
    "acName": "Bagidora",
    "partNumber": 121,
    "partName": "PATIYA GALIYA",
    "lat": 23.3711547,
    "lon": 74.2091918
  },
  {
    "partId": 106633,
    "stateCode": "S20",
    "stateName": "Rajasthan",
    "districtCode": "S2025",
    "districtName": "Banswara",
    "acNumber": 165,
    "acName": "Bagidora",
    "partNumber": 122,
    "partName": "PARAVALI",
    "lat": 23.4033108,
    "lon": 74.2662004
  },
  {
    "partId": 106634,
    "stateCode": "S20",
    "stateName": "Rajasthan",
    "districtCode": "S2025",
    "districtName": "Banswara",
    "acNumber": 165,
    "acName": "Bagidora",
    "partNumber": 123,
    "partName": "SAGADUNGARI",
    "lat": 23.4033108,
    "lon": 74.2662004
  },
  {
    "partId": 106635,
    "stateCode": "S20",
    "stateName": "Rajasthan",
    "districtCode": "S2025",
    "districtName": "Banswara",
    "acNumber": 165,
    "acName": "Bagidora",
    "partNumber": 124,
    "partName": "UMMEDAGADHI",
    "lat": 23.4033108,
    "lon": 74.2662004
  },
  {
    "partId": 106636,
    "stateCode": "S20",
    "stateName": "Rajasthan",
    "districtCode": "S2025",
    "districtName": "Banswara",
    "acNumber": 165,
    "acName": "Bagidora",
    "partNumber": 125,
    "partName": "HARIPURA",
    "lat": 23.4033108,
    "lon": 74.2662004
  },
  {
    "partId": 106637,
    "stateCode": "S20",
    "stateName": "Rajasthan",
    "districtCode": "S2025",
    "districtName": "Banswara",
    "acNumber": 165,
    "acName": "Bagidora",
    "partNumber": 126,
    "partName": "RENGANIYA",
    "lat": 23.4033108,
    "lon": 74.2662004
  },
  {
    "partId": 106798,
    "stateCode": "S20",
    "stateName": "Rajasthan",
    "districtCode": "S2025",
    "districtName": "Banswara",
    "acNumber": 165,
    "acName": "Bagidora",
    "partNumber": 127,
    "partName": "KHARIYA",
    "lat": 23.4033108,
    "lon": 74.2662004
  },
  {
    "partId": 106638,
    "stateCode": "S20",
    "stateName": "Rajasthan",
    "districtCode": "S2025",
    "districtName": "Banswara",
    "acNumber": 165,
    "acName": "Bagidora",
    "partNumber": 128,
    "partName": "KATARIYA",
    "lat": 23.4270041,
    "lon": 74.2715692
  },
  {
    "partId": 106639,
    "stateCode": "S20",
    "stateName": "Rajasthan",
    "districtCode": "S2025",
    "districtName": "Banswara",
    "acNumber": 165,
    "acName": "Bagidora",
    "partNumber": 129,
    "partName": "BALAVADA",
    "lat": 23.4332453,
    "lon": 74.2804956
  },
  {
    "partId": 106640,
    "stateCode": "S20",
    "stateName": "Rajasthan",
    "districtCode": "S2025",
    "districtName": "Banswara",
    "acNumber": 165,
    "acName": "Bagidora",
    "partNumber": 130,
    "partName": "BANSALA",
    "lat": 23.4033108,
    "lon": 74.2662004
  },
  {
    "partId": 106641,
    "stateCode": "S20",
    "stateName": "Rajasthan",
    "districtCode": "S2025",
    "districtName": "Banswara",
    "acNumber": 165,
    "acName": "Bagidora",
    "partNumber": 131,
    "partName": "BANSALA",
    "lat": 23.4033108,
    "lon": 74.2662004
  },
  {
    "partId": 106642,
    "stateCode": "S20",
    "stateName": "Rajasthan",
    "districtCode": "S2025",
    "districtName": "Banswara",
    "acNumber": 165,
    "acName": "Bagidora",
    "partNumber": 132,
    "partName": "CHAUKHALA",
    "lat": 23.4033108,
    "lon": 74.2662004
  },
  {
    "partId": 106643,
    "stateCode": "S20",
    "stateName": "Rajasthan",
    "districtCode": "S2025",
    "districtName": "Banswara",
    "acNumber": 165,
    "acName": "Bagidora",
    "partNumber": 133,
    "partName": "CHAUKHALA",
    "lat": 23.4033108,
    "lon": 74.2662004
  },
  {
    "partId": 106644,
    "stateCode": "S20",
    "stateName": "Rajasthan",
    "districtCode": "S2025",
    "districtName": "Banswara",
    "acNumber": 165,
    "acName": "Bagidora",
    "partNumber": 134,
    "partName": "BADODIYA",
    "lat": 23.4276068,
    "lon": 74.3506562
  },
  {
    "partId": 106645,
    "stateCode": "S20",
    "stateName": "Rajasthan",
    "districtCode": "S2025",
    "districtName": "Banswara",
    "acNumber": 165,
    "acName": "Bagidora",
    "partNumber": 135,
    "partName": "BADODIYA",
    "lat": 23.4276068,
    "lon": 74.3506562
  },
  {
    "partId": 106646,
    "stateCode": "S20",
    "stateName": "Rajasthan",
    "districtCode": "S2025",
    "districtName": "Banswara",
    "acNumber": 165,
    "acName": "Bagidora",
    "partNumber": 136,
    "partName": "BADODIYA",
    "lat": 23.4276068,
    "lon": 74.3506562
  },
  {
    "partId": 106647,
    "stateCode": "S20",
    "stateName": "Rajasthan",
    "districtCode": "S2025",
    "districtName": "Banswara",
    "acNumber": 165,
    "acName": "Bagidora",
    "partNumber": 137,
    "partName": "BADAUDIYA",
    "lat": 23.4033108,
    "lon": 74.2662004
  },
  {
    "partId": 106648,
    "stateCode": "S20",
    "stateName": "Rajasthan",
    "districtCode": "S2025",
    "districtName": "Banswara",
    "acNumber": 165,
    "acName": "Bagidora",
    "partNumber": 138,
    "partName": "PADALIYA",
    "lat": 23.4033108,
    "lon": 74.2662004
  },
  {
    "partId": 106649,
    "stateCode": "S20",
    "stateName": "Rajasthan",
    "districtCode": "S2025",
    "districtName": "Banswara",
    "acNumber": 165,
    "acName": "Bagidora",
    "partNumber": 139,
    "partName": "ITAUVA",
    "lat": 23.4114096,
    "lon": 74.3630433
  },
  {
    "partId": 106650,
    "stateCode": "S20",
    "stateName": "Rajasthan",
    "districtCode": "S2025",
    "districtName": "Banswara",
    "acNumber": 165,
    "acName": "Bagidora",
    "partNumber": 140,
    "partName": "ITAUVA",
    "lat": 23.4114096,
    "lon": 74.3630433
  },
  {
    "partId": 106651,
    "stateCode": "S20",
    "stateName": "Rajasthan",
    "districtCode": "S2025",
    "districtName": "Banswara",
    "acNumber": 165,
    "acName": "Bagidora",
    "partNumber": 141,
    "partName": "KHOPADA",
    "lat": 23.4033108,
    "lon": 74.2662004
  },
  {
    "partId": 106652,
    "stateCode": "S20",
    "stateName": "Rajasthan",
    "districtCode": "S2025",
    "districtName": "Banswara",
    "acNumber": 165,
    "acName": "Bagidora",
    "partNumber": 142,
    "partName": "JHERAPADA",
    "lat": 23.4033108,
    "lon": 74.2662004
  },
  {
    "partId": 106653,
    "stateCode": "S20",
    "stateName": "Rajasthan",
    "districtCode": "S2025",
    "districtName": "Banswara",
    "acNumber": 165,
    "acName": "Bagidora",
    "partNumber": 143,
    "partName": "KARJI",
    "lat": 23.4007267,
    "lon": 74.3864643
  },
  {
    "partId": 106654,
    "stateCode": "S20",
    "stateName": "Rajasthan",
    "districtCode": "S2025",
    "districtName": "Banswara",
    "acNumber": 165,
    "acName": "Bagidora",
    "partNumber": 144,
    "partName": "KARJI",
    "lat": 23.4007267,
    "lon": 74.3864643
  },
  {
    "partId": 106655,
    "stateCode": "S20",
    "stateName": "Rajasthan",
    "districtCode": "S2025",
    "districtName": "Banswara",
    "acNumber": 165,
    "acName": "Bagidora",
    "partNumber": 145,
    "partName": "MANGALADAYADA",
    "lat": 23.4033108,
    "lon": 74.2662004
  },
  {
    "partId": 106656,
    "stateCode": "S20",
    "stateName": "Rajasthan",
    "districtCode": "S2025",
    "districtName": "Banswara",
    "acNumber": 165,
    "acName": "Bagidora",
    "partNumber": 146,
    "partName": "BARIGAMA",
    "lat": 23.3702487,
    "lon": 74.3902087
  },
  {
    "partId": 106657,
    "stateCode": "S20",
    "stateName": "Rajasthan",
    "districtCode": "S2025",
    "districtName": "Banswara",
    "acNumber": 165,
    "acName": "Bagidora",
    "partNumber": 147,
    "partName": "TELIYA DAIDA",
    "lat": 23.4033108,
    "lon": 74.2662004
  },
  {
    "partId": 106658,
    "stateCode": "S20",
    "stateName": "Rajasthan",
    "districtCode": "S2025",
    "districtName": "Banswara",
    "acNumber": 165,
    "acName": "Bagidora",
    "partNumber": 148,
    "partName": "SEVANA",
    "lat": 23.4033108,
    "lon": 74.2662004
  },
  {
    "partId": 106659,
    "stateCode": "S20",
    "stateName": "Rajasthan",
    "districtCode": "S2025",
    "districtName": "Banswara",
    "acNumber": 165,
    "acName": "Bagidora",
    "partNumber": 149,
    "partName": "KEVADIYA",
    "lat": 23.4033108,
    "lon": 74.2662004
  },
  {
    "partId": 106660,
    "stateCode": "S20",
    "stateName": "Rajasthan",
    "districtCode": "S2025",
    "districtName": "Banswara",
    "acNumber": 165,
    "acName": "Bagidora",
    "partNumber": 150,
    "partName": "BUDAVA",
    "lat": 23.4033108,
    "lon": 74.2662004
  },
  {
    "partId": 106661,
    "stateCode": "S20",
    "stateName": "Rajasthan",
    "districtCode": "S2025",
    "districtName": "Banswara",
    "acNumber": 165,
    "acName": "Bagidora",
    "partNumber": 151,
    "partName": "BUDAVA",
    "lat": 23.4033108,
    "lon": 74.2662004
  },
  {
    "partId": 106662,
    "stateCode": "S20",
    "stateName": "Rajasthan",
    "districtCode": "S2025",
    "districtName": "Banswara",
    "acNumber": 165,
    "acName": "Bagidora",
    "partNumber": 152,
    "partName": "KUNDI",
    "lat": 23.4033108,
    "lon": 74.2662004
  },
  {
    "partId": 106663,
    "stateCode": "S20",
    "stateName": "Rajasthan",
    "districtCode": "S2025",
    "districtName": "Banswara",
    "acNumber": 165,
    "acName": "Bagidora",
    "partNumber": 153,
    "partName": "CHIROLA BADA",
    "lat": 23.4033108,
    "lon": 74.2662004
  },
  {
    "partId": 106664,
    "stateCode": "S20",
    "stateName": "Rajasthan",
    "districtCode": "S2025",
    "districtName": "Banswara",
    "acNumber": 165,
    "acName": "Bagidora",
    "partNumber": 154,
    "partName": "HAMIRAPURA BADA",
    "lat": 23.4033108,
    "lon": 74.2662004
  },
  {
    "partId": 106665,
    "stateCode": "S20",
    "stateName": "Rajasthan",
    "districtCode": "S2025",
    "districtName": "Banswara",
    "acNumber": 165,
    "acName": "Bagidora",
    "partNumber": 155,
    "partName": "PIPALOD",
    "lat": 23.4033108,
    "lon": 74.2662004
  },
  {
    "partId": 106666,
    "stateCode": "S20",
    "stateName": "Rajasthan",
    "districtCode": "S2025",
    "districtName": "Banswara",
    "acNumber": 165,
    "acName": "Bagidora",
    "partNumber": 156,
    "partName": "JAMBUDI",
    "lat": 23.4033108,
    "lon": 74.2662004
  },
  {
    "partId": 106667,
    "stateCode": "S20",
    "stateName": "Rajasthan",
    "districtCode": "S2025",
    "districtName": "Banswara",
    "acNumber": 165,
    "acName": "Bagidora",
    "partNumber": 157,
    "partName": "BADALIPADA",
    "lat": 23.4033108,
    "lon": 74.2662004
  },
  {
    "partId": 106668,
    "stateCode": "S20",
    "stateName": "Rajasthan",
    "districtCode": "S2025",
    "districtName": "Banswara",
    "acNumber": 165,
    "acName": "Bagidora",
    "partNumber": 158,
    "partName": "AMBA JIVELAPADA",
    "lat": 23.4033108,
    "lon": 74.2662004
  },
  {
    "partId": 106669,
    "stateCode": "S20",
    "stateName": "Rajasthan",
    "districtCode": "S2025",
    "districtName": "Banswara",
    "acNumber": 165,
    "acName": "Bagidora",
    "partNumber": 159,
    "partName": "ANGORIYA",
    "lat": 23.4033108,
    "lon": 74.2662004
  },
  {
    "partId": 106670,
    "stateCode": "S20",
    "stateName": "Rajasthan",
    "districtCode": "S2025",
    "districtName": "Banswara",
    "acNumber": 165,
    "acName": "Bagidora",
    "partNumber": 160,
    "partName": "BAGIDAURA",
    "lat": 23.392041934572493,
    "lon": 74.26209918810409
  },
  {
    "partId": 106671,
    "stateCode": "S20",
    "stateName": "Rajasthan",
    "districtCode": "S2025",
    "districtName": "Banswara",
    "acNumber": 165,
    "acName": "Bagidora",
    "partNumber": 161,
    "partName": "BAGIDAURA",
    "lat": 23.4033108,
    "lon": 74.2662004
  },
  {
    "partId": 106672,
    "stateCode": "S20",
    "stateName": "Rajasthan",
    "districtCode": "S2025",
    "districtName": "Banswara",
    "acNumber": 165,
    "acName": "Bagidora",
    "partNumber": 162,
    "partName": "BAGIDAURA",
    "lat": 23.392041934572493,
    "lon": 74.26209918810409
  },
  {
    "partId": 106673,
    "stateCode": "S20",
    "stateName": "Rajasthan",
    "districtCode": "S2025",
    "districtName": "Banswara",
    "acNumber": 165,
    "acName": "Bagidora",
    "partNumber": 163,
    "partName": "BAGIDAURA",
    "lat": 23.4033108,
    "lon": 74.2662004
  },
  {
    "partId": 106674,
    "stateCode": "S20",
    "stateName": "Rajasthan",
    "districtCode": "S2025",
    "districtName": "Banswara",
    "acNumber": 165,
    "acName": "Bagidora",
    "partNumber": 164,
    "partName": "BAGIDAURA",
    "lat": 23.392041934572493,
    "lon": 74.26209918810409
  },
  {
    "partId": 106675,
    "stateCode": "S20",
    "stateName": "Rajasthan",
    "districtCode": "S2025",
    "districtName": "Banswara",
    "acNumber": 165,
    "acName": "Bagidora",
    "partNumber": 165,
    "partName": "LALAVADA",
    "lat": 23.4033108,
    "lon": 74.2662004
  },
  {
    "partId": 106676,
    "stateCode": "S20",
    "stateName": "Rajasthan",
    "districtCode": "S2025",
    "districtName": "Banswara",
    "acNumber": 165,
    "acName": "Bagidora",
    "partNumber": 166,
    "partName": "LALAVADA",
    "lat": 23.4033108,
    "lon": 74.2662004
  },
  {
    "partId": 106677,
    "stateCode": "S20",
    "stateName": "Rajasthan",
    "districtCode": "S2025",
    "districtName": "Banswara",
    "acNumber": 165,
    "acName": "Bagidora",
    "partNumber": 167,
    "partName": "PATIYA GALIYA",
    "lat": 23.3711547,
    "lon": 74.2091918
  },
  {
    "partId": 106678,
    "stateCode": "S20",
    "stateName": "Rajasthan",
    "districtCode": "S2025",
    "districtName": "Banswara",
    "acNumber": 165,
    "acName": "Bagidora",
    "partNumber": 168,
    "partName": "TANDI MOTI",
    "lat": 23.1392353,
    "lon": 74.2836285
  },
  {
    "partId": 106679,
    "stateCode": "S20",
    "stateName": "Rajasthan",
    "districtCode": "S2025",
    "districtName": "Banswara",
    "acNumber": 165,
    "acName": "Bagidora",
    "partNumber": 169,
    "partName": "TANDI NANI",
    "lat": 23.4033108,
    "lon": 74.2662004
  },
  {
    "partId": 106680,
    "stateCode": "S20",
    "stateName": "Rajasthan",
    "districtCode": "S2025",
    "districtName": "Banswara",
    "acNumber": 165,
    "acName": "Bagidora",
    "partNumber": 170,
    "partName": "GHODIYA",
    "lat": 23.3464128,
    "lon": 74.2044711
  },
  {
    "partId": 106681,
    "stateCode": "S20",
    "stateName": "Rajasthan",
    "districtCode": "S2025",
    "districtName": "Banswara",
    "acNumber": 165,
    "acName": "Bagidora",
    "partNumber": 171,
    "partName": "PATIYA KODAR",
    "lat": 23.3640192,
    "lon": 74.2027706
  },
  {
    "partId": 106682,
    "stateCode": "S20",
    "stateName": "Rajasthan",
    "districtCode": "S2025",
    "districtName": "Banswara",
    "acNumber": 165,
    "acName": "Bagidora",
    "partNumber": 172,
    "partName": "SALIYA",
    "lat": 23.3643098,
    "lon": 74.4325662
  },
  {
    "partId": 106683,
    "stateCode": "S20",
    "stateName": "Rajasthan",
    "districtCode": "S2025",
    "districtName": "Banswara",
    "acNumber": 165,
    "acName": "Bagidora",
    "partNumber": 173,
    "partName": "SALIYA",
    "lat": 23.3643098,
    "lon": 74.4325662
  },
  {
    "partId": 106684,
    "stateCode": "S20",
    "stateName": "Rajasthan",
    "districtCode": "S2025",
    "districtName": "Banswara",
    "acNumber": 165,
    "acName": "Bagidora",
    "partNumber": 174,
    "partName": "BHELER DAMOR",
    "lat": 23.4033108,
    "lon": 74.2662004
  },
  {
    "partId": 106685,
    "stateCode": "S20",
    "stateName": "Rajasthan",
    "districtCode": "S2025",
    "districtName": "Banswara",
    "acNumber": 165,
    "acName": "Bagidora",
    "partNumber": 175,
    "partName": "KHUNTA NAGARAT",
    "lat": 23.4033108,
    "lon": 74.2662004
  },
  {
    "partId": 106686,
    "stateCode": "S20",
    "stateName": "Rajasthan",
    "districtCode": "S2025",
    "districtName": "Banswara",
    "acNumber": 165,
    "acName": "Bagidora",
    "partNumber": 176,
    "partName": "SHERAGADH",
    "lat": 23.4033108,
    "lon": 74.2662004
  },
  {
    "partId": 106687,
    "stateCode": "S20",
    "stateName": "Rajasthan",
    "districtCode": "S2025",
    "districtName": "Banswara",
    "acNumber": 165,
    "acName": "Bagidora",
    "partNumber": 177,
    "partName": "KUNDA",
    "lat": 23.392041934572493,
    "lon": 74.26209918810409
  },
  {
    "partId": 106688,
    "stateCode": "S20",
    "stateName": "Rajasthan",
    "districtCode": "S2025",
    "districtName": "Banswara",
    "acNumber": 165,
    "acName": "Bagidora",
    "partNumber": 178,
    "partName": "AMARIYAPADA",
    "lat": 23.4033108,
    "lon": 74.2662004
  },
  {
    "partId": 106689,
    "stateCode": "S20",
    "stateName": "Rajasthan",
    "districtCode": "S2025",
    "districtName": "Banswara",
    "acNumber": 165,
    "acName": "Bagidora",
    "partNumber": 179,
    "partName": "TANDA",
    "lat": 23.2667384,
    "lon": 74.2923832
  },
  {
    "partId": 106690,
    "stateCode": "S20",
    "stateName": "Rajasthan",
    "districtCode": "S2025",
    "districtName": "Banswara",
    "acNumber": 165,
    "acName": "Bagidora",
    "partNumber": 180,
    "partName": "CHELKARI",
    "lat": 23.3373107,
    "lon": 74.1712868
  },
  {
    "partId": 106691,
    "stateCode": "S20",
    "stateName": "Rajasthan",
    "districtCode": "S2025",
    "districtName": "Banswara",
    "acNumber": 165,
    "acName": "Bagidora",
    "partNumber": 181,
    "partName": "DABARI",
    "lat": 23.4033108,
    "lon": 74.2662004
  },
  {
    "partId": 106692,
    "stateCode": "S20",
    "stateName": "Rajasthan",
    "districtCode": "S2025",
    "districtName": "Banswara",
    "acNumber": 165,
    "acName": "Bagidora",
    "partNumber": 182,
    "partName": "DABARI",
    "lat": 23.4033108,
    "lon": 74.2662004
  },
  {
    "partId": 106693,
    "stateCode": "S20",
    "stateName": "Rajasthan",
    "districtCode": "S2025",
    "districtName": "Banswara",
    "acNumber": 165,
    "acName": "Bagidora",
    "partNumber": 183,
    "partName": "SHARADA",
    "lat": 23.4033108,
    "lon": 74.2662004
  },
  {
    "partId": 106694,
    "stateCode": "S20",
    "stateName": "Rajasthan",
    "districtCode": "S2025",
    "districtName": "Banswara",
    "acNumber": 165,
    "acName": "Bagidora",
    "partNumber": 184,
    "partName": "FALAVA",
    "lat": 23.4033108,
    "lon": 74.2662004
  },
  {
    "partId": 106695,
    "stateCode": "S20",
    "stateName": "Rajasthan",
    "districtCode": "S2025",
    "districtName": "Banswara",
    "acNumber": 165,
    "acName": "Bagidora",
    "partNumber": 185,
    "partName": "FALAVA",
    "lat": 23.4033108,
    "lon": 74.2662004
  },
  {
    "partId": 106797,
    "stateCode": "S20",
    "stateName": "Rajasthan",
    "districtCode": "S2025",
    "districtName": "Banswara",
    "acNumber": 165,
    "acName": "Bagidora",
    "partNumber": 186,
    "partName": "FALWA",
    "lat": 23.4033108,
    "lon": 74.2662004
  },
  {
    "partId": 106696,
    "stateCode": "S20",
    "stateName": "Rajasthan",
    "districtCode": "S2025",
    "districtName": "Banswara",
    "acNumber": 165,
    "acName": "Bagidora",
    "partNumber": 187,
    "partName": "CHIKALIPUNA",
    "lat": 23.4033108,
    "lon": 74.2662004
  },
  {
    "partId": 106697,
    "stateCode": "S20",
    "stateName": "Rajasthan",
    "districtCode": "S2025",
    "districtName": "Banswara",
    "acNumber": 165,
    "acName": "Bagidora",
    "partNumber": 188,
    "partName": "VARETH",
    "lat": 23.3224347,
    "lon": 74.0527439
  },
  {
    "partId": 106698,
    "stateCode": "S20",
    "stateName": "Rajasthan",
    "districtCode": "S2025",
    "districtName": "Banswara",
    "acNumber": 165,
    "acName": "Bagidora",
    "partNumber": 189,
    "partName": "VARETH",
    "lat": 23.3224347,
    "lon": 74.0527439
  },
  {
    "partId": 106699,
    "stateCode": "S20",
    "stateName": "Rajasthan",
    "districtCode": "S2025",
    "districtName": "Banswara",
    "acNumber": 165,
    "acName": "Bagidora",
    "partNumber": 190,
    "partName": "DIFOR",
    "lat": 23.4033108,
    "lon": 74.2662004
  },
  {
    "partId": 106700,
    "stateCode": "S20",
    "stateName": "Rajasthan",
    "districtCode": "S2025",
    "districtName": "Banswara",
    "acNumber": 165,
    "acName": "Bagidora",
    "partNumber": 191,
    "partName": "CHIKALIBADARA",
    "lat": 23.4033108,
    "lon": 74.2662004
  },
  {
    "partId": 106701,
    "stateCode": "S20",
    "stateName": "Rajasthan",
    "districtCode": "S2025",
    "districtName": "Banswara",
    "acNumber": 165,
    "acName": "Bagidora",
    "partNumber": 192,
    "partName": "CHIKALI TEJA",
    "lat": 23.4033108,
    "lon": 74.2662004
  },
  {
    "partId": 106702,
    "stateCode": "S20",
    "stateName": "Rajasthan",
    "districtCode": "S2025",
    "districtName": "Banswara",
    "acNumber": 165,
    "acName": "Bagidora",
    "partNumber": 193,
    "partName": "CHIKALI TEJA",
    "lat": 23.392041934572493,
    "lon": 74.26209918810409
  },
  {
    "partId": 106703,
    "stateCode": "S20",
    "stateName": "Rajasthan",
    "districtCode": "S2025",
    "districtName": "Banswara",
    "acNumber": 165,
    "acName": "Bagidora",
    "partNumber": 194,
    "partName": "TEJAPURA",
    "lat": 23.4033108,
    "lon": 74.2662004
  },
  {
    "partId": 106704,
    "stateCode": "S20",
    "stateName": "Rajasthan",
    "districtCode": "S2025",
    "districtName": "Banswara",
    "acNumber": 165,
    "acName": "Bagidora",
    "partNumber": 195,
    "partName": "JUNI TIMBI",
    "lat": 23.4033108,
    "lon": 74.2662004
  },
  {
    "partId": 106705,
    "stateCode": "S20",
    "stateName": "Rajasthan",
    "districtCode": "S2025",
    "districtName": "Banswara",
    "acNumber": 165,
    "acName": "Bagidora",
    "partNumber": 196,
    "partName": "AMARAPURA",
    "lat": 23.4033108,
    "lon": 74.2662004
  },
  {
    "partId": 106706,
    "stateCode": "S20",
    "stateName": "Rajasthan",
    "districtCode": "S2025",
    "districtName": "Banswara",
    "acNumber": 165,
    "acName": "Bagidora",
    "partNumber": 197,
    "partName": "BHEET PADA",
    "lat": 23.4033108,
    "lon": 74.2662004
  },
  {
    "partId": 106707,
    "stateCode": "S20",
    "stateName": "Rajasthan",
    "districtCode": "S2025",
    "districtName": "Banswara",
    "acNumber": 165,
    "acName": "Bagidora",
    "partNumber": 198,
    "partName": "BHURATIMBA BADA",
    "lat": 23.4033108,
    "lon": 74.2662004
  },
  {
    "partId": 106708,
    "stateCode": "S20",
    "stateName": "Rajasthan",
    "districtCode": "S2025",
    "districtName": "Banswara",
    "acNumber": 165,
    "acName": "Bagidora",
    "partNumber": 199,
    "partName": "KHUNTI BIJIYA",
    "lat": 23.4033108,
    "lon": 74.2662004
  },
  {
    "partId": 106709,
    "stateCode": "S20",
    "stateName": "Rajasthan",
    "districtCode": "S2025",
    "districtName": "Banswara",
    "acNumber": 165,
    "acName": "Bagidora",
    "partNumber": 200,
    "partName": "ROHANAVADI",
    "lat": 23.4033108,
    "lon": 74.2662004
  },
  {
    "partId": 106710,
    "stateCode": "S20",
    "stateName": "Rajasthan",
    "districtCode": "S2025",
    "districtName": "Banswara",
    "acNumber": 165,
    "acName": "Bagidora",
    "partNumber": 201,
    "partName": "KHARASANA",
    "lat": 23.4033108,
    "lon": 74.2662004
  },
  {
    "partId": 106711,
    "stateCode": "S20",
    "stateName": "Rajasthan",
    "districtCode": "S2025",
    "districtName": "Banswara",
    "acNumber": 165,
    "acName": "Bagidora",
    "partNumber": 202,
    "partName": "ROHANIYA",
    "lat": 23.4529318,
    "lon": 74.1028261
  },
  {
    "partId": 106712,
    "stateCode": "S20",
    "stateName": "Rajasthan",
    "districtCode": "S2025",
    "districtName": "Banswara",
    "acNumber": 165,
    "acName": "Bagidora",
    "partNumber": 203,
    "partName": "ROHANIYA",
    "lat": 23.4529318,
    "lon": 74.1028261
  },
  {
    "partId": 106713,
    "stateCode": "S20",
    "stateName": "Rajasthan",
    "districtCode": "S2025",
    "districtName": "Banswara",
    "acNumber": 165,
    "acName": "Bagidora",
    "partNumber": 204,
    "partName": "KHODALIM",
    "lat": 23.4033108,
    "lon": 74.2662004
  },
  {
    "partId": 106714,
    "stateCode": "S20",
    "stateName": "Rajasthan",
    "districtCode": "S2025",
    "districtName": "Banswara",
    "acNumber": 165,
    "acName": "Bagidora",
    "partNumber": 205,
    "partName": "PANCHAL",
    "lat": 23.4033108,
    "lon": 74.2662004
  },
  {
    "partId": 106715,
    "stateCode": "S20",
    "stateName": "Rajasthan",
    "districtCode": "S2025",
    "districtName": "Banswara",
    "acNumber": 165,
    "acName": "Bagidora",
    "partNumber": 206,
    "partName": "LILAVANI",
    "lat": 23.4033108,
    "lon": 74.2662004
  },
  {
    "partId": 106716,
    "stateCode": "S20",
    "stateName": "Rajasthan",
    "districtCode": "S2025",
    "districtName": "Banswara",
    "acNumber": 165,
    "acName": "Bagidora",
    "partNumber": 207,
    "partName": "KHUNTA MACHHAR",
    "lat": 23.4033108,
    "lon": 74.2662004
  },
  {
    "partId": 106717,
    "stateCode": "S20",
    "stateName": "Rajasthan",
    "districtCode": "S2025",
    "districtName": "Banswara",
    "acNumber": 165,
    "acName": "Bagidora",
    "partNumber": 208,
    "partName": "VANELAPADA",
    "lat": 23.4033108,
    "lon": 74.2662004
  },
  {
    "partId": 106718,
    "stateCode": "S20",
    "stateName": "Rajasthan",
    "districtCode": "S2025",
    "districtName": "Banswara",
    "acNumber": 165,
    "acName": "Bagidora",
    "partNumber": 209,
    "partName": "RAKHON",
    "lat": 23.4033108,
    "lon": 74.2662004
  },
  {
    "partId": 106719,
    "stateCode": "S20",
    "stateName": "Rajasthan",
    "districtCode": "S2025",
    "districtName": "Banswara",
    "acNumber": 165,
    "acName": "Bagidora",
    "partNumber": 210,
    "partName": "NAGAVADA",
    "lat": 23.4033108,
    "lon": 74.2662004
  },
  {
    "partId": 106720,
    "stateCode": "S20",
    "stateName": "Rajasthan",
    "districtCode": "S2025",
    "districtName": "Banswara",
    "acNumber": 165,
    "acName": "Bagidora",
    "partNumber": 211,
    "partName": "GHATIGADHA",
    "lat": 23.4033108,
    "lon": 74.2662004
  },
  {
    "partId": 106721,
    "stateCode": "S20",
    "stateName": "Rajasthan",
    "districtCode": "S2025",
    "districtName": "Banswara",
    "acNumber": 165,
    "acName": "Bagidora",
    "partNumber": 212,
    "partName": "BHAUYAN",
    "lat": 23.4033108,
    "lon": 74.2662004
  },
  {
    "partId": 106722,
    "stateCode": "S20",
    "stateName": "Rajasthan",
    "districtCode": "S2025",
    "districtName": "Banswara",
    "acNumber": 165,
    "acName": "Bagidora",
    "partNumber": 213,
    "partName": "DHEBARIKALU",
    "lat": 23.4033108,
    "lon": 74.2662004
  },
  {
    "partId": 106723,
    "stateCode": "S20",
    "stateName": "Rajasthan",
    "districtCode": "S2025",
    "districtName": "Banswara",
    "acNumber": 165,
    "acName": "Bagidora",
    "partNumber": 214,
    "partName": "BAMBORI",
    "lat": 23.4033108,
    "lon": 74.2662004
  },
  {
    "partId": 106724,
    "stateCode": "S20",
    "stateName": "Rajasthan",
    "districtCode": "S2025",
    "districtName": "Banswara",
    "acNumber": 165,
    "acName": "Bagidora",
    "partNumber": 215,
    "partName": "SANDADI",
    "lat": 23.4033108,
    "lon": 74.2662004
  },
  {
    "partId": 106796,
    "stateCode": "S20",
    "stateName": "Rajasthan",
    "districtCode": "S2025",
    "districtName": "Banswara",
    "acNumber": 165,
    "acName": "Bagidora",
    "partNumber": 216,
    "partName": "KAKANWADI",
    "lat": 23.4033108,
    "lon": 74.2662004
  },
  {
    "partId": 106725,
    "stateCode": "S20",
    "stateName": "Rajasthan",
    "districtCode": "S2025",
    "districtName": "Banswara",
    "acNumber": 165,
    "acName": "Bagidora",
    "partNumber": 217,
    "partName": "NAL",
    "lat": 23.4583057,
    "lon": 74.4830131
  },
  {
    "partId": 106726,
    "stateCode": "S20",
    "stateName": "Rajasthan",
    "districtCode": "S2025",
    "districtName": "Banswara",
    "acNumber": 165,
    "acName": "Bagidora",
    "partNumber": 218,
    "partName": "NAL",
    "lat": 23.4583057,
    "lon": 74.4830131
  },
  {
    "partId": 106727,
    "stateCode": "S20",
    "stateName": "Rajasthan",
    "districtCode": "S2025",
    "districtName": "Banswara",
    "acNumber": 165,
    "acName": "Bagidora",
    "partNumber": 219,
    "partName": "DHOLA KHERIYA",
    "lat": 23.4033108,
    "lon": 74.2662004
  },
  {
    "partId": 106728,
    "stateCode": "S20",
    "stateName": "Rajasthan",
    "districtCode": "S2025",
    "districtName": "Banswara",
    "acNumber": 165,
    "acName": "Bagidora",
    "partNumber": 220,
    "partName": "NAYA PADARIYA",
    "lat": 23.3685251,
    "lon": 74.3078327
  },
  {
    "partId": 106729,
    "stateCode": "S20",
    "stateName": "Rajasthan",
    "districtCode": "S2025",
    "districtName": "Banswara",
    "acNumber": 165,
    "acName": "Bagidora",
    "partNumber": 221,
    "partName": "JUNA PADARIYA",
    "lat": 23.3702487,
    "lon": 74.2991209
  },
  {
    "partId": 106730,
    "stateCode": "S20",
    "stateName": "Rajasthan",
    "districtCode": "S2025",
    "districtName": "Banswara",
    "acNumber": 165,
    "acName": "Bagidora",
    "partNumber": 222,
    "partName": "KALINJARA",
    "lat": 23.3464676,
    "lon": 74.3035203
  },
  {
    "partId": 106731,
    "stateCode": "S20",
    "stateName": "Rajasthan",
    "districtCode": "S2025",
    "districtName": "Banswara",
    "acNumber": 165,
    "acName": "Bagidora",
    "partNumber": 223,
    "partName": "KALINJARA",
    "lat": 23.3464676,
    "lon": 74.3035203
  },
  {
    "partId": 106732,
    "stateCode": "S20",
    "stateName": "Rajasthan",
    "districtCode": "S2025",
    "districtName": "Banswara",
    "acNumber": 165,
    "acName": "Bagidora",
    "partNumber": 224,
    "partName": "KALINJARA",
    "lat": 23.3464676,
    "lon": 74.3035203
  },
  {
    "partId": 106733,
    "stateCode": "S20",
    "stateName": "Rajasthan",
    "districtCode": "S2025",
    "districtName": "Banswara",
    "acNumber": 165,
    "acName": "Bagidora",
    "partNumber": 225,
    "partName": "SUVALA",
    "lat": 23.4033108,
    "lon": 74.2662004
  },
  {
    "partId": 106799,
    "stateCode": "S20",
    "stateName": "Rajasthan",
    "districtCode": "S2025",
    "districtName": "Banswara",
    "acNumber": 165,
    "acName": "Bagidora",
    "partNumber": 226,
    "partName": "RAYANPADA",
    "lat": 23.4033108,
    "lon": 74.2662004
  },
  {
    "partId": 106734,
    "stateCode": "S20",
    "stateName": "Rajasthan",
    "districtCode": "S2025",
    "districtName": "Banswara",
    "acNumber": 165,
    "acName": "Bagidora",
    "partNumber": 227,
    "partName": "SUVALA",
    "lat": 23.392041934572493,
    "lon": 74.26209918810409
  },
  {
    "partId": 106735,
    "stateCode": "S20",
    "stateName": "Rajasthan",
    "districtCode": "S2025",
    "districtName": "Banswara",
    "acNumber": 165,
    "acName": "Bagidora",
    "partNumber": 228,
    "partName": "SAREDIBHILAN",
    "lat": 23.4033108,
    "lon": 74.2662004
  },
  {
    "partId": 106736,
    "stateCode": "S20",
    "stateName": "Rajasthan",
    "districtCode": "S2025",
    "districtName": "Banswara",
    "acNumber": 165,
    "acName": "Bagidora",
    "partNumber": 229,
    "partName": "GADHA",
    "lat": 23.4033108,
    "lon": 74.2662004
  },
  {
    "partId": 106737,
    "stateCode": "S20",
    "stateName": "Rajasthan",
    "districtCode": "S2025",
    "districtName": "Banswara",
    "acNumber": 165,
    "acName": "Bagidora",
    "partNumber": 230,
    "partName": "DHULIYAGADH",
    "lat": 23.4033108,
    "lon": 74.2662004
  },
  {
    "partId": 106738,
    "stateCode": "S20",
    "stateName": "Rajasthan",
    "districtCode": "S2025",
    "districtName": "Banswara",
    "acNumber": 165,
    "acName": "Bagidora",
    "partNumber": 231,
    "partName": "HADAMAT",
    "lat": 23.4033108,
    "lon": 74.2662004
  },
  {
    "partId": 106739,
    "stateCode": "S20",
    "stateName": "Rajasthan",
    "districtCode": "S2025",
    "districtName": "Banswara",
    "acNumber": 165,
    "acName": "Bagidora",
    "partNumber": 232,
    "partName": "MUNNA KHEDA",
    "lat": 23.392041934572493,
    "lon": 74.26209918810409
  },
  {
    "partId": 106740,
    "stateCode": "S20",
    "stateName": "Rajasthan",
    "districtCode": "S2025",
    "districtName": "Banswara",
    "acNumber": 165,
    "acName": "Bagidora",
    "partNumber": 233,
    "partName": "DHALAR",
    "lat": 23.2800241,
    "lon": 74.210093
  },
  {
    "partId": 106741,
    "stateCode": "S20",
    "stateName": "Rajasthan",
    "districtCode": "S2025",
    "districtName": "Banswara",
    "acNumber": 165,
    "acName": "Bagidora",
    "partNumber": 234,
    "partName": "GAMANIYA MOTI",
    "lat": 23.2681774,
    "lon": 74.1911888
  },
  {
    "partId": 106742,
    "stateCode": "S20",
    "stateName": "Rajasthan",
    "districtCode": "S2025",
    "districtName": "Banswara",
    "acNumber": 165,
    "acName": "Bagidora",
    "partNumber": 235,
    "partName": "Bhandara",
    "lat": 23.2798812,
    "lon": 74.1921598
  },
  {
    "partId": 106743,
    "stateCode": "S20",
    "stateName": "Rajasthan",
    "districtCode": "S2025",
    "districtName": "Banswara",
    "acNumber": 165,
    "acName": "Bagidora",
    "partNumber": 236,
    "partName": "KHERIYA",
    "lat": 23.2487396,
    "lon": 74.346478
  },
  {
    "partId": 106744,
    "stateCode": "S20",
    "stateName": "Rajasthan",
    "districtCode": "S2025",
    "districtName": "Banswara",
    "acNumber": 165,
    "acName": "Bagidora",
    "partNumber": 237,
    "partName": "NAVAGANV",
    "lat": 23.4033108,
    "lon": 74.2662004
  },
  {
    "partId": 106745,
    "stateCode": "S20",
    "stateName": "Rajasthan",
    "districtCode": "S2025",
    "districtName": "Banswara",
    "acNumber": 165,
    "acName": "Bagidora",
    "partNumber": 238,
    "partName": "GAMANIYA HAMIRA",
    "lat": 23.4033108,
    "lon": 74.2662004
  },
  {
    "partId": 106746,
    "stateCode": "S20",
    "stateName": "Rajasthan",
    "districtCode": "S2025",
    "districtName": "Banswara",
    "acNumber": 165,
    "acName": "Bagidora",
    "partNumber": 239,
    "partName": "GAMIRPURA",
    "lat": 23.4033108,
    "lon": 74.2662004
  },
  {
    "partId": 106747,
    "stateCode": "S20",
    "stateName": "Rajasthan",
    "districtCode": "S2025",
    "districtName": "Banswara",
    "acNumber": 165,
    "acName": "Bagidora",
    "partNumber": 240,
    "partName": "CHHALAKA TALAI",
    "lat": 23.4033108,
    "lon": 74.2662004
  },
  {
    "partId": 106748,
    "stateCode": "S20",
    "stateName": "Rajasthan",
    "districtCode": "S2025",
    "districtName": "Banswara",
    "acNumber": 165,
    "acName": "Bagidora",
    "partNumber": 241,
    "partName": "MOTI TIMBI",
    "lat": 23.4033108,
    "lon": 74.2662004
  },
  {
    "partId": 106749,
    "stateCode": "S20",
    "stateName": "Rajasthan",
    "districtCode": "S2025",
    "districtName": "Banswara",
    "acNumber": 165,
    "acName": "Bagidora",
    "partNumber": 242,
    "partName": "MOTI TIMBI",
    "lat": 23.4033108,
    "lon": 74.2662004
  },
  {
    "partId": 106750,
    "stateCode": "S20",
    "stateName": "Rajasthan",
    "districtCode": "S2025",
    "districtName": "Banswara",
    "acNumber": 165,
    "acName": "Bagidora",
    "partNumber": 243,
    "partName": "MOTI TIMBI",
    "lat": 23.392041934572493,
    "lon": 74.26209918810409
  },
  {
    "partId": 106800,
    "stateCode": "S20",
    "stateName": "Rajasthan",
    "districtCode": "S2025",
    "districtName": "Banswara",
    "acNumber": 165,
    "acName": "Bagidora",
    "partNumber": 244,
    "partName": "NALPADA",
    "lat": 23.4033108,
    "lon": 74.2662004
  },
  {
    "partId": 106751,
    "stateCode": "S20",
    "stateName": "Rajasthan",
    "districtCode": "S2025",
    "districtName": "Banswara",
    "acNumber": 165,
    "acName": "Bagidora",
    "partNumber": 245,
    "partName": "RAM KA MUNNA",
    "lat": 23.2505262,
    "lon": 74.1372254
  },
  {
    "partId": 106752,
    "stateCode": "S20",
    "stateName": "Rajasthan",
    "districtCode": "S2025",
    "districtName": "Banswara",
    "acNumber": 165,
    "acName": "Bagidora",
    "partNumber": 246,
    "partName": "BHOGAPURA",
    "lat": 23.4033108,
    "lon": 74.2662004
  },
  {
    "partId": 106753,
    "stateCode": "S20",
    "stateName": "Rajasthan",
    "districtCode": "S2025",
    "districtName": "Banswara",
    "acNumber": 165,
    "acName": "Bagidora",
    "partNumber": 247,
    "partName": "RAYAPURA",
    "lat": 23.4033108,
    "lon": 74.2662004
  },
  {
    "partId": 106801,
    "stateCode": "S20",
    "stateName": "Rajasthan",
    "districtCode": "S2025",
    "districtName": "Banswara",
    "acNumber": 165,
    "acName": "Bagidora",
    "partNumber": 248,
    "partName": "BORKUNDA",
    "lat": 23.0750631,
    "lon": 74.3368435
  },
  {
    "partId": 106754,
    "stateCode": "S20",
    "stateName": "Rajasthan",
    "districtCode": "S2025",
    "districtName": "Banswara",
    "acNumber": 165,
    "acName": "Bagidora",
    "partNumber": 249,
    "partName": "CHHAPARA",
    "lat": 23.4033108,
    "lon": 74.2662004
  },
  {
    "partId": 106755,
    "stateCode": "S20",
    "stateName": "Rajasthan",
    "districtCode": "S2025",
    "districtName": "Banswara",
    "acNumber": 165,
    "acName": "Bagidora",
    "partNumber": 250,
    "partName": "CHARAKANI",
    "lat": 23.4033108,
    "lon": 74.2662004
  },
  {
    "partId": 106756,
    "stateCode": "S20",
    "stateName": "Rajasthan",
    "districtCode": "S2025",
    "districtName": "Banswara",
    "acNumber": 165,
    "acName": "Bagidora",
    "partNumber": 251,
    "partName": "JHANJHARAVAKALA",
    "lat": 23.4033108,
    "lon": 74.2662004
  },
  {
    "partId": 106757,
    "stateCode": "S20",
    "stateName": "Rajasthan",
    "districtCode": "S2025",
    "districtName": "Banswara",
    "acNumber": 165,
    "acName": "Bagidora",
    "partNumber": 252,
    "partName": "JHANJHARAVAKALA",
    "lat": 23.4033108,
    "lon": 74.2662004
  },
  {
    "partId": 106758,
    "stateCode": "S20",
    "stateName": "Rajasthan",
    "districtCode": "S2025",
    "districtName": "Banswara",
    "acNumber": 165,
    "acName": "Bagidora",
    "partNumber": 253,
    "partName": "GADEDIYA",
    "lat": 23.4033108,
    "lon": 74.2662004
  },
  {
    "partId": 106759,
    "stateCode": "S20",
    "stateName": "Rajasthan",
    "districtCode": "S2025",
    "districtName": "Banswara",
    "acNumber": 165,
    "acName": "Bagidora",
    "partNumber": 254,
    "partName": "JUNI GANGADATALAI",
    "lat": 23.4033108,
    "lon": 74.2662004
  },
  {
    "partId": 106760,
    "stateCode": "S20",
    "stateName": "Rajasthan",
    "districtCode": "S2025",
    "districtName": "Banswara",
    "acNumber": 165,
    "acName": "Bagidora",
    "partNumber": 255,
    "partName": "GANGADATALAI",
    "lat": 23.4033108,
    "lon": 74.2662004
  },
  {
    "partId": 106761,
    "stateCode": "S20",
    "stateName": "Rajasthan",
    "districtCode": "S2025",
    "districtName": "Banswara",
    "acNumber": 165,
    "acName": "Bagidora",
    "partNumber": 256,
    "partName": "GANGADATALAI",
    "lat": 23.4033108,
    "lon": 74.2662004
  },
  {
    "partId": 106762,
    "stateCode": "S20",
    "stateName": "Rajasthan",
    "districtCode": "S2025",
    "districtName": "Banswara",
    "acNumber": 165,
    "acName": "Bagidora",
    "partNumber": 257,
    "partName": "MUNNA DUNGARI",
    "lat": 23.392041934572493,
    "lon": 74.26209918810409
  },
  {
    "partId": 106763,
    "stateCode": "S20",
    "stateName": "Rajasthan",
    "districtCode": "S2025",
    "districtName": "Banswara",
    "acNumber": 165,
    "acName": "Bagidora",
    "partNumber": 258,
    "partName": "KHUNTINARAJI",
    "lat": 23.392041934572493,
    "lon": 74.26209918810409
  },
  {
    "partId": 106764,
    "stateCode": "S20",
    "stateName": "Rajasthan",
    "districtCode": "S2025",
    "districtName": "Banswara",
    "acNumber": 165,
    "acName": "Bagidora",
    "partNumber": 259,
    "partName": "JAMBUDI",
    "lat": 23.4033108,
    "lon": 74.2662004
  },
  {
    "partId": 106765,
    "stateCode": "S20",
    "stateName": "Rajasthan",
    "districtCode": "S2025",
    "districtName": "Banswara",
    "acNumber": 165,
    "acName": "Bagidora",
    "partNumber": 260,
    "partName": "KHUNTA VIRJI",
    "lat": 23.4033108,
    "lon": 74.2662004
  },
  {
    "partId": 106766,
    "stateCode": "S20",
    "stateName": "Rajasthan",
    "districtCode": "S2025",
    "districtName": "Banswara",
    "acNumber": 165,
    "acName": "Bagidora",
    "partNumber": 261,
    "partName": "SODALA CHAMANA",
    "lat": 23.4033108,
    "lon": 74.2662004
  },
  {
    "partId": 106767,
    "stateCode": "S20",
    "stateName": "Rajasthan",
    "districtCode": "S2025",
    "districtName": "Banswara",
    "acNumber": 165,
    "acName": "Bagidora",
    "partNumber": 262,
    "partName": "SODALA DUDA",
    "lat": 23.392041934572493,
    "lon": 74.26209918810409
  },
  {
    "partId": 106768,
    "stateCode": "S20",
    "stateName": "Rajasthan",
    "districtCode": "S2025",
    "districtName": "Banswara",
    "acNumber": 165,
    "acName": "Bagidora",
    "partNumber": 263,
    "partName": "DAGAL",
    "lat": 23.8585828,
    "lon": 74.4341969
  },
  {
    "partId": 106769,
    "stateCode": "S20",
    "stateName": "Rajasthan",
    "districtCode": "S2025",
    "districtName": "Banswara",
    "acNumber": 165,
    "acName": "Bagidora",
    "partNumber": 264,
    "partName": "LANKAI",
    "lat": 23.2274324,
    "lon": 74.1998014
  },
  {
    "partId": 106770,
    "stateCode": "S20",
    "stateName": "Rajasthan",
    "districtCode": "S2025",
    "districtName": "Banswara",
    "acNumber": 165,
    "acName": "Bagidora",
    "partNumber": 265,
    "partName": "BORADABARA",
    "lat": 23.4033108,
    "lon": 74.2662004
  },
  {
    "partId": 106771,
    "stateCode": "S20",
    "stateName": "Rajasthan",
    "districtCode": "S2025",
    "districtName": "Banswara",
    "acNumber": 165,
    "acName": "Bagidora",
    "partNumber": 266,
    "partName": "ROLA",
    "lat": 23.2147658,
    "lon": 74.1996002
  },
  {
    "partId": 106772,
    "stateCode": "S20",
    "stateName": "Rajasthan",
    "districtCode": "S2025",
    "districtName": "Banswara",
    "acNumber": 165,
    "acName": "Bagidora",
    "partNumber": 267,
    "partName": "SAGAN",
    "lat": 23.2140361,
    "lon": 74.1854811
  },
  {
    "partId": 106773,
    "stateCode": "S20",
    "stateName": "Rajasthan",
    "districtCode": "S2025",
    "districtName": "Banswara",
    "acNumber": 165,
    "acName": "Bagidora",
    "partNumber": 268,
    "partName": "HANDI",
    "lat": 23.1891072,
    "lon": 74.1753101
  },
  {
    "partId": 106774,
    "stateCode": "S20",
    "stateName": "Rajasthan",
    "districtCode": "S2025",
    "districtName": "Banswara",
    "acNumber": 165,
    "acName": "Bagidora",
    "partNumber": 269,
    "partName": "SANGARIYA",
    "lat": 23.4033108,
    "lon": 74.2662004
  },
  {
    "partId": 106775,
    "stateCode": "S20",
    "stateName": "Rajasthan",
    "districtCode": "S2025",
    "districtName": "Banswara",
    "acNumber": 165,
    "acName": "Bagidora",
    "partNumber": 270,
    "partName": "BHURISER",
    "lat": 23.4033108,
    "lon": 74.2662004
  },
  {
    "partId": 106776,
    "stateCode": "S20",
    "stateName": "Rajasthan",
    "districtCode": "S2025",
    "districtName": "Banswara",
    "acNumber": 165,
    "acName": "Bagidora",
    "partNumber": 271,
    "partName": "SEND NANI",
    "lat": 23.2013553,
    "lon": 74.1581225
  },
  {
    "partId": 106777,
    "stateCode": "S20",
    "stateName": "Rajasthan",
    "districtCode": "S2025",
    "districtName": "Banswara",
    "acNumber": 165,
    "acName": "Bagidora",
    "partNumber": 272,
    "partName": "SEND NANI",
    "lat": 23.392041934572493,
    "lon": 74.26209918810409
  },
  {
    "partId": 106778,
    "stateCode": "S20",
    "stateName": "Rajasthan",
    "districtCode": "S2025",
    "districtName": "Banswara",
    "acNumber": 165,
    "acName": "Bagidora",
    "partNumber": 273,
    "partName": "SENDAMOTI",
    "lat": 23.4033108,
    "lon": 74.2662004
  },
  {
    "partId": 106779,
    "stateCode": "S20",
    "stateName": "Rajasthan",
    "districtCode": "S2025",
    "districtName": "Banswara",
    "acNumber": 165,
    "acName": "Bagidora",
    "partNumber": 274,
    "partName": "GADULI",
    "lat": 23.4033108,
    "lon": 74.2662004
  },
  {
    "partId": 106780,
    "stateCode": "S20",
    "stateName": "Rajasthan",
    "districtCode": "S2025",
    "districtName": "Banswara",
    "acNumber": 165,
    "acName": "Bagidora",
    "partNumber": 275,
    "partName": "GADULI",
    "lat": 23.4033108,
    "lon": 74.2662004
  },
  {
    "partId": 106781,
    "stateCode": "S20",
    "stateName": "Rajasthan",
    "districtCode": "S2025",
    "districtName": "Banswara",
    "acNumber": 165,
    "acName": "Bagidora",
    "partNumber": 276,
    "partName": "KHUNTA GALIYA",
    "lat": 23.4033108,
    "lon": 74.2662004
  },
  {
    "partId": 106782,
    "stateCode": "S20",
    "stateName": "Rajasthan",
    "districtCode": "S2025",
    "districtName": "Banswara",
    "acNumber": 165,
    "acName": "Bagidora",
    "partNumber": 277,
    "partName": "KHUNTA GALIYA",
    "lat": 23.4033108,
    "lon": 74.2662004
  },
  {
    "partId": 106783,
    "stateCode": "S20",
    "stateName": "Rajasthan",
    "districtCode": "S2025",
    "districtName": "Banswara",
    "acNumber": 165,
    "acName": "Bagidora",
    "partNumber": 278,
    "partName": "KHUNTA GALIYA",
    "lat": 23.4033108,
    "lon": 74.2662004
  },
  {
    "partId": 106784,
    "stateCode": "S20",
    "stateName": "Rajasthan",
    "districtCode": "S2025",
    "districtName": "Banswara",
    "acNumber": 165,
    "acName": "Bagidora",
    "partNumber": 279,
    "partName": "PANCH MAHUDA",
    "lat": 23.4033108,
    "lon": 74.2662004
  },
  {
    "partId": 106785,
    "stateCode": "S20",
    "stateName": "Rajasthan",
    "districtCode": "S2025",
    "districtName": "Banswara",
    "acNumber": 165,
    "acName": "Bagidora",
    "partNumber": 280,
    "partName": "DUGIYA KI SER",
    "lat": 23.4033108,
    "lon": 74.2662004
  },
  {
    "partId": 106786,
    "stateCode": "S20",
    "stateName": "Rajasthan",
    "districtCode": "S2025",
    "districtName": "Banswara",
    "acNumber": 165,
    "acName": "Bagidora",
    "partNumber": 281,
    "partName": "BAJAR",
    "lat": 23.4033108,
    "lon": 74.2662004
  },
  {
    "partId": 106787,
    "stateCode": "S20",
    "stateName": "Rajasthan",
    "districtCode": "S2025",
    "districtName": "Banswara",
    "acNumber": 165,
    "acName": "Bagidora",
    "partNumber": 282,
    "partName": "SALLOPAT",
    "lat": 23.1770692,
    "lon": 74.161405
  },
  {
    "partId": 106788,
    "stateCode": "S20",
    "stateName": "Rajasthan",
    "districtCode": "S2025",
    "districtName": "Banswara",
    "acNumber": 165,
    "acName": "Bagidora",
    "partNumber": 283,
    "partName": "POLAPAN",
    "lat": 23.163848,
    "lon": 74.1647315
  },
  {
    "partId": 106789,
    "stateCode": "S20",
    "stateName": "Rajasthan",
    "districtCode": "S2025",
    "districtName": "Banswara",
    "acNumber": 165,
    "acName": "Bagidora",
    "partNumber": 284,
    "partName": "TARAKIYA",
    "lat": 23.4033108,
    "lon": 74.2662004
  },
  {
    "partId": 106790,
    "stateCode": "S20",
    "stateName": "Rajasthan",
    "districtCode": "S2025",
    "districtName": "Banswara",
    "acNumber": 165,
    "acName": "Bagidora",
    "partNumber": 285,
    "partName": "MONADUNGAR",
    "lat": 23.4033108,
    "lon": 74.2662004
  },
  {
    "partId": 106791,
    "stateCode": "S20",
    "stateName": "Rajasthan",
    "districtCode": "S2025",
    "districtName": "Banswara",
    "acNumber": 165,
    "acName": "Bagidora",
    "partNumber": 286,
    "partName": "GAMANA MALA",
    "lat": 23.392041934572493,
    "lon": 74.26209918810409
  },
  {
    "partId": 106792,
    "stateCode": "S20",
    "stateName": "Rajasthan",
    "districtCode": "S2025",
    "districtName": "Banswara",
    "acNumber": 165,
    "acName": "Bagidora",
    "partNumber": 287,
    "partName": "JHER MOTI",
    "lat": 23.4033108,
    "lon": 74.2662004
  },
  {
    "partId": 106793,
    "stateCode": "S20",
    "stateName": "Rajasthan",
    "districtCode": "S2025",
    "districtName": "Banswara",
    "acNumber": 165,
    "acName": "Bagidora",
    "partNumber": 288,
    "partName": "CHITATHALA",
    "lat": 23.4033108,
    "lon": 74.2662004
  },
  {
    "partId": 109069,
    "stateCode": "S20",
    "stateName": "Rajasthan",
    "districtCode": "S2025",
    "districtName": "Banswara",
    "acNumber": 164,
    "acName": "Banswara",
    "partNumber": 1,
    "partName": "GAGARI",
    "lat": 23.6135913,
    "lon": 74.4568777
  },
  {
    "partId": 109070,
    "stateCode": "S20",
    "stateName": "Rajasthan",
    "districtCode": "S2025",
    "districtName": "Banswara",
    "acNumber": 164,
    "acName": "Banswara",
    "partNumber": 2,
    "partName": "UPALA GHANTALA",
    "lat": 23.5,
    "lon": 74.333333
  },
  {
    "partId": 109071,
    "stateCode": "S20",
    "stateName": "Rajasthan",
    "districtCode": "S2025",
    "districtName": "Banswara",
    "acNumber": 164,
    "acName": "Banswara",
    "partNumber": 3,
    "partName": "LAXMANGARH JHARI",
    "lat": 23.5,
    "lon": 74.333333
  },
  {
    "partId": 109072,
    "stateCode": "S20",
    "stateName": "Rajasthan",
    "districtCode": "S2025",
    "districtName": "Banswara",
    "acNumber": 164,
    "acName": "Banswara",
    "partNumber": 4,
    "partName": "LAXMANGARH JHARI",
    "lat": 23.5,
    "lon": 74.333333
  },
  {
    "partId": 109073,
    "stateCode": "S20",
    "stateName": "Rajasthan",
    "districtCode": "S2025",
    "districtName": "Banswara",
    "acNumber": 164,
    "acName": "Banswara",
    "partNumber": 5,
    "partName": "JHARI URF GARADIYA",
    "lat": 23.5,
    "lon": 74.333333
  },
  {
    "partId": 109074,
    "stateCode": "S20",
    "stateName": "Rajasthan",
    "districtCode": "S2025",
    "districtName": "Banswara",
    "acNumber": 164,
    "acName": "Banswara",
    "partNumber": 6,
    "partName": "KHERADABARA",
    "lat": 23.5,
    "lon": 74.333333
  },
  {
    "partId": 109075,
    "stateCode": "S20",
    "stateName": "Rajasthan",
    "districtCode": "S2025",
    "districtName": "Banswara",
    "acNumber": 164,
    "acName": "Banswara",
    "partNumber": 7,
    "partName": "KHORAPADA (CHEEB)",
    "lat": 23.50002215757576,
    "lon": 74.35215946493507
  },
  {
    "partId": 109076,
    "stateCode": "S20",
    "stateName": "Rajasthan",
    "districtCode": "S2025",
    "districtName": "Banswara",
    "acNumber": 164,
    "acName": "Banswara",
    "partNumber": 8,
    "partName": "KHERADABARA",
    "lat": 23.5,
    "lon": 74.333333
  },
  {
    "partId": 109077,
    "stateCode": "S20",
    "stateName": "Rajasthan",
    "districtCode": "S2025",
    "districtName": "Banswara",
    "acNumber": 164,
    "acName": "Banswara",
    "partNumber": 9,
    "partName": "KATIYOR",
    "lat": 23.6246895,
    "lon": 74.532634
  },
  {
    "partId": 109078,
    "stateCode": "S20",
    "stateName": "Rajasthan",
    "districtCode": "S2025",
    "districtName": "Banswara",
    "acNumber": 164,
    "acName": "Banswara",
    "partNumber": 10,
    "partName": "BORAKHEDA",
    "lat": 23.5,
    "lon": 74.333333
  },
  {
    "partId": 109079,
    "stateCode": "S20",
    "stateName": "Rajasthan",
    "districtCode": "S2025",
    "districtName": "Banswara",
    "acNumber": 164,
    "acName": "Banswara",
    "partNumber": 11,
    "partName": "KAKANASEJA",
    "lat": 23.5,
    "lon": 74.333333
  },
  {
    "partId": 109080,
    "stateCode": "S20",
    "stateName": "Rajasthan",
    "districtCode": "S2025",
    "districtName": "Banswara",
    "acNumber": 164,
    "acName": "Banswara",
    "partNumber": 12,
    "partName": "AALA PRITHVIGADH",
    "lat": 23.5,
    "lon": 74.333333
  },
  {
    "partId": 109081,
    "stateCode": "S20",
    "stateName": "Rajasthan",
    "districtCode": "S2025",
    "districtName": "Banswara",
    "acNumber": 164,
    "acName": "Banswara",
    "partNumber": 13,
    "partName": "KOTADA",
    "lat": 23.5,
    "lon": 74.333333
  },
  {
    "partId": 109082,
    "stateCode": "S20",
    "stateName": "Rajasthan",
    "districtCode": "S2025",
    "districtName": "Banswara",
    "acNumber": 164,
    "acName": "Banswara",
    "partNumber": 14,
    "partName": "KHAJURI",
    "lat": 23.6047362,
    "lon": 74.6252408
  },
  {
    "partId": 109083,
    "stateCode": "S20",
    "stateName": "Rajasthan",
    "districtCode": "S2025",
    "districtName": "Banswara",
    "acNumber": 164,
    "acName": "Banswara",
    "partNumber": 15,
    "partName": "KUTABARI",
    "lat": 23.5,
    "lon": 74.333333
  },
  {
    "partId": 109084,
    "stateCode": "S20",
    "stateName": "Rajasthan",
    "districtCode": "S2025",
    "districtName": "Banswara",
    "acNumber": 164,
    "acName": "Banswara",
    "partNumber": 16,
    "partName": "DUNGARA",
    "lat": 23.1708238,
    "lon": 74.312461
  },
  {
    "partId": 109328,
    "stateCode": "S20",
    "stateName": "Rajasthan",
    "districtCode": "S2025",
    "districtName": "Banswara",
    "acNumber": 164,
    "acName": "Banswara",
    "partNumber": 17,
    "partName": "KHANPURA",
    "lat": 23.589937,
    "lon": 74.6676028
  },
  {
    "partId": 109085,
    "stateCode": "S20",
    "stateName": "Rajasthan",
    "districtCode": "S2025",
    "districtName": "Banswara",
    "acNumber": 164,
    "acName": "Banswara",
    "partNumber": 18,
    "partName": "GAGARAVA",
    "lat": 23.50002215757576,
    "lon": 74.35215946493507
  },
  {
    "partId": 109086,
    "stateCode": "S20",
    "stateName": "Rajasthan",
    "districtCode": "S2025",
    "districtName": "Banswara",
    "acNumber": 164,
    "acName": "Banswara",
    "partNumber": 19,
    "partName": "MALPADA, GHODI",
    "lat": 23.5,
    "lon": 74.333333
  },
  {
    "partId": 109087,
    "stateCode": "S20",
    "stateName": "Rajasthan",
    "districtCode": "S2025",
    "districtName": "Banswara",
    "acNumber": 164,
    "acName": "Banswara",
    "partNumber": 20,
    "partName": "SEMAL KHEDA",
    "lat": 23.5,
    "lon": 74.333333
  },
  {
    "partId": 109088,
    "stateCode": "S20",
    "stateName": "Rajasthan",
    "districtCode": "S2025",
    "districtName": "Banswara",
    "acNumber": 164,
    "acName": "Banswara",
    "partNumber": 21,
    "partName": "GHODI TEJAPUR",
    "lat": 23.5,
    "lon": 74.333333
  },
  {
    "partId": 109089,
    "stateCode": "S20",
    "stateName": "Rajasthan",
    "districtCode": "S2025",
    "districtName": "Banswara",
    "acNumber": 164,
    "acName": "Banswara",
    "partNumber": 22,
    "partName": "GHODI TEJAPUR",
    "lat": 23.5,
    "lon": 74.333333
  },
  {
    "partId": 109324,
    "stateCode": "S20",
    "stateName": "Rajasthan",
    "districtCode": "S2025",
    "districtName": "Banswara",
    "acNumber": 164,
    "acName": "Banswara",
    "partNumber": 23,
    "partName": "KHORAPADA",
    "lat": 23.5,
    "lon": 74.333333
  },
  {
    "partId": 109090,
    "stateCode": "S20",
    "stateName": "Rajasthan",
    "districtCode": "S2025",
    "districtName": "Banswara",
    "acNumber": 164,
    "acName": "Banswara",
    "partNumber": 24,
    "partName": "KUNDAL",
    "lat": 23.6076142,
    "lon": 74.7054112
  },
  {
    "partId": 109091,
    "stateCode": "S20",
    "stateName": "Rajasthan",
    "districtCode": "S2025",
    "districtName": "Banswara",
    "acNumber": 164,
    "acName": "Banswara",
    "partNumber": 25,
    "partName": "KUNDAL",
    "lat": 23.6076142,
    "lon": 74.7054112
  },
  {
    "partId": 109092,
    "stateCode": "S20",
    "stateName": "Rajasthan",
    "districtCode": "S2025",
    "districtName": "Banswara",
    "acNumber": 164,
    "acName": "Banswara",
    "partNumber": 26,
    "partName": "MAKANAPURA",
    "lat": 23.5,
    "lon": 74.333333
  },
  {
    "partId": 109093,
    "stateCode": "S20",
    "stateName": "Rajasthan",
    "districtCode": "S2025",
    "districtName": "Banswara",
    "acNumber": 164,
    "acName": "Banswara",
    "partNumber": 27,
    "partName": "UBAPAN",
    "lat": 23.5,
    "lon": 74.333333
  },
  {
    "partId": 109094,
    "stateCode": "S20",
    "stateName": "Rajasthan",
    "districtCode": "S2025",
    "districtName": "Banswara",
    "acNumber": 164,
    "acName": "Banswara",
    "partNumber": 28,
    "partName": "VADA",
    "lat": 23.5,
    "lon": 74.333333
  },
  {
    "partId": 109095,
    "stateCode": "S20",
    "stateName": "Rajasthan",
    "districtCode": "S2025",
    "districtName": "Banswara",
    "acNumber": 164,
    "acName": "Banswara",
    "partNumber": 29,
    "partName": "CHHAYAN BADI",
    "lat": 23.5,
    "lon": 74.333333
  },
  {
    "partId": 109096,
    "stateCode": "S20",
    "stateName": "Rajasthan",
    "districtCode": "S2025",
    "districtName": "Banswara",
    "acNumber": 164,
    "acName": "Banswara",
    "partNumber": 30,
    "partName": "SURAJAPURA",
    "lat": 23.5,
    "lon": 74.333333
  },
  {
    "partId": 109097,
    "stateCode": "S20",
    "stateName": "Rajasthan",
    "districtCode": "S2025",
    "districtName": "Banswara",
    "acNumber": 164,
    "acName": "Banswara",
    "partNumber": 31,
    "partName": "LAMBI SADAD",
    "lat": 23.5,
    "lon": 74.333333
  },
  {
    "partId": 109098,
    "stateCode": "S20",
    "stateName": "Rajasthan",
    "districtCode": "S2025",
    "districtName": "Banswara",
    "acNumber": 164,
    "acName": "Banswara",
    "partNumber": 32,
    "partName": "HARANATHAPURA",
    "lat": 23.5,
    "lon": 74.333333
  },
  {
    "partId": 109099,
    "stateCode": "S20",
    "stateName": "Rajasthan",
    "districtCode": "S2025",
    "districtName": "Banswara",
    "acNumber": 164,
    "acName": "Banswara",
    "partNumber": 33,
    "partName": "RUNJIYA",
    "lat": 23.5,
    "lon": 74.333333
  },
  {
    "partId": 109329,
    "stateCode": "S20",
    "stateName": "Rajasthan",
    "districtCode": "S2025",
    "districtName": "Banswara",
    "acNumber": 164,
    "acName": "Banswara",
    "partNumber": 34,
    "partName": "AMBAPDA",
    "lat": 23.5,
    "lon": 74.333333
  },
  {
    "partId": 109100,
    "stateCode": "S20",
    "stateName": "Rajasthan",
    "districtCode": "S2025",
    "districtName": "Banswara",
    "acNumber": 164,
    "acName": "Banswara",
    "partNumber": 35,
    "partName": "JAHANPURA",
    "lat": 23.5635053,
    "lon": 74.7341537
  },
  {
    "partId": 109101,
    "stateCode": "S20",
    "stateName": "Rajasthan",
    "districtCode": "S2025",
    "districtName": "Banswara",
    "acNumber": 164,
    "acName": "Banswara",
    "partNumber": 36,
    "partName": "MOHKAMPURA",
    "lat": 23.1646667,
    "lon": 74.5610976
  },
  {
    "partId": 109102,
    "stateCode": "S20",
    "stateName": "Rajasthan",
    "districtCode": "S2025",
    "districtName": "Banswara",
    "acNumber": 164,
    "acName": "Banswara",
    "partNumber": 37,
    "partName": "GADH",
    "lat": 23.50002215757576,
    "lon": 74.35215946493507
  },
  {
    "partId": 109103,
    "stateCode": "S20",
    "stateName": "Rajasthan",
    "districtCode": "S2025",
    "districtName": "Banswara",
    "acNumber": 164,
    "acName": "Banswara",
    "partNumber": 38,
    "partName": "TILAGARI",
    "lat": 23.5,
    "lon": 74.333333
  },
  {
    "partId": 109104,
    "stateCode": "S20",
    "stateName": "Rajasthan",
    "districtCode": "S2025",
    "districtName": "Banswara",
    "acNumber": 164,
    "acName": "Banswara",
    "partNumber": 39,
    "partName": "VAGATALAB",
    "lat": 23.5,
    "lon": 74.333333
  },
  {
    "partId": 109105,
    "stateCode": "S20",
    "stateName": "Rajasthan",
    "districtCode": "S2025",
    "districtName": "Banswara",
    "acNumber": 164,
    "acName": "Banswara",
    "partNumber": 40,
    "partName": "SARAVANI",
    "lat": 23.5,
    "lon": 74.333333
  },
  {
    "partId": 109106,
    "stateCode": "S20",
    "stateName": "Rajasthan",
    "districtCode": "S2025",
    "districtName": "Banswara",
    "acNumber": 164,
    "acName": "Banswara",
    "partNumber": 41,
    "partName": "KALAKHET",
    "lat": 23.217428,
    "lon": 74.5062732
  },
  {
    "partId": 109107,
    "stateCode": "S20",
    "stateName": "Rajasthan",
    "districtCode": "S2025",
    "districtName": "Banswara",
    "acNumber": 164,
    "acName": "Banswara",
    "partNumber": 42,
    "partName": "KHUTADIYA",
    "lat": 23.5,
    "lon": 74.333333
  },
  {
    "partId": 109108,
    "stateCode": "S20",
    "stateName": "Rajasthan",
    "districtCode": "S2025",
    "districtName": "Banswara",
    "acNumber": 164,
    "acName": "Banswara",
    "partNumber": 43,
    "partName": "MULIYA",
    "lat": 23.5,
    "lon": 74.333333
  },
  {
    "partId": 109109,
    "stateCode": "S20",
    "stateName": "Rajasthan",
    "districtCode": "S2025",
    "districtName": "Banswara",
    "acNumber": 164,
    "acName": "Banswara",
    "partNumber": 44,
    "partName": "CHANDROD",
    "lat": 23.5,
    "lon": 74.333333
  },
  {
    "partId": 109110,
    "stateCode": "S20",
    "stateName": "Rajasthan",
    "districtCode": "S2025",
    "districtName": "Banswara",
    "acNumber": 164,
    "acName": "Banswara",
    "partNumber": 45,
    "partName": "NAGAKHALI",
    "lat": 23.5,
    "lon": 74.333333
  },
  {
    "partId": 109330,
    "stateCode": "S20",
    "stateName": "Rajasthan",
    "districtCode": "S2025",
    "districtName": "Banswara",
    "acNumber": 164,
    "acName": "Banswara",
    "partNumber": 46,
    "partName": "CHHALIYAWAD",
    "lat": 23.5,
    "lon": 74.333333
  },
  {
    "partId": 109111,
    "stateCode": "S20",
    "stateName": "Rajasthan",
    "districtCode": "S2025",
    "districtName": "Banswara",
    "acNumber": 164,
    "acName": "Banswara",
    "partNumber": 47,
    "partName": "KATUMBI",
    "lat": 23.50002215757576,
    "lon": 74.35215946493507
  },
  {
    "partId": 109112,
    "stateCode": "S20",
    "stateName": "Rajasthan",
    "districtCode": "S2025",
    "districtName": "Banswara",
    "acNumber": 164,
    "acName": "Banswara",
    "partNumber": 48,
    "partName": "KATUMBI",
    "lat": 23.5379485,
    "lon": 74.6123707
  },
  {
    "partId": 109331,
    "stateCode": "S20",
    "stateName": "Rajasthan",
    "districtCode": "S2025",
    "districtName": "Banswara",
    "acNumber": 164,
    "acName": "Banswara",
    "partNumber": 49,
    "partName": "HARIYAPADA",
    "lat": 23.5,
    "lon": 74.333333
  },
  {
    "partId": 109113,
    "stateCode": "S20",
    "stateName": "Rajasthan",
    "districtCode": "S2025",
    "districtName": "Banswara",
    "acNumber": 164,
    "acName": "Banswara",
    "partNumber": 50,
    "partName": "ADIBHIT",
    "lat": 23.5,
    "lon": 74.333333
  },
  {
    "partId": 109114,
    "stateCode": "S20",
    "stateName": "Rajasthan",
    "districtCode": "S2025",
    "districtName": "Banswara",
    "acNumber": 164,
    "acName": "Banswara",
    "partNumber": 51,
    "partName": "DANAKSHARI",
    "lat": 23.5,
    "lon": 74.333333
  },
  {
    "partId": 109115,
    "stateCode": "S20",
    "stateName": "Rajasthan",
    "districtCode": "S2025",
    "districtName": "Banswara",
    "acNumber": 164,
    "acName": "Banswara",
    "partNumber": 52,
    "partName": "PATINAGARA",
    "lat": 23.5,
    "lon": 74.333333
  },
  {
    "partId": 109116,
    "stateCode": "S20",
    "stateName": "Rajasthan",
    "districtCode": "S2025",
    "districtName": "Banswara",
    "acNumber": 164,
    "acName": "Banswara",
    "partNumber": 53,
    "partName": "BARI",
    "lat": 23.5124065,
    "lon": 74.7284889
  },
  {
    "partId": 109117,
    "stateCode": "S20",
    "stateName": "Rajasthan",
    "districtCode": "S2025",
    "districtName": "Banswara",
    "acNumber": 164,
    "acName": "Banswara",
    "partNumber": 54,
    "partName": "BARI",
    "lat": 23.5124065,
    "lon": 74.7284889
  },
  {
    "partId": 109118,
    "stateCode": "S20",
    "stateName": "Rajasthan",
    "districtCode": "S2025",
    "districtName": "Banswara",
    "acNumber": 164,
    "acName": "Banswara",
    "partNumber": 55,
    "partName": "SAJAVANIYA",
    "lat": 23.50002215757576,
    "lon": 74.35215946493507
  },
  {
    "partId": 109119,
    "stateCode": "S20",
    "stateName": "Rajasthan",
    "districtCode": "S2025",
    "districtName": "Banswara",
    "acNumber": 164,
    "acName": "Banswara",
    "partNumber": 56,
    "partName": "KUNDALA KHURD",
    "lat": 23.50002215757576,
    "lon": 74.35215946493507
  },