[
  {
    "partId": 76633,
    "stateCode": "S20",
    "stateName": "Rajasthan",
    "districtCode": "S2009",
    "districtName": "Bharatpur",
    "acNumber": 76,
    "acName": "Bayana",
    "partNumber": 1,
    "partName": "NAYAGANV KALA",
    "lat": 26.9059419,
    "lon": 77.2924498
  },
  {
    "partId": 76634,
    "stateCode": "S20",
    "stateName": "Rajasthan",
    "districtCode": "S2009",
    "districtName": "Bharatpur",
    "acNumber": 76,
    "acName": "Bayana",
    "partNumber": 2,
    "partName": "BHAGORI",
    "lat": 26.9675953,
    "lon": 77.2505164
  },
  {
    "partId": 76635,
    "stateCode": "S20",
    "stateName": "Rajasthan",
    "districtCode": "S2009",
    "districtName": "Bharatpur",
    "acNumber": 76,
    "acName": "Bayana",
    "partNumber": 3,
    "partName": "KANAVAR",
    "lat": 26.9059419,
    "lon": 77.2924498
  },
  {
    "partId": 76636,
    "stateCode": "S20",
    "stateName": "Rajasthan",
    "districtCode": "S2009",
    "districtName": "Bharatpur",
    "acNumber": 76,
    "acName": "Bayana",
    "partNumber": 4,
    "partName": "KANAVAR",
    "lat": 26.9059419,
    "lon": 77.2924498
  },
  {
    "partId": 76637,
    "stateCode": "S20",
    "stateName": "Rajasthan",
    "districtCode": "S2009",
    "districtName": "Bharatpur",
    "acNumber": 76,
    "acName": "Bayana",
    "partNumber": 5,
    "partName": "NAGALA TIRAKHA",
    "lat": 26.9755986,
    "lon": 77.275697
  },
  {
    "partId": 76638,
    "stateCode": "S20",
    "stateName": "Rajasthan",
    "districtCode": "S2009",
    "districtName": "Bharatpur",
    "acNumber": 76,
    "acName": "Bayana",
    "partNumber": 6,
    "partName": "HARANAGAR",
    "lat": 26.9059419,
    "lon": 77.2924498
  },
  {
    "partId": 76639,
    "stateCode": "S20",
    "stateName": "Rajasthan",
    "districtCode": "S2009",
    "districtName": "Bharatpur",
    "acNumber": 76,
    "acName": "Bayana",
    "partNumber": 7,
    "partName": "BIDAYARI",
    "lat": 26.9583769,
    "lon": 77.2901058
  },
  {
    "partId": 76640,
    "stateCode": "S20",
    "stateName": "Rajasthan",
    "districtCode": "S2009",
    "districtName": "Bharatpur",
    "acNumber": 76,
    "acName": "Bayana",
    "partNumber": 8,
    "partName": "NAGALA JHAMARA",
    "lat": 26.9059419,
    "lon": 77.2924498
  },
  {
    "partId": 76641,
    "stateCode": "S20",
    "stateName": "Rajasthan",
    "districtCode": "S2009",
    "districtName": "Bharatpur",
    "acNumber": 76,
    "acName": "Bayana",
    "partNumber": 9,
    "partName": "SIDAPUR",
    "lat": 26.9059419,
    "lon": 77.2924498
  },
  {
    "partId": 76642,
    "stateCode": "S20",
    "stateName": "Rajasthan",
    "districtCode": "S2009",
    "districtName": "Bharatpur",
    "acNumber": 76,
    "acName": "Bayana",
    "partNumber": 10,
    "partName": "SIDAPUR",
    "lat": 26.9059419,
    "lon": 77.2924498
  },
  {
    "partId": 76643,
    "stateCode": "S20",
    "stateName": "Rajasthan",
    "districtCode": "S2009",
    "districtName": "Bharatpur",
    "acNumber": 76,
    "acName": "Bayana",
    "partNumber": 11,
    "partName": "BRAHMABAD",
    "lat": 26.9059419,
    "lon": 77.2924498
  },
  {
    "partId": 76644,
    "stateCode": "S20",
    "stateName": "Rajasthan",
    "districtCode": "S2009",
    "districtName": "Bharatpur",
    "acNumber": 76,
    "acName": "Bayana",
    "partNumber": 12,
    "partName": "BRAHMABAD",
    "lat": 26.9059419,
    "lon": 77.2924498
  },
  {
    "partId": 76645,
    "stateCode": "S20",
    "stateName": "Rajasthan",
    "districtCode": "S2009",
    "districtName": "Bharatpur",
    "acNumber": 76,
    "acName": "Bayana",
    "partNumber": 13,
    "partName": "BRAHMABAD",
    "lat": 26.9059419,
    "lon": 77.2924498
  },
  {
    "partId": 76646,
    "stateCode": "S20",
    "stateName": "Rajasthan",
    "districtCode": "S2009",
    "districtName": "Bharatpur",
    "acNumber": 76,
    "acName": "Bayana",
    "partNumber": 14,
    "partName": "BRAHMABAD",
    "lat": 26.9059419,
    "lon": 77.2924498
  },
  {
    "partId": 76647,
    "stateCode": "S20",
    "stateName": "Rajasthan",
    "districtCode": "S2009",
    "districtName": "Bharatpur",
    "acNumber": 76,
    "acName": "Bayana",
    "partNumber": 15,
    "partName": "NAYAVAS",
    "lat": 26.9059419,
    "lon": 77.2924498
  },
  {
    "partId": 76648,
    "stateCode": "S20",
    "stateName": "Rajasthan",
    "districtCode": "S2009",
    "districtName": "Bharatpur",
    "acNumber": 76,
    "acName": "Bayana",
    "partNumber": 16,
    "partName": "BAIKHEDA",
    "lat": 26.9059419,
    "lon": 77.2924498
  },
  {
    "partId": 76649,
    "stateCode": "S20",
    "stateName": "Rajasthan",
    "districtCode": "S2009",
    "districtName": "Bharatpur",
    "acNumber": 76,
    "acName": "Bayana",
    "partNumber": 17,
    "partName": "PURA BAI KHEDA",
    "lat": 26.9059419,
    "lon": 77.2924498
  },
  {
    "partId": 76650,
    "stateCode": "S20",
    "stateName": "Rajasthan",
    "districtCode": "S2009",
    "districtName": "Bharatpur",
    "acNumber": 76,
    "acName": "Bayana",
    "partNumber": 18,
    "partName": "PURA BAI KHEDA",
    "lat": 26.9059419,
    "lon": 77.2924498
  },
  {
    "partId": 76651,
    "stateCode": "S20",
    "stateName": "Rajasthan",
    "districtCode": "S2009",
    "districtName": "Bharatpur",
    "acNumber": 76,
    "acName": "Bayana",
    "partNumber": 19,
    "partName": "NANDI GAON",
    "lat": 26.9059419,
    "lon": 77.2924498
  },
  {
    "partId": 76652,
    "stateCode": "S20",
    "stateName": "Rajasthan",
    "districtCode": "S2009",
    "districtName": "Bharatpur",
    "acNumber": 76,
    "acName": "Bayana",
    "partNumber": 20,
    "partName": "NANDI GAON",
    "lat": 26.9059419,
    "lon": 77.2924498
  },
  {
    "partId": 76653,
    "stateCode": "S20",
    "stateName": "Rajasthan",
    "districtCode": "S2009",
    "districtName": "Bharatpur",
    "acNumber": 76,
    "acName": "Bayana",
    "partNumber": 21,
    "partName": "SALABAD",
    "lat": 26.9839646,
    "lon": 77.3125934
  },
  {
    "partId": 76654,
    "stateCode": "S20",
    "stateName": "Rajasthan",
    "districtCode": "S2009",
    "districtName": "Bharatpur",
    "acNumber": 76,
    "acName": "Bayana",
    "partNumber": 22,
    "partName": "SALABAD",
    "lat": 26.9839646,
    "lon": 77.3125934
  },
  {
    "partId": 76655,
    "stateCode": "S20",
    "stateName": "Rajasthan",
    "districtCode": "S2009",
    "districtName": "Bharatpur",
    "acNumber": 76,
    "acName": "Bayana",
    "partNumber": 23,
    "partName": "AGAVALI",
    "lat": 27.0027405,
    "lon": 77.3286652
  },
  {
    "partId": 76656,
    "stateCode": "S20",
    "stateName": "Rajasthan",
    "districtCode": "S2009",
    "districtName": "Bharatpur",
    "acNumber": 76,
    "acName": "Bayana",
    "partNumber": 24,
    "partName": "BAJAULI",
    "lat": 26.9059419,
    "lon": 77.2924498
  },
  {
    "partId": 76657,
    "stateCode": "S20",
    "stateName": "Rajasthan",
    "districtCode": "S2009",
    "districtName": "Bharatpur",
    "acNumber": 76,
    "acName": "Bayana",
    "partNumber": 25,
    "partName": "AJANOULI",
    "lat": 26.9059419,
    "lon": 77.2924498
  },
  {
    "partId": 76658,
    "stateCode": "S20",
    "stateName": "Rajasthan",
    "districtCode": "S2009",
    "districtName": "Bharatpur",
    "acNumber": 76,
    "acName": "Bayana",
    "partNumber": 26,
    "partName": "VIRAM PURA",
    "lat": 26.9059419,
    "lon": 77.2924498
  },
  {
    "partId": 76659,
    "stateCode": "S20",
    "stateName": "Rajasthan",
    "districtCode": "S2009",
    "districtName": "Bharatpur",
    "acNumber": 76,
    "acName": "Bayana",
    "partNumber": 27,
    "partName": "VIRAM PURA",
    "lat": 26.9059419,
    "lon": 77.2924498
  },
  {
    "partId": 76660,
    "stateCode": "S20",
    "stateName": "Rajasthan",
    "districtCode": "S2009",
    "districtName": "Bharatpur",
    "acNumber": 76,
    "acName": "Bayana",
    "partNumber": 28,
    "partName": "PIPARI",
    "lat": 27.0163711,
    "lon": 77.3634052
  },
  {
    "partId": 76661,
    "stateCode": "S20",
    "stateName": "Rajasthan",
    "districtCode": "S2009",
    "districtName": "Bharatpur",
    "acNumber": 76,
    "acName": "Bayana",
    "partNumber": 29,
    "partName": "MILAKAPUR",
    "lat": 26.9059419,
    "lon": 77.2924498
  },
  {
    "partId": 76662,
    "stateCode": "S20",
    "stateName": "Rajasthan",
    "districtCode": "S2009",
    "districtName": "Bharatpur",
    "acNumber": 76,
    "acName": "Bayana",
    "partNumber": 30,
    "partName": "MILAKAPUR",
    "lat": 26.9059419,
    "lon": 77.2924498
  },
  {
    "partId": 76663,
    "stateCode": "S20",
    "stateName": "Rajasthan",
    "districtCode": "S2009",
    "districtName": "Bharatpur",
    "acNumber": 76,
    "acName": "Bayana",
    "partNumber": 31,
    "partName": "SEVALA",
    "lat": 26.9059419,
    "lon": 77.2924498
  },
  {
    "partId": 76664,
    "stateCode": "S20",
    "stateName": "Rajasthan",
    "districtCode": "S2009",
    "districtName": "Bharatpur",
    "acNumber": 76,
    "acName": "Bayana",
    "partNumber": 32,
    "partName": "BIRHTHA",
    "lat": 26.9059419,
    "lon": 77.2924498
  },
  {
    "partId": 76665,
    "stateCode": "S20",
    "stateName": "Rajasthan",
    "districtCode": "S2009",
    "districtName": "Bharatpur",
    "acNumber": 76,
    "acName": "Bayana",
    "partNumber": 33,
    "partName": "LAHACHORA KALAN",
    "lat": 26.9059419,
    "lon": 77.2924498
  },
  {
    "partId": 76666,
    "stateCode": "S20",
    "stateName": "Rajasthan",
    "districtCode": "S2009",
    "districtName": "Bharatpur",
    "acNumber": 76,
    "acName": "Bayana",
    "partNumber": 34,
    "partName": "CHOUKHANDA",
    "lat": 26.9059419,
    "lon": 77.2924498
  },
  {
    "partId": 76667,
    "stateCode": "S20",
    "stateName": "Rajasthan",
    "districtCode": "S2009",
    "districtName": "Bharatpur",
    "acNumber": 76,
    "acName": "Bayana",
    "partNumber": 35,
    "partName": "SAD PURA",
    "lat": 26.9059419,
    "lon": 77.2924498
  },
  {
    "partId": 76668,
    "stateCode": "S20",
    "stateName": "Rajasthan",
    "districtCode": "S2009",
    "districtName": "Bharatpur",
    "acNumber": 76,
    "acName": "Bayana",
    "partNumber": 36,
    "partName": "SANTOK PURA",
    "lat": 26.9059419,
    "lon": 77.2924498
  },
  {
    "partId": 76669,
    "stateCode": "S20",
    "stateName": "Rajasthan",
    "districtCode": "S2009",
    "districtName": "Bharatpur",
    "acNumber": 76,
    "acName": "Bayana",
    "partNumber": 37,
    "partName": "THIKARIYA",
    "lat": 26.9674614,
    "lon": 77.3628473
  },
  {
    "partId": 76670,
    "stateCode": "S20",
    "stateName": "Rajasthan",
    "districtCode": "S2009",
    "districtName": "Bharatpur",
    "acNumber": 76,
    "acName": "Bayana",
    "partNumber": 38,
    "partName": "BARAUDA",
    "lat": 26.9059419,
    "lon": 77.2924498
  },
  {
    "partId": 76671,
    "stateCode": "S20",
    "stateName": "Rajasthan",
    "districtCode": "S2009",
    "districtName": "Bharatpur",
    "acNumber": 76,
    "acName": "Bayana",
    "partNumber": 39,
    "partName": "BABRI",
    "lat": 26.9059419,
    "lon": 77.2924498
  },
  {
    "partId": 76672,
    "stateCode": "S20",
    "stateName": "Rajasthan",
    "districtCode": "S2009",
    "districtName": "Bharatpur",
    "acNumber": 76,
    "acName": "Bayana",
    "partNumber": 40,
    "partName": "NAROULI",
    "lat": 26.9059419,
    "lon": 77.2924498
  },
  {
    "partId": 76673,
    "stateCode": "S20",
    "stateName": "Rajasthan",
    "districtCode": "S2009",
    "districtName": "Bharatpur",
    "acNumber": 76,
    "acName": "Bayana",
    "partNumber": 41,
    "partName": "NAROULI",
    "lat": 26.9059419,
    "lon": 77.2924498
  },
  {
    "partId": 76674,
    "stateCode": "S20",
    "stateName": "Rajasthan",
    "districtCode": "S2009",
    "districtName": "Bharatpur",
    "acNumber": 76,
    "acName": "Bayana",
    "partNumber": 42,
    "partName": "KOTHIKHEDA",
    "lat": 26.9059419,
    "lon": 77.2924498
  },
  {
    "partId": 76675,
    "stateCode": "S20",
    "stateName": "Rajasthan",
    "districtCode": "S2009",
    "districtName": "Bharatpur",
    "acNumber": 76,
    "acName": "Bayana",
    "partNumber": 43,
    "partName": "NAGALA KHATAKA",
    "lat": 26.9313104,
    "lon": 77.3462176
  },
  {
    "partId": 76676,
    "stateCode": "S20",
    "stateName": "Rajasthan",
    "districtCode": "S2009",
    "districtName": "Bharatpur",
    "acNumber": 76,
    "acName": "Bayana",
    "partNumber": 44,
    "partName": "SUPA",
    "lat": 26.9059419,
    "lon": 77.2924498
  },
  {
    "partId": 76677,
    "stateCode": "S20",
    "stateName": "Rajasthan",
    "districtCode": "S2009",
    "districtName": "Bharatpur",
    "acNumber": 76,
    "acName": "Bayana",
    "partNumber": 45,
    "partName": "KAKAL PURA",
    "lat": 26.9059419,
    "lon": 77.2924498
  },
  {
    "partId": 76678,
    "stateCode": "S20",
    "stateName": "Rajasthan",
    "districtCode": "S2009",
    "districtName": "Bharatpur",
    "acNumber": 76,
    "acName": "Bayana",
    "partNumber": 46,
    "partName": "VASTRAVALI",
    "lat": 26.9059419,
    "lon": 77.2924498
  },
  {
    "partId": 76679,
    "stateCode": "S20",
    "stateName": "Rajasthan",
    "districtCode": "S2009",
    "districtName": "Bharatpur",
    "acNumber": 76,
    "acName": "Bayana",
    "partNumber": 47,
    "partName": "PALI DANG",
    "lat": 26.9135749,
    "lon": 77.4054086
  },
  {
    "partId": 76680,
    "stateCode": "S20",
    "stateName": "Rajasthan",
    "districtCode": "S2009",
    "districtName": "Bharatpur",
    "acNumber": 76,
    "acName": "Bayana",
    "partNumber": 48,
    "partName": "PALI DANG",
    "lat": 26.9135749,
    "lon": 77.4054086
  },
  {
    "partId": 76681,
    "stateCode": "S20",
    "stateName": "Rajasthan",
    "districtCode": "S2009",
    "districtName": "Bharatpur",
    "acNumber": 76,
    "acName": "Bayana",
    "partNumber": 49,
    "partName": "BANDHAVARAITHA",
    "lat": 26.9059419,
    "lon": 77.2924498
  },
  {
    "partId": 76682,
    "stateCode": "S20",
    "stateName": "Rajasthan",
    "districtCode": "S2009",
    "districtName": "Bharatpur",
    "acNumber": 76,
    "acName": "Bayana",
    "partNumber": 50,
    "partName": "BANDHAVARAITHA",
    "lat": 26.9059419,
    "lon": 77.2924498
  },
  {
    "partId": 76683,
    "stateCode": "S20",
    "stateName": "Rajasthan",
    "districtCode": "S2009",
    "districtName": "Bharatpur",
    "acNumber": 76,
    "acName": "Bayana",
    "partNumber": 51,
    "partName": "MAHAMAD PURA",
    "lat": 26.9059419,
    "lon": 77.2924498
  },
  {
    "partId": 76684,
    "stateCode": "S20",
    "stateName": "Rajasthan",
    "districtCode": "S2009",
    "districtName": "Bharatpur",
    "acNumber": 76,
    "acName": "Bayana",
    "partNumber": 52,
    "partName": "MAHAMAD PURA",
    "lat": 26.9059419,
    "lon": 77.2924498
  },
  {
    "partId": 76685,
    "stateCode": "S20",
    "stateName": "Rajasthan",
    "districtCode": "S2009",
    "districtName": "Bharatpur",
    "acNumber": 76,
    "acName": "Bayana",
    "partNumber": 53,
    "partName": "MAHAMAD PURA",
    "lat": 26.9059419,
    "lon": 77.2924498
  },
  {
    "partId": 76686,
    "stateCode": "S20",
    "stateName": "Rajasthan",
    "districtCode": "S2009",
    "districtName": "Bharatpur",
    "acNumber": 76,
    "acName": "Bayana",
    "partNumber": 54,
    "partName": "BANGAS PURA",
    "lat": 26.9059419,
    "lon": 77.2924498
  },
  {
    "partId": 76687,
    "stateCode": "S20",
    "stateName": "Rajasthan",
    "districtCode": "S2009",
    "districtName": "Bharatpur",
    "acNumber": 76,
    "acName": "Bayana",
    "partNumber": 55,
    "partName": "SULTANPUR",
    "lat": 26.8928513,
    "lon": 77.3405528
  },
  {
    "partId": 76688,
    "stateCode": "S20",
    "stateName": "Rajasthan",
    "districtCode": "S2009",
    "districtName": "Bharatpur",
    "acNumber": 76,
    "acName": "Bayana",
    "partNumber": 56,
    "partName": "NAGALA SINGHADA",
    "lat": 26.9059419,
    "lon": 77.2924498
  },
  {
    "partId": 76689,
    "stateCode": "S20",
    "stateName": "Rajasthan",
    "districtCode": "S2009",
    "districtName": "Bharatpur",
    "acNumber": 76,
    "acName": "Bayana",
    "partNumber": 57,
    "partName": "CHAHAL",
    "lat": 26.8965639,
    "lon": 77.3091817
  },
  {
    "partId": 76690,
    "stateCode": "S20",
    "stateName": "Rajasthan",
    "districtCode": "S2009",
    "districtName": "Bharatpur",
    "acNumber": 76,
    "acName": "Bayana",
    "partNumber": 58,
    "partName": "SINGHADA",
    "lat": 26.908455,
    "lon": 77.313386
  },
  {
    "partId": 76691,
    "stateCode": "S20",
    "stateName": "Rajasthan",
    "districtCode": "S2009",
    "districtName": "Bharatpur",
    "acNumber": 76,
    "acName": "Bayana",
    "partNumber": 59,
    "partName": "SINGHADA",
    "lat": 26.908455,
    "lon": 77.313386
  },
  {
    "partId": 76692,
    "stateCode": "S20",
    "stateName": "Rajasthan",
    "districtCode": "S2009",
    "districtName": "Bharatpur",
    "acNumber": 76,
    "acName": "Bayana",
    "partNumber": 60,
    "partName": "SINGHADA",
    "lat": 26.908455,
    "lon": 77.313386
  },
  {
    "partId": 76693,
    "stateCode": "S20",
    "stateName": "Rajasthan",
    "districtCode": "S2009",
    "districtName": "Bharatpur",
    "acNumber": 76,
    "acName": "Bayana",
    "partNumber": 61,
    "partName": "SINGHANAKHEDA",
    "lat": 26.9059419,
    "lon": 77.2924498
  },
  {
    "partId": 76694,
    "stateCode": "S20",
    "stateName": "Rajasthan",
    "districtCode": "S2009",
    "districtName": "Bharatpur",
    "acNumber": 76,
    "acName": "Bayana",
    "partNumber": 62,
    "partName": "DEVASARAY",
    "lat": 26.9059419,
    "lon": 77.2924498
  },
  {
    "partId": 76695,
    "stateCode": "S20",
    "stateName": "Rajasthan",
    "districtCode": "S2009",
    "districtName": "Bharatpur",
    "acNumber": 76,
    "acName": "Bayana",
    "partNumber": 63,
    "partName": "MURRKI",
    "lat": 26.9059419,
    "lon": 77.2924498
  },
  {
    "partId": 76696,
    "stateCode": "S20",
    "stateName": "Rajasthan",
    "districtCode": "S2009",
    "districtName": "Bharatpur",
    "acNumber": 76,
    "acName": "Bayana",
    "partNumber": 64,
    "partName": "MALIPURA",
    "lat": 26.9059419,
    "lon": 77.2924498
  },
  {
    "partId": 76697,
    "stateCode": "S20",
    "stateName": "Rajasthan",
    "districtCode": "S2009",
    "districtName": "Bharatpur",
    "acNumber": 76,
    "acName": "Bayana",
    "partNumber": 65,
    "partName": "BAYANA",
    "lat": 26.9059419,
    "lon": 77.2924498
  },
  {
    "partId": 76698,
    "stateCode": "S20",
    "stateName": "Rajasthan",
    "districtCode": "S2009",
    "districtName": "Bharatpur",
    "acNumber": 76,
    "acName": "Bayana",
    "partNumber": 66,
    "partName": "BAYANA",
    "lat": 26.9059419,
    "lon": 77.2924498
  },
  {
    "partId": 76699,
    "stateCode": "S20",
    "stateName": "Rajasthan",
    "districtCode": "S2009",
    "districtName": "Bharatpur",
    "acNumber": 76,
    "acName": "Bayana",
    "partNumber": 67,
    "partName": "BAYANA",
    "lat": 26.9059419,
    "lon": 77.2924498
  },
  {
    "partId": 76700,
    "stateCode": "S20",
    "stateName": "Rajasthan",
    "districtCode": "S2009",
    "districtName": "Bharatpur",
    "acNumber": 76,
    "acName": "Bayana",
    "partNumber": 68,
    "partName": "BAYANA",
    "lat": 26.9059419,
    "lon": 77.2924498
  },
  {
    "partId": 76701,
    "stateCode": "S20",
    "stateName": "Rajasthan",
    "districtCode": "S2009",
    "districtName": "Bharatpur",
    "acNumber": 76,
    "acName": "Bayana",
    "partNumber": 69,
    "partName": "BAYANA",
    "lat": 26.9059419,
    "lon": 77.2924498
  },
  {
    "partId": 76702,
    "stateCode": "S20",
    "stateName": "Rajasthan",
    "districtCode": "S2009",
    "districtName": "Bharatpur",
    "acNumber": 76,
    "acName": "Bayana",
    "partNumber": 70,
    "partName": "BAYANA",
    "lat": 26.9059419,
    "lon": 77.2924498
  },
  {
    "partId": 76703,
    "stateCode": "S20",
    "stateName": "Rajasthan",
    "districtCode": "S2009",
    "districtName": "Bharatpur",
    "acNumber": 76,
    "acName": "Bayana",
    "partNumber": 71,
    "partName": "BAYANA",
    "lat": 26.9059419,
    "lon": 77.2924498
  },
  {
    "partId": 76704,
    "stateCode": "S20",
    "stateName": "Rajasthan",
    "districtCode": "S2009",
    "districtName": "Bharatpur",
    "acNumber": 76,
    "acName": "Bayana",
    "partNumber": 72,
    "partName": "BAYANA",
    "lat": 26.9059419,
    "lon": 77.2924498
  },
  {
    "partId": 76705,
    "stateCode": "S20",
    "stateName": "Rajasthan",
    "districtCode": "S2009",
    "districtName": "Bharatpur",
    "acNumber": 76,
    "acName": "Bayana",
    "partNumber": 73,
    "partName": "BAYANA",
    "lat": 26.9059419,
    "lon": 77.2924498
  },
  {
    "partId": 76897,
    "stateCode": "S20",
    "stateName": "Rajasthan",
    "districtCode": "S2009",
    "districtName": "Bharatpur",
    "acNumber": 76,
    "acName": "Bayana",
    "partNumber": 74,
    "partName": "BAYANA",
    "lat": 26.9059419,
    "lon": 77.2924498
  },
  {
    "partId": 76706,
    "stateCode": "S20",
    "stateName": "Rajasthan",
    "districtCode": "S2009",
    "districtName": "Bharatpur",
    "acNumber": 76,
    "acName": "Bayana",
    "partNumber": 75,
    "partName": "BAYANA",
    "lat": 26.9059419,
    "lon": 77.2924498
  },
  {
    "partId": 76707,
    "stateCode": "S20",
    "stateName": "Rajasthan",
    "districtCode": "S2009",
    "districtName": "Bharatpur",
    "acNumber": 76,
    "acName": "Bayana",
    "partNumber": 76,
    "partName": "BAYANA",
    "lat": 26.9059419,
    "lon": 77.2924498
  },
  {
    "partId": 76708,
    "stateCode": "S20",
    "stateName": "Rajasthan",
    "districtCode": "S2009",
    "districtName": "Bharatpur",
    "acNumber": 76,
    "acName": "Bayana",
    "partNumber": 77,
    "partName": "BAYANA",
    "lat": 26.9059419,
    "lon": 77.2924498
  },
  {
    "partId": 76709,
    "stateCode": "S20",
    "stateName": "Rajasthan",
    "districtCode": "S2009",
    "districtName": "Bharatpur",
    "acNumber": 76,
    "acName": "Bayana",
    "partNumber": 78,
    "partName": "BAYANA",
    "lat": 26.9059419,
    "lon": 77.2924498
  },
  {
    "partId": 76710,
    "stateCode": "S20",
    "stateName": "Rajasthan",
    "districtCode": "S2009",
    "districtName": "Bharatpur",
    "acNumber": 76,
    "acName": "Bayana",
    "partNumber": 79,
    "partName": "BAYANA",
    "lat": 26.9059419,
    "lon": 77.2924498
  },
  {
    "partId": 76711,
    "stateCode": "S20",
    "stateName": "Rajasthan",
    "districtCode": "S2009",
    "districtName": "Bharatpur",
    "acNumber": 76,
    "acName": "Bayana",
    "partNumber": 80,
    "partName": "BAYANA",
    "lat": 26.9059419,
    "lon": 77.2924498
  },
  {
    "partId": 76712,
    "stateCode": "S20",
    "stateName": "Rajasthan",
    "districtCode": "S2009",
    "districtName": "Bharatpur",
    "acNumber": 76,
    "acName": "Bayana",
    "partNumber": 81,
    "partName": "BAYANA",
    "lat": 26.9059419,
    "lon": 77.2924498
  },
  {
    "partId": 76713,
    "stateCode": "S20",
    "stateName": "Rajasthan",
    "districtCode": "S2009",
    "districtName": "Bharatpur",
    "acNumber": 76,
    "acName": "Bayana",
    "partNumber": 82,
    "partName": "BAYANA",
    "lat": 26.9059419,
    "lon": 77.2924498
  },
  {
    "partId": 76714,
    "stateCode": "S20",
    "stateName": "Rajasthan",
    "districtCode": "S2009",
    "districtName": "Bharatpur",
    "acNumber": 76,
    "acName": "Bayana",
    "partNumber": 83,
    "partName": "BAYANA",
    "lat": 26.9059419,
    "lon": 77.2924498
  },
  {
    "partId": 76715,
    "stateCode": "S20",
    "stateName": "Rajasthan",
    "districtCode": "S2009",
    "districtName": "Bharatpur",
    "acNumber": 76,
    "acName": "Bayana",
    "partNumber": 84,
    "partName": "BAYANA",
    "lat": 26.9059419,
    "lon": 77.2924498
  },
  {
    "partId": 76716,
    "stateCode": "S20",
    "stateName": "Rajasthan",
    "districtCode": "S2009",
    "districtName": "Bharatpur",
    "acNumber": 76,
    "acName": "Bayana",
    "partNumber": 85,
    "partName": "BAYANA",
    "lat": 26.9059419,
    "lon": 77.2924498
  },
  {
    "partId": 76717,
    "stateCode": "S20",
    "stateName": "Rajasthan",
    "districtCode": "S2009",
    "districtName": "Bharatpur",
    "acNumber": 76,
    "acName": "Bayana",
    "partNumber": 86,
    "partName": "BAYANA",
    "lat": 26.9059419,
    "lon": 77.2924498
  },
  {
    "partId": 76718,
    "stateCode": "S20",
    "stateName": "Rajasthan",
    "districtCode": "S2009",
    "districtName": "Bharatpur",
    "acNumber": 76,
    "acName": "Bayana",
    "partNumber": 87,
    "partName": "BAYANA",
    "lat": 26.9059419,
    "lon": 77.2924498
  },
  {
    "partId": 76719,
    "stateCode": "S20",
    "stateName": "Rajasthan",
    "districtCode": "S2009",
    "districtName": "Bharatpur",
    "acNumber": 76,
    "acName": "Bayana",
    "partNumber": 88,
    "partName": "BAYANA",
    "lat": 26.9059419,
    "lon": 77.2924498
  },
  {
    "partId": 76720,
    "stateCode": "S20",
    "stateName": "Rajasthan",
    "districtCode": "S2009",
    "districtName": "Bharatpur",
    "acNumber": 76,
    "acName": "Bayana",
    "partNumber": 89,
    "partName": "BAYANA",
    "lat": 26.9059419,
    "lon": 77.2924498
  },
  {
    "partId": 76721,
    "stateCode": "S20",
    "stateName": "Rajasthan",
    "districtCode": "S2009",
    "districtName": "Bharatpur",
    "acNumber": 76,
    "acName": "Bayana",
    "partNumber": 90,
    "partName": "BAYANA",
    "lat": 26.9059419,
    "lon": 77.2924498
  },
  {
    "partId": 76722,
    "stateCode": "S20",
    "stateName": "Rajasthan",
    "districtCode": "S2009",
    "districtName": "Bharatpur",
    "acNumber": 76,
    "acName": "Bayana",
    "partNumber": 91,
    "partName": "BAYANA",
    "lat": 26.9059419,
    "lon": 77.2924498
  },
  {
    "partId": 76723,
    "stateCode": "S20",
    "stateName": "Rajasthan",
    "districtCode": "S2009",
    "districtName": "Bharatpur",
    "acNumber": 76,
    "acName": "Bayana",
    "partNumber": 92,
    "partName": "NAGLA BHAGORI",
    "lat": 26.9729,
    "lon": 77.2637587
  },
  {
    "partId": 76724,
    "stateCode": "S20",
    "stateName": "Rajasthan",
    "districtCode": "S2009",
    "districtName": "Bharatpur",
    "acNumber": 76,
    "acName": "Bayana",
    "partNumber": 93,
    "partName": "DAMADAMA",
    "lat": 26.9188078,
    "lon": 77.2630906
  },
  {
    "partId": 76725,
    "stateCode": "S20",
    "stateName": "Rajasthan",
    "districtCode": "S2009",
    "districtName": "Bharatpur",
    "acNumber": 76,
    "acName": "Bayana",
    "partNumber": 94,
    "partName": "IMALIYA",
    "lat": 26.9238109,
    "lon": 77.2501087
  },
  {
    "partId": 76726,
    "stateCode": "S20",
    "stateName": "Rajasthan",
    "districtCode": "S2009",
    "districtName": "Bharatpur",
    "acNumber": 76,
    "acName": "Bayana",
    "partNumber": 95,
    "partName": "KACHERA",
    "lat": 26.9059419,
    "lon": 77.2924498
  },
  {
    "partId": 76727,
    "stateCode": "S20",
    "stateName": "Rajasthan",
    "districtCode": "S2009",
    "districtName": "Bharatpur",
    "acNumber": 76,
    "acName": "Bayana",
    "partNumber": 96,
    "partName": "MAHALONI",
    "lat": 26.9362555,
    "lon": 77.2396266
  },
  {
    "partId": 76728,
    "stateCode": "S20",
    "stateName": "Rajasthan",
    "districtCode": "S2009",
    "districtName": "Bharatpur",
    "acNumber": 76,
    "acName": "Bayana",
    "partNumber": 97,
    "partName": "GAJIPUR",
    "lat": 26.9059419,
    "lon": 77.2924498
  },
  {
    "partId": 76729,
    "stateCode": "S20",
    "stateName": "Rajasthan",
    "districtCode": "S2009",
    "districtName": "Bharatpur",
    "acNumber": 76,
    "acName": "Bayana",
    "partNumber": 98,
    "partName": "ETMADAPUR",
    "lat": 26.911665202325583,
    "lon": 77.31599660417918
  },
  {
    "partId": 76730,
    "stateCode": "S20",
    "stateName": "Rajasthan",
    "districtCode": "S2009",
    "districtName": "Bharatpur",
    "acNumber": 76,
    "acName": "Bayana",
    "partNumber": 99,
    "partName": "MALI PURA",
    "lat": 26.9059419,
    "lon": 77.2924498
  },
  {
    "partId": 76731,
    "stateCode": "S20",
    "stateName": "Rajasthan",
    "districtCode": "S2009",
    "districtName": "Bharatpur",
    "acNumber": 76,
    "acName": "Bayana",
    "partNumber": 100,
    "partName": "SHERGARH",
    "lat": 26.911665202325583,
    "lon": 77.31599660417918
  },
  {
    "partId": 76732,
    "stateCode": "S20",
    "stateName": "Rajasthan",
    "districtCode": "S2009",
    "districtName": "Bharatpur",
    "acNumber": 76,
    "acName": "Bayana",
    "partNumber": 101,
    "partName": "SIKANDRA",
    "lat": 26.8806699,
    "lon": 77.2619372
  },
  {
    "partId": 76733,
    "stateCode": "S20",
    "stateName": "Rajasthan",
    "districtCode": "S2009",
    "districtName": "Bharatpur",
    "acNumber": 76,
    "acName": "Bayana",
    "partNumber": 102,
    "partName": "SIKANDRA",
    "lat": 26.911665202325583,
    "lon": 77.31599660417918
  },
  {
    "partId": 76734,
    "stateCode": "S20",
    "stateName": "Rajasthan",
    "districtCode": "S2009",
    "districtName": "Bharatpur",
    "acNumber": 76,
    "acName": "Bayana",
    "partNumber": 103,
    "partName": "SIKANDRA",
    "lat": 26.8806699,
    "lon": 77.2619372
  },
  {
    "partId": 76735,
    "stateCode": "S20",
    "stateName": "Rajasthan",
    "districtCode": "S2009",
    "districtName": "Bharatpur",
    "acNumber": 76,
    "acName": "Bayana",
    "partNumber": 104,
    "partName": "DUMARIYA",
    "lat": 26.8723536,
    "lon": 77.2437787
  },
  {
    "partId": 76736,
    "stateCode": "S20",
    "stateName": "Rajasthan",
    "districtCode": "S2009",
    "districtName": "Bharatpur",
    "acNumber": 76,
    "acName": "Bayana",
    "partNumber": 105,
    "partName": "SAMOGAR",
    "lat": 26.8568008,
    "lon": 77.2263229
  },
  {
    "partId": 76737,
    "stateCode": "S20",
    "stateName": "Rajasthan",
    "districtCode": "S2009",
    "districtName": "Bharatpur",
    "acNumber": 76,
    "acName": "Bayana",
    "partNumber": 106,
    "partName": "SAMOGAR",
    "lat": 26.8568008,
    "lon": 77.2263229
  },
  {
    "partId": 76738,
    "stateCode": "S20",
    "stateName": "Rajasthan",
    "districtCode": "S2009",
    "districtName": "Bharatpur",
    "acNumber": 76,
    "acName": "Bayana",
    "partNumber": 107,
    "partName": "NAGALA HONTA",
    "lat": 26.9059419,
    "lon": 77.2924498
  },
  {
    "partId": 76739,
    "stateCode": "S20",
    "stateName": "Rajasthan",
    "districtCode": "S2009",
    "districtName": "Bharatpur",
    "acNumber": 76,
    "acName": "Bayana",
    "partNumber": 108,
    "partName": "MADANAPUR",
    "lat": 26.9059419,
    "lon": 77.2924498
  },
  {
    "partId": 76898,
    "stateCode": "S20",
    "stateName": "Rajasthan",
    "districtCode": "S2009",
    "districtName": "Bharatpur",
    "acNumber": 76,
    "acName": "Bayana",
    "partNumber": 109,
    "partName": "NAGLA CHOUDHARIYA",
    "lat": 26.9059419,
    "lon": 77.2924498
  },
  {
    "partId": 76740,
    "stateCode": "S20",
    "stateName": "Rajasthan",
    "districtCode": "S2009",
    "districtName": "Bharatpur",
    "acNumber": 76,
    "acName": "Bayana",
    "partNumber": 110,
    "partName": "DHADHARAIN",
    "lat": 26.9059419,
    "lon": 77.2924498
  },
  {
    "partId": 76741,
    "stateCode": "S20",
    "stateName": "Rajasthan",
    "districtCode": "S2009",
    "districtName": "Bharatpur",
    "acNumber": 76,
    "acName": "Bayana",
    "partNumber": 111,
    "partName": "DHADHARAIN",
    "lat": 26.9059419,
    "lon": 77.2924498
  },
  {
    "partId": 76742,
    "stateCode": "S20",
    "stateName": "Rajasthan",
    "districtCode": "S2009",
    "districtName": "Bharatpur",
    "acNumber": 76,
    "acName": "Bayana",
    "partNumber": 112,
    "partName": "RASAIRI",
    "lat": 26.9059419,
    "lon": 77.2924498
  },
  {
    "partId": 76743,
    "stateCode": "S20",
    "stateName": "Rajasthan",
    "districtCode": "S2009",
    "districtName": "Bharatpur",
    "acNumber": 76,
    "acName": "Bayana",
    "partNumber": 113,
    "partName": "RASAIRI",
    "lat": 26.9059419,
    "lon": 77.2924498
  },
  {
    "partId": 76744,
    "stateCode": "S20",
    "stateName": "Rajasthan",
    "districtCode": "S2009",
    "districtName": "Bharatpur",
    "acNumber": 76,
    "acName": "Bayana",
    "partNumber": 114,
    "partName": "KARAVARI",
    "lat": 26.837321,
    "lon": 77.2127294
  },
  {
    "partId": 76745,
    "stateCode": "S20",
    "stateName": "Rajasthan",
    "districtCode": "S2009",
    "districtName": "Bharatpur",
    "acNumber": 76,
    "acName": "Bayana",
    "partNumber": 115,
    "partName": "MUAVALI",
    "lat": 26.9059419,
    "lon": 77.2924498
  },
  {
    "partId": 76746,
    "stateCode": "S20",
    "stateName": "Rajasthan",
    "districtCode": "S2009",
    "districtName": "Bharatpur",
    "acNumber": 76,
    "acName": "Bayana",
    "partNumber": 116,
    "partName": "KAPURAMALUKA",
    "lat": 26.9059419,
    "lon": 77.2924498
  },
  {
    "partId": 76747,
    "stateCode": "S20",
    "stateName": "Rajasthan",
    "districtCode": "S2009",
    "districtName": "Bharatpur",
    "acNumber": 76,
    "acName": "Bayana",
    "partNumber": 117,
    "partName": "JHATOLA",
    "lat": 26.799845,
    "lon": 77.232213
  },
  {
    "partId": 76748,
    "stateCode": "S20",
    "stateName": "Rajasthan",
    "districtCode": "S2009",
    "districtName": "Bharatpur",
    "acNumber": 76,
    "acName": "Bayana",
    "partNumber": 118,
    "partName": "DHURAIRI",
    "lat": 26.8430456,
    "lon": 77.2375774
  },
  {
    "partId": 76749,
    "stateCode": "S20",
    "stateName": "Rajasthan",
    "districtCode": "S2009",
    "districtName": "Bharatpur",
    "acNumber": 76,
    "acName": "Bayana",
    "partNumber": 119,
    "partName": "PURAHAR LAL",
    "lat": 26.9059419,
    "lon": 77.2924498
  },
  {
    "partId": 76750,
    "stateCode": "S20",
    "stateName": "Rajasthan",
    "districtCode": "S2009",
    "districtName": "Bharatpur",
    "acNumber": 76,
    "acName": "Bayana",
    "partNumber": 120,
    "partName": "NAHAROULI",
    "lat": 26.9059419,
    "lon": 77.2924498
  },
  {
    "partId": 76751,
    "stateCode": "S20",
    "stateName": "Rajasthan",
    "districtCode": "S2009",
    "districtName": "Bharatpur",
    "acNumber": 76,
    "acName": "Bayana",
    "partNumber": 121,
    "partName": "NAYA NAGLA MAJRA GHUNAINI",
    "lat": 26.9059419,
    "lon": 77.2924498
  },
  {
    "partId": 76752,
    "stateCode": "S20",
    "stateName": "Rajasthan",
    "districtCode": "S2009",
    "districtName": "Bharatpur",
    "acNumber": 76,
    "acName": "Bayana",
    "partNumber": 122,
    "partName": "THANADANG",
    "lat": 26.9059419,
    "lon": 77.2924498
  },
  {
    "partId": 76753,
    "stateCode": "S20",
    "stateName": "Rajasthan",
    "districtCode": "S2009",
    "districtName": "Bharatpur",
    "acNumber": 76,
    "acName": "Bayana",
    "partNumber": 123,
    "partName": "KHERIDANG",
    "lat": 26.9059419,
    "lon": 77.2924498
  },
  {
    "partId": 76754,
    "stateCode": "S20",
    "stateName": "Rajasthan",
    "districtCode": "S2009",
    "districtName": "Bharatpur",
    "acNumber": 76,
    "acName": "Bayana",
    "partNumber": 124,
    "partName": "SHAHAPUR",
    "lat": 26.9059419,
    "lon": 77.2924498
  },
  {
    "partId": 76755,
    "stateCode": "S20",
    "stateName": "Rajasthan",
    "districtCode": "S2009",
    "districtName": "Bharatpur",
    "acNumber": 76,
    "acName": "Bayana",
    "partNumber": 125,
    "partName": "GURADHADANG",
    "lat": 26.9059419,
    "lon": 77.2924498
  },
  {
    "partId": 76756,
    "stateCode": "S20",
    "stateName": "Rajasthan",
    "districtCode": "S2009",
    "districtName": "Bharatpur",
    "acNumber": 76,
    "acName": "Bayana",
    "partNumber": 126,
    "partName": "GADHI BAJANA",
    "lat": 26.9059419,
    "lon": 77.2924498
  },
  {
    "partId": 76757,
    "stateCode": "S20",
    "stateName": "Rajasthan",
    "districtCode": "S2009",
    "districtName": "Bharatpur",
    "acNumber": 76,
    "acName": "Bayana",
    "partNumber": 127,
    "partName": "SINGHARAVALI",
    "lat": 26.9059419,
    "lon": 77.2924498
  },
  {
    "partId": 76758,
    "stateCode": "S20",
    "stateName": "Rajasthan",
    "districtCode": "S2009",
    "districtName": "Bharatpur",
    "acNumber": 76,
    "acName": "Bayana",
    "partNumber": 128,
    "partName": "BAISORA",
    "lat": 26.7526043,
    "lon": 77.4297094
  },
  {
    "partId": 76759,
    "stateCode": "S20",
    "stateName": "Rajasthan",
    "districtCode": "S2009",
    "districtName": "Bharatpur",
    "acNumber": 76,
    "acName": "Bayana",
    "partNumber": 129,
    "partName": "JAISORA",
    "lat": 26.7642344,
    "lon": 77.4148177
  },
  {
    "partId": 76760,
    "stateCode": "S20",
    "stateName": "Rajasthan",
    "districtCode": "S2009",
    "districtName": "Bharatpur",
    "acNumber": 76,
    "acName": "Bayana",
    "partNumber": 130,
    "partName": "JAISORA",
    "lat": 26.7642344,
    "lon": 77.4148177
  },
  {
    "partId": 76761,
    "stateCode": "S20",
    "stateName": "Rajasthan",
    "districtCode": "S2009",
    "districtName": "Bharatpur",
    "acNumber": 76,
    "acName": "Bayana",
    "partNumber": 131,
    "partName": "OKHALIYA PURA",
    "lat": 26.7744455,
    "lon": 77.3864507
  },
  {
    "partId": 76899,
    "stateCode": "S20",
    "stateName": "Rajasthan",
    "districtCode": "S2009",
    "districtName": "Bharatpur",
    "acNumber": 76,
    "acName": "Bayana",
    "partNumber": 132,
    "partName": "GADHI BAJNA",
    "lat": 26.9059419,
    "lon": 77.2924498
  },
  {
    "partId": 76762,
    "stateCode": "S20",
    "stateName": "Rajasthan",
    "districtCode": "S2009",
    "districtName": "Bharatpur",
    "acNumber": 76,
    "acName": "Bayana",
    "partNumber": 133,
    "partName": "KANI",
    "lat": 26.9059419,
    "lon": 77.2924498
  },
  {
    "partId": 76763,
    "stateCode": "S20",
    "stateName": "Rajasthan",
    "districtCode": "S2009",
    "districtName": "Bharatpur",
    "acNumber": 76,
    "acName": "Bayana",
    "partNumber": 134,
    "partName": "KOT",
    "lat": 26.9059419,
    "lon": 77.2924498
  },
  {
    "partId": 76764,
    "stateCode": "S20",
    "stateName": "Rajasthan",
    "districtCode": "S2009",
    "districtName": "Bharatpur",
    "acNumber": 76,
    "acName": "Bayana",
    "partNumber": 135,
    "partName": "KOT",
    "lat": 26.9059419,
    "lon": 77.2924498
  },
  {
    "partId": 76765,
    "stateCode": "S20",
    "stateName": "Rajasthan",
    "districtCode": "S2009",
    "districtName": "Bharatpur",
    "acNumber": 76,
    "acName": "Bayana",
    "partNumber": 136,
    "partName": "PAROU",
    "lat": 26.9059419,
    "lon": 77.2924498
  },
  {
    "partId": 76766,
    "stateCode": "S20",
    "stateName": "Rajasthan",
    "districtCode": "S2009",
    "districtName": "Bharatpur",
    "acNumber": 76,
    "acName": "Bayana",
    "partNumber": 137,
    "partName": "DARRAVARAHANA",
    "lat": 26.9059419,
    "lon": 77.2924498
  },
  {
    "partId": 76767,
    "stateCode": "S20",
    "stateName": "Rajasthan",
    "districtCode": "S2009",
    "districtName": "Bharatpur",
    "acNumber": 76,
    "acName": "Bayana",
    "partNumber": 138,
    "partName": "TARASUMA",
    "lat": 26.9059419,
    "lon": 77.2924498
  },
  {
    "partId": 76768,
    "stateCode": "S20",
    "stateName": "Rajasthan",
    "districtCode": "S2009",
    "districtName": "Bharatpur",
    "acNumber": 76,
    "acName": "Bayana",
    "partNumber": 139,
    "partName": "TURATI PURA",
    "lat": 26.9059419,
    "lon": 77.2924498
  },
  {
    "partId": 76769,
    "stateCode": "S20",
    "stateName": "Rajasthan",
    "districtCode": "S2009",
    "districtName": "Bharatpur",
    "acNumber": 76,
    "acName": "Bayana",
    "partNumber": 140,
    "partName": "SAMARI",
    "lat": 26.911665202325583,
    "lon": 77.31599660417918
  },
  {
    "partId": 76770,
    "stateCode": "S20",
    "stateName": "Rajasthan",
    "districtCode": "S2009",
    "districtName": "Bharatpur",
    "acNumber": 76,
    "acName": "Bayana",
    "partNumber": 141,
    "partName": "GAJANUYA",
    "lat": 26.9059419,
    "lon": 77.2924498
  },
  {
    "partId": 76771,
    "stateCode": "S20",
    "stateName": "Rajasthan",
    "districtCode": "S2009",
    "districtName": "Bharatpur",
    "acNumber": 76,
    "acName": "Bayana",
    "partNumber": 142,
    "partName": "VANAKUKARA",
    "lat": 26.9059419,
    "lon": 77.2924498
  },
  {
    "partId": 76772,
    "stateCode": "S20",
    "stateName": "Rajasthan",
    "districtCode": "S2009",
    "districtName": "Bharatpur",
    "acNumber": 76,
    "acName": "Bayana",
    "partNumber": 143,
    "partName": "MANGARAIN KALAN",
    "lat": 26.9059419,
    "lon": 77.2924498
  },
  {
    "partId": 76773,
    "stateCode": "S20",
    "stateName": "Rajasthan",
    "districtCode": "S2009",
    "districtName": "Bharatpur",
    "acNumber": 76,
    "acName": "Bayana",
    "partNumber": 144,
    "partName": "SINGHANIYAN",
    "lat": 26.9059419,
    "lon": 77.2924498
  },
  {
    "partId": 76774,
    "stateCode": "S20",
    "stateName": "Rajasthan",
    "districtCode": "S2009",
    "districtName": "Bharatpur",
    "acNumber": 76,
    "acName": "Bayana",
    "partNumber": 145,
    "partName": "TARABIJAPUR",
    "lat": 26.9059419,
    "lon": 77.2924498
  },
  {
    "partId": 76775,
    "stateCode": "S20",
    "stateName": "Rajasthan",
    "districtCode": "S2009",
    "districtName": "Bharatpur",
    "acNumber": 76,
    "acName": "Bayana",
    "partNumber": 146,
    "partName": "NAGALA TULA",
    "lat": 26.9059419,
    "lon": 77.2924498
  },
  {
    "partId": 76776,
    "stateCode": "S20",
    "stateName": "Rajasthan",
    "districtCode": "S2009",
    "districtName": "Bharatpur",
    "acNumber": 76,
    "acName": "Bayana",
    "partNumber": 147,
    "partName": "NAGALA TULA",
    "lat": 26.9059419,
    "lon": 77.2924498
  },
  {
    "partId": 76777,
    "stateCode": "S20",
    "stateName": "Rajasthan",
    "districtCode": "S2009",
    "districtName": "Bharatpur",
    "acNumber": 76,
    "acName": "Bayana",
    "partNumber": 148,
    "partName": "NAGALA TULA",
    "lat": 26.9059419,
    "lon": 77.2924498
  },
  {
    "partId": 76778,
    "stateCode": "S20",
    "stateName": "Rajasthan",
    "districtCode": "S2009",
    "districtName": "Bharatpur",
    "acNumber": 76,
    "acName": "Bayana",
    "partNumber": 149,
    "partName": "DUMARIYA",
    "lat": 26.8723536,
    "lon": 77.2437787
  },
  {
    "partId": 76779,
    "stateCode": "S20",
    "stateName": "Rajasthan",
    "districtCode": "S2009",
    "districtName": "Bharatpur",
    "acNumber": 76,
    "acName": "Bayana",
    "partNumber": 150,
    "partName": "CHURARI DANG",
    "lat": 26.9257624,
    "lon": 77.4372196
  },
  {
    "partId": 76780,
    "stateCode": "S20",
    "stateName": "Rajasthan",
    "districtCode": "S2009",
    "districtName": "Bharatpur",
    "acNumber": 76,
    "acName": "Bayana",
    "partNumber": 151,
    "partName": "SIRROND",
    "lat": 26.9059419,
    "lon": 77.2924498
  },
  {
    "partId": 76781,
    "stateCode": "S20",
    "stateName": "Rajasthan",
    "districtCode": "S2009",
    "districtName": "Bharatpur",
    "acNumber": 76,
    "acName": "Bayana",
    "partNumber": 152,
    "partName": "SIRROND",
    "lat": 26.9059419,
    "lon": 77.2924498
  },
  {
    "partId": 76782,
    "stateCode": "S20",
    "stateName": "Rajasthan",
    "districtCode": "S2009",
    "districtName": "Bharatpur",
    "acNumber": 76,
    "acName": "Bayana",
    "partNumber": 153,
    "partName": "MOROULI DANAG",
    "lat": 26.9059419,
    "lon": 77.2924498
  },
  {
    "partId": 76783,
    "stateCode": "S20",
    "stateName": "Rajasthan",
    "districtCode": "S2009",
    "districtName": "Bharatpur",
    "acNumber": 76,
    "acName": "Bayana",
    "partNumber": 154,
    "partName": "BHAWAN PURA",
    "lat": 26.9059419,
    "lon": 77.2924498
  },
  {
    "partId": 76784,
    "stateCode": "S20",
    "stateName": "Rajasthan",
    "districtCode": "S2009",
    "districtName": "Bharatpur",
    "acNumber": 76,
    "acName": "Bayana",
    "partNumber": 155,
    "partName": "BHAWAN PURA",
    "lat": 26.9059419,
    "lon": 77.2924498
  },
  {
    "partId": 76785,
    "stateCode": "S20",
    "stateName": "Rajasthan",
    "districtCode": "S2009",
    "districtName": "Bharatpur",
    "acNumber": 76,
    "acName": "Bayana",
    "partNumber": 156,
    "partName": "JARILA",
    "lat": 26.9537866,
    "lon": 77.3977375
  },
  {
    "partId": 76786,
    "stateCode": "S20",
    "stateName": "Rajasthan",
    "districtCode": "S2009",
    "districtName": "Bharatpur",
    "acNumber": 76,
    "acName": "Bayana",
    "partNumber": 157,
    "partName": "JARILA",
    "lat": 26.9537866,
    "lon": 77.3977375
  },
  {
    "partId": 76787,
    "stateCode": "S20",
    "stateName": "Rajasthan",
    "districtCode": "S2009",
    "districtName": "Bharatpur",
    "acNumber": 76,
    "acName": "Bayana",
    "partNumber": 158,
    "partName": "RUDAVAL",
    "lat": 26.9059419,
    "lon": 77.2924498
  },
  {
    "partId": 76788,
    "stateCode": "S20",
    "stateName": "Rajasthan",
    "districtCode": "S2009",
    "districtName": "Bharatpur",
    "acNumber": 76,
    "acName": "Bayana",
    "partNumber": 159,
    "partName": "RUDAVAL",
    "lat": 26.9059419,
    "lon": 77.2924498
  },
  {
    "partId": 76789,
    "stateCode": "S20",
    "stateName": "Rajasthan",
    "districtCode": "S2009",
    "districtName": "Bharatpur",
    "acNumber": 76,
    "acName": "Bayana",
    "partNumber": 160,
    "partName": "RUDAVAL",
    "lat": 26.9059419,
    "lon": 77.2924498
  },
  {
    "partId": 76790,
    "stateCode": "S20",
    "stateName": "Rajasthan",
    "districtCode": "S2009",
    "districtName": "Bharatpur",
    "acNumber": 76,
    "acName": "Bayana",
    "partNumber": 161,
    "partName": "RUDAVAL",
    "lat": 26.9059419,
    "lon": 77.2924498
  },
  {
    "partId": 76791,
    "stateCode": "S20",
    "stateName": "Rajasthan",
    "districtCode": "S2009",
    "districtName": "Bharatpur",
    "acNumber": 76,
    "acName": "Bayana",
    "partNumber": 162,
    "partName": "RUDAVAL",
    "lat": 26.9059419,
    "lon": 77.2924498
  },
  {
    "partId": 76792,
    "stateCode": "S20",
    "stateName": "Rajasthan",
    "districtCode": "S2009",
    "districtName": "Bharatpur",
    "acNumber": 76,
    "acName": "Bayana",
    "partNumber": 163,
    "partName": "RUDAVAL",
    "lat": 26.9059419,
    "lon": 77.2924498
  },
  {
    "partId": 76793,
    "stateCode": "S20",
    "stateName": "Rajasthan",
    "districtCode": "S2009",
    "districtName": "Bharatpur",
    "acNumber": 76,
    "acName": "Bayana",
    "partNumber": 164,
    "partName": "LANGOTPURA SIRROND",
    "lat": 26.911665202325583,
    "lon": 77.31599660417918
  },
  {
    "partId": 76794,
    "stateCode": "S20",
    "stateName": "Rajasthan",
    "districtCode": "S2009",
    "districtName": "Bharatpur",
    "acNumber": 76,
    "acName": "Bayana",
    "partNumber": 165,
    "partName": "KHEDATHAKUR",
    "lat": 26.9059419,
    "lon": 77.2924498
  },
  {
    "partId": 76795,
    "stateCode": "S20",
    "stateName": "Rajasthan",
    "districtCode": "S2009",
    "districtName": "Bharatpur",
    "acNumber": 76,
    "acName": "Bayana",
    "partNumber": 166,
    "partName": "KHEDA THAKUR",
    "lat": 26.9059419,
    "lon": 77.2924498
  },
  {
    "partId": 76796,
    "stateCode": "S20",
    "stateName": "Rajasthan",
    "districtCode": "S2009",
    "districtName": "Bharatpur",
    "acNumber": 76,
    "acName": "Bayana",
    "partNumber": 167,
    "partName": "KHEDATHAKUR",
    "lat": 26.9059419,
    "lon": 77.2924498
  },
  {
    "partId": 76797,
    "stateCode": "S20",
    "stateName": "Rajasthan",
    "districtCode": "S2009",
    "districtName": "Bharatpur",
    "acNumber": 76,
    "acName": "Bayana",
    "partNumber": 168,
    "partName": "MADA PURA",
    "lat": 26.9059419,
    "lon": 77.2924498
  },
  {
    "partId": 76798,
    "stateCode": "S20",
    "stateName": "Rajasthan",
    "districtCode": "S2009",
    "districtName": "Bharatpur",
    "acNumber": 76,
    "acName": "Bayana",
    "partNumber": 169,
    "partName": "MADA PURA",
    "lat": 26.9059419,
    "lon": 77.2924498
  },
  {
    "partId": 76799,
    "stateCode": "S20",
    "stateName": "Rajasthan",
    "districtCode": "S2009",
    "districtName": "Bharatpur",
    "acNumber": 76,
    "acName": "Bayana",
    "partNumber": 170,
    "partName": "KAKAROU",
    "lat": 26.9059419,
    "lon": 77.2924498
  },
  {
    "partId": 76800,
    "stateCode": "S20",
    "stateName": "Rajasthan",
    "districtCode": "S2009",
    "districtName": "Bharatpur",
    "acNumber": 76,
    "acName": "Bayana",
    "partNumber": 171,
    "partName": "KANJOULI",
    "lat": 26.911665202325583,
    "lon": 77.31599660417918
  },
  {
    "partId": 76801,
    "stateCode": "S20",
    "stateName": "Rajasthan",
    "districtCode": "S2009",
    "districtName": "Bharatpur",
    "acNumber": 76,
    "acName": "Bayana",
    "partNumber": 172,
    "partName": "BOSOULI",
    "lat": 26.9059419,
    "lon": 77.2924498
  },
  {
    "partId": 76900,
    "stateCode": "S20",
    "stateName": "Rajasthan",
    "districtCode": "S2009",
    "districtName": "Bharatpur",
    "acNumber": 76,
    "acName": "Bayana",
    "partNumber": 173,
    "partName": "NAGLA BOSOLI",
    "lat": 26.9059419,
    "lon": 77.2924498
  },
  {
    "partId": 76802,
    "stateCode": "S20",
    "stateName": "Rajasthan",
    "districtCode": "S2009",
    "districtName": "Bharatpur",
    "acNumber": 76,
    "acName": "Bayana",
    "partNumber": 174,
    "partName": "SHRINAGAR",
    "lat": 26.9985152,
    "lon": 77.4146461
  },
  {
    "partId": 76803,
    "stateCode": "S20",
    "stateName": "Rajasthan",
    "districtCode": "S2009",
    "districtName": "Bharatpur",
    "acNumber": 76,
    "acName": "Bayana",
    "partNumber": 175,
    "partName": "MADOULI",
    "lat": 26.9059419,
    "lon": 77.2924498
  },
  {
    "partId": 76804,
    "stateCode": "S20",
    "stateName": "Rajasthan",
    "districtCode": "S2009",
    "districtName": "Bharatpur",
    "acNumber": 76,
    "acName": "Bayana",
    "partNumber": 176,
    "partName": "MADOULI",
    "lat": 26.9059419,
    "lon": 77.2924498
  },
  {
    "partId": 76805,
    "stateCode": "S20",
    "stateName": "Rajasthan",
    "districtCode": "S2009",
    "districtName": "Bharatpur",
    "acNumber": 76,
    "acName": "Bayana",
    "partNumber": 177,
    "partName": "RATAU",
    "lat": 26.9059419,
    "lon": 77.2924498
  },
  {
    "partId": 76806,
    "stateCode": "S20",
    "stateName": "Rajasthan",
    "districtCode": "S2009",
    "districtName": "Bharatpur",
    "acNumber": 76,
    "acName": "Bayana",
    "partNumber": 178,
    "partName": "RASILAPUR",
    "lat": 26.9059419,
    "lon": 77.2924498
  },
  {
    "partId": 76807,
    "stateCode": "S20",
    "stateName": "Rajasthan",
    "districtCode": "S2009",
    "districtName": "Bharatpur",
    "acNumber": 76,
    "acName": "Bayana",
    "partNumber": 179,
    "partName": "NIBHERA",
    "lat": 26.9059419,
    "lon": 77.2924498
  },
  {
    "partId": 76808,
    "stateCode": "S20",
    "stateName": "Rajasthan",
    "districtCode": "S2009",
    "districtName": "Bharatpur",
    "acNumber": 76,
    "acName": "Bayana",
    "partNumber": 180,
    "partName": "NIBHERA",
    "lat": 26.911665202325583,
    "lon": 77.31599660417918
  },
  {
    "partId": 76809,
    "stateCode": "S20",
    "stateName": "Rajasthan",
    "districtCode": "S2009",
    "districtName": "Bharatpur",
    "acNumber": 76,
    "acName": "Bayana",
    "partNumber": 181,
    "partName": "SAIMARA MANPHI",
    "lat": 26.9059419,
    "lon": 77.2924498
  },
  {
    "partId": 76810,
    "stateCode": "S20",
    "stateName": "Rajasthan",
    "districtCode": "S2009",
    "districtName": "Bharatpur",
    "acNumber": 76,
    "acName": "Bayana",
    "partNumber": 182,
    "partName": "GUJAR VALAI",
    "lat": 26.9059419,
    "lon": 77.2924498
  },
  {
    "partId": 76811,
    "stateCode": "S20",
    "stateName": "Rajasthan",
    "districtCode": "S2009",
    "districtName": "Bharatpur",
    "acNumber": 76,
    "acName": "Bayana",
    "partNumber": 183,
    "partName": "DAHINA GAON",
    "lat": 26.9980373,
    "lon": 77.4827098
  },
  {
    "partId": 76812,
    "stateCode": "S20",
    "stateName": "Rajasthan",
    "districtCode": "S2009",
    "districtName": "Bharatpur",
    "acNumber": 76,
    "acName": "Bayana",
    "partNumber": 184,
    "partName": "DAHINA GAON",
    "lat": 26.9980373,
    "lon": 77.4827098
  },
  {
    "partId": 76813,
    "stateCode": "S20",
    "stateName": "Rajasthan",
    "districtCode": "S2009",
    "districtName": "Bharatpur",
    "acNumber": 76,
    "acName": "Bayana",
    "partNumber": 185,
    "partName": "JOUTAROLI",
    "lat": 26.9059419,
    "lon": 77.2924498
  },
  {
    "partId": 76814,
    "stateCode": "S20",
    "stateName": "Rajasthan",
    "districtCode": "S2009",
    "districtName": "Bharatpur",
    "acNumber": 76,
    "acName": "Bayana",
    "partNumber": 186,
    "partName": "JOUTAROLI",
    "lat": 26.9059419,
    "lon": 77.2924498
  },
  {
    "partId": 76815,
    "stateCode": "S20",
    "stateName": "Rajasthan",
    "districtCode": "S2009",
    "districtName": "Bharatpur",
    "acNumber": 76,
    "acName": "Bayana",
    "partNumber": 187,
    "partName": "RAJ PURA",
    "lat": 26.9059419,
    "lon": 77.2924498
  },
  {
    "partId": 76816,
    "stateCode": "S20",
    "stateName": "Rajasthan",
    "districtCode": "S2009",
    "districtName": "Bharatpur",
    "acNumber": 76,
    "acName": "Bayana",
    "partNumber": 188,
    "partName": "LAKHANAPUR",
    "lat": 26.9059419,
    "lon": 77.2924498
  },
  {
    "partId": 76817,
    "stateCode": "S20",
    "stateName": "Rajasthan",
    "districtCode": "S2009",
    "districtName": "Bharatpur",
    "acNumber": 76,
    "acName": "Bayana",
    "partNumber": 189,
    "partName": "LAKHANAPUR",
    "lat": 26.9059419,
    "lon": 77.2924498
  },
  {
    "partId": 76818,
    "stateCode": "S20",
    "stateName": "Rajasthan",
    "districtCode": "S2009",
    "districtName": "Bharatpur",
    "acNumber": 76,
    "acName": "Bayana",
    "partNumber": 190,
    "partName": "MAHALAPUR CHURA",
    "lat": 26.9059419,
    "lon": 77.2924498
  },
  {
    "partId": 76819,
    "stateCode": "S20",
    "stateName": "Rajasthan",
    "districtCode": "S2009",
    "districtName": "Bharatpur",
    "acNumber": 76,
    "acName": "Bayana",
    "partNumber": 191,
    "partName": "MAHALAPUR CHURA",
    "lat": 26.911665202325583,
    "lon": 77.31599660417918
  },
  {
    "partId": 76820,
    "stateCode": "S20",
    "stateName": "Rajasthan",
    "districtCode": "S2009",
    "districtName": "Bharatpur",
    "acNumber": 76,
    "acName": "Bayana",
    "partNumber": 192,
    "partName": "BASAI",
    "lat": 26.9071459,
    "lon": 77.5031376
  },
  {
    "partId": 76821,
    "stateCode": "S20",
    "stateName": "Rajasthan",
    "districtCode": "S2009",
    "districtName": "Bharatpur",
    "acNumber": 76,
    "acName": "Bayana",
    "partNumber": 193,
    "partName": "BASAI",
    "lat": 26.9071459,
    "lon": 77.5031376
  },
  {
    "partId": 76822,
    "stateCode": "S20",
    "stateName": "Rajasthan",
    "districtCode": "S2009",
    "districtName": "Bharatpur",
    "acNumber": 76,
    "acName": "Bayana",
    "partNumber": 194,
    "partName": "ELAU",
    "lat": 26.9138428,
    "lon": 77.5280607
  },
  {
    "partId": 76823,
    "stateCode": "S20",
    "stateName": "Rajasthan",
    "districtCode": "S2009",
    "districtName": "Bharatpur",
    "acNumber": 76,
    "acName": "Bayana",
    "partNumber": 195,
    "partName": "PURA MALAUNI",
    "lat": 26.9059419,
    "lon": 77.2924498
  },
  {
    "partId": 76824,
    "stateCode": "S20",
    "stateName": "Rajasthan",
    "districtCode": "S2009",
    "districtName": "Bharatpur",
    "acNumber": 76,
    "acName": "Bayana",
    "partNumber": 196,
    "partName": "PURA MALAUNI",
    "lat": 26.9059419,
    "lon": 77.2924498
  },
  {
    "partId": 76825,
    "stateCode": "S20",
    "stateName": "Rajasthan",
    "districtCode": "S2009",
    "districtName": "Bharatpur",
    "acNumber": 76,
    "acName": "Bayana",
    "partNumber": 197,
    "partName": "MALOUNI KHURD",
    "lat": 26.9059419,
    "lon": 77.2924498
  },
  {
    "partId": 76826,
    "stateCode": "S20",
    "stateName": "Rajasthan",
    "districtCode": "S2009",
    "districtName": "Bharatpur",
    "acNumber": 76,
    "acName": "Bayana",
    "partNumber": 198,
    "partName": "MALOUNI KHURD",
    "lat": 26.9059419,
    "lon": 77.2924498
  },
  {
    "partId": 76827,
    "stateCode": "S20",
    "stateName": "Rajasthan",
    "districtCode": "S2009",
    "districtName": "Bharatpur",
    "acNumber": 76,
    "acName": "Bayana",
    "partNumber": 199,
    "partName": "SAJJANAVAS",
    "lat": 26.9059419,
    "lon": 77.2924498
  },
  {
    "partId": 76828,
    "stateCode": "S20",
    "stateName": "Rajasthan",
    "districtCode": "S2009",
    "districtName": "Bharatpur",
    "acNumber": 76,
    "acName": "Bayana",
    "partNumber": 200,
    "partName": "SAJJANAVAS",
    "lat": 26.911665202325583,
    "lon": 77.31599660417918
  },
  {
    "partId": 76829,
    "stateCode": "S20",
    "stateName": "Rajasthan",
    "districtCode": "S2009",
    "districtName": "Bharatpur",
    "acNumber": 76,
    "acName": "Bayana",
    "partNumber": 201,
    "partName": "DHANA",
    "lat": 26.9059419,
    "lon": 77.2924498
  },
  {
    "partId": 76830,
    "stateCode": "S20",
    "stateName": "Rajasthan",
    "districtCode": "S2009",
    "districtName": "Bharatpur",
    "acNumber": 76,
    "acName": "Bayana",
    "partNumber": 202,
    "partName": "KHEDALI",
    "lat": 26.9059419,
    "lon": 77.2924498
  },
  {
    "partId": 76831,
    "stateCode": "S20",
    "stateName": "Rajasthan",
    "districtCode": "S2009",
    "districtName": "Bharatpur",
    "acNumber": 76,
    "acName": "Bayana",
    "partNumber": 203,
    "partName": "NAGLA KHAR",
    "lat": 26.9346965,
    "lon": 77.5165701
  },
  {
    "partId": 76901,
    "stateCode": "S20",
    "stateName": "Rajasthan",
    "districtCode": "S2009",
    "districtName": "Bharatpur",
    "acNumber": 76,
    "acName": "Bayana",
    "partNumber": 204,
    "partName": "TIGHARRA",
    "lat": 26.9135462,
    "lon": 77.4912608
  },
  {
    "partId": 76832,
    "stateCode": "S20",
    "stateName": "Rajasthan",
    "districtCode": "S2009",
    "districtName": "Bharatpur",
    "acNumber": 76,
    "acName": "Bayana",
    "partNumber": 205,
    "partName": "BANSI PAHADAPUR",
    "lat": 26.9059419,
    "lon": 77.2924498
  },
  {
    "partId": 76833,
    "stateCode": "S20",
    "stateName": "Rajasthan",
    "districtCode": "S2009",
    "districtName": "Bharatpur",
    "acNumber": 76,
    "acName": "Bayana",
    "partNumber": 206,
    "partName": "BANSI PAHADAPUR",
    "lat": 26.9059419,
    "lon": 77.2924498
  },
  {
    "partId": 76834,
    "stateCode": "S20",
    "stateName": "Rajasthan",
    "districtCode": "S2009",
    "districtName": "Bharatpur",
    "acNumber": 76,
    "acName": "Bayana",
    "partNumber": 207,
    "partName": "JATAMASI",
    "lat": 26.971554,
    "lon": 77.5197243
  },
  {
    "partId": 76835,
    "stateCode": "S20",
    "stateName": "Rajasthan",
    "districtCode": "S2009",
    "districtName": "Bharatpur",
    "acNumber": 76,
    "acName": "Bayana",
    "partNumber": 208,
    "partName": "JATAMASI",
    "lat": 26.911665202325583,
    "lon": 77.31599660417918
  },
  {
    "partId": 76836,
    "stateCode": "S20",
    "stateName": "Rajasthan",
    "districtCode": "S2009",
    "districtName": "Bharatpur",
    "acNumber": 76,
    "acName": "Bayana",
    "partNumber": 209,
    "partName": "BIRU",
    "lat": 26.911665202325583,
    "lon": 77.31599660417918
  },
  {
    "partId": 76837,
    "stateCode": "S20",
    "stateName": "Rajasthan",
    "districtCode": "S2009",
    "districtName": "Bharatpur",
    "acNumber": 76,
    "acName": "Bayana",
    "partNumber": 210,
    "partName": "NAGALA JATAMASI",
    "lat": 26.976985,
    "lon": 77.5224924
  },
  {
    "partId": 76838,
    "stateCode": "S20",
    "stateName": "Rajasthan",
    "districtCode": "S2009",
    "districtName": "Bharatpur",
    "acNumber": 76,
    "acName": "Bayana",
    "partNumber": 211,
    "partName": "NAGALA JATAMASI",
    "lat": 26.976985,
    "lon": 77.5224924
  },
  {
    "partId": 76839,
    "stateCode": "S20",
    "stateName": "Rajasthan",
    "districtCode": "S2009",
    "districtName": "Bharatpur",
    "acNumber": 76,
    "acName": "Bayana",
    "partNumber": 212,
    "partName": "MAHALAPUR KACHHI",
    "lat": 26.9059419,
    "lon": 77.2924498
  },
  {
    "partId": 76840,
    "stateCode": "S20",
    "stateName": "Rajasthan",
    "districtCode": "S2009",
    "districtName": "Bharatpur",
    "acNumber": 76,
    "acName": "Bayana",
    "partNumber": 213,
    "partName": "MAHALAPUR KACHHI",
    "lat": 26.9059419,
    "lon": 77.2924498
  },
  {
    "partId": 76841,
    "stateCode": "S20",
    "stateName": "Rajasthan",
    "districtCode": "S2009",
    "districtName": "Bharatpur",
    "acNumber": 76,
    "acName": "Bayana",
    "partNumber": 214,
    "partName": "KANDOULI",
    "lat": 26.9059419,
    "lon": 77.2924498
  },
  {
    "partId": 76842,
    "stateCode": "S20",
    "stateName": "Rajasthan",
    "districtCode": "S2009",
    "districtName": "Bharatpur",
    "acNumber": 76,
    "acName": "Bayana",
    "partNumber": 215,
    "partName": "GHATA",
    "lat": 27.0138669,
    "lon": 77.5332427
  },
  {
    "partId": 76843,
    "stateCode": "S20",
    "stateName": "Rajasthan",
    "districtCode": "S2009",
    "districtName": "Bharatpur",
    "acNumber": 76,
    "acName": "Bayana",
    "partNumber": 216,
    "partName": "BOKOLI",
    "lat": 26.9059419,
    "lon": 77.2924498
  },
  {
    "partId": 76844,
    "stateCode": "S20",
    "stateName": "Rajasthan",
    "districtCode": "S2009",
    "districtName": "Bharatpur",
    "acNumber": 76,
    "acName": "Bayana",
    "partNumber": 217,
    "partName": "ODEL  JAT",
    "lat": 27.0055318,
    "lon": 77.5447225
  },
  {
    "partId": 76845,
    "stateCode": "S20",
    "stateName": "Rajasthan",
    "districtCode": "S2009",
    "districtName": "Bharatpur",
    "acNumber": 76,
    "acName": "Bayana",
    "partNumber": 218,
    "partName": "BINAU",
    "lat": 26.9059419,
    "lon": 77.2924498
  },
  {
    "partId": 76846,
    "stateCode": "S20",
    "stateName": "Rajasthan",
    "districtCode": "S2009",
    "districtName": "Bharatpur",
    "acNumber": 76,
    "acName": "Bayana",
    "partNumber": 219,
    "partName": "BINAU",
    "lat": 26.9059419,
    "lon": 77.2924498
  },
  {
    "partId": 76847,
    "stateCode": "S20",
    "stateName": "Rajasthan",
    "districtCode": "S2009",
    "districtName": "Bharatpur",
    "acNumber": 76,
    "acName": "Bayana",
    "partNumber": 220,
    "partName": "SIRASOUDA",
    "lat": 26.9059419,
    "lon": 77.2924498
  },
  {
    "partId": 76848,
    "stateCode": "S20",
    "stateName": "Rajasthan",
    "districtCode": "S2009",
    "districtName": "Bharatpur",
    "acNumber": 76,
    "acName": "Bayana",
    "partNumber": 221,
    "partName": "SIRASOUDA",
    "lat": 26.9059419,
    "lon": 77.2924498
  },
  {
    "partId": 76849,
    "stateCode": "S20",
    "stateName": "Rajasthan",
    "districtCode": "S2009",
    "districtName": "Bharatpur",
    "acNumber": 76,
    "acName": "Bayana",
    "partNumber": 222,
    "partName": "NAGALA SAMAHAD",
    "lat": 26.9059419,
    "lon": 77.2924498
  },
  {
    "partId": 76850,
    "stateCode": "S20",
    "stateName": "Rajasthan",
    "districtCode": "S2009",
    "districtName": "Bharatpur",
    "acNumber": 76,
    "acName": "Bayana",
    "partNumber": 223,
    "partName": "SAMAHAD",
    "lat": 26.9697563,
    "lon": 77.5590026
  },
  {
    "partId": 76851,
    "stateCode": "S20",
    "stateName": "Rajasthan",
    "districtCode": "S2009",
    "districtName": "Bharatpur",
    "acNumber": 76,
    "acName": "Bayana",
    "partNumber": 224,
    "partName": "NOUHARADA",
    "lat": 26.9059419,
    "lon": 77.2924498
  },
  {
    "partId": 76852,
    "stateCode": "S20",
    "stateName": "Rajasthan",
    "districtCode": "S2009",
    "districtName": "Bharatpur",
    "acNumber": 76,
    "acName": "Bayana",
    "partNumber": 225,
    "partName": "CHAK SAMARI",
    "lat": 26.9461069,
    "lon": 77.59812
  },
  {
    "partId": 76853,
    "stateCode": "S20",
    "stateName": "Rajasthan",
    "districtCode": "S2009",
    "districtName": "Bharatpur",
    "acNumber": 76,
    "acName": "Bayana",
    "partNumber": 226,
    "partName": "SAMARI",
    "lat": 26.9585777,
    "lon": 77.6014781
  },
  {
    "partId": 76854,
    "stateCode": "S20",
    "stateName": "Rajasthan",
    "districtCode": "S2009",
    "districtName": "Bharatpur",
    "acNumber": 76,
    "acName": "Bayana",
    "partNumber": 227,
    "partName": "KHERIYA  JAT",
    "lat": 26.9059419,
    "lon": 77.2924498
  },
  {
    "partId": 76855,
    "stateCode": "S20",
    "stateName": "Rajasthan",
    "districtCode": "S2009",
    "districtName": "Bharatpur",
    "acNumber": 76,
    "acName": "Bayana",
    "partNumber": 228,
    "partName": "SHRINAGAR RUNDH RUPAVAS",
    "lat": 26.9059419,
    "lon": 77.2924498
  },
  {
    "partId": 76902,
    "stateCode": "S20",
    "stateName": "Rajasthan",
    "districtCode": "S2009",
    "districtName": "Bharatpur",
    "acNumber": 76,
    "acName": "Bayana",
    "partNumber": 229,
    "partName": "RAMNAGAR",
    "lat": 26.9725388,
    "lon": 77.6052976
  },
  {
    "partId": 76856,
    "stateCode": "S20",
    "stateName": "Rajasthan",
    "districtCode": "S2009",
    "districtName": "Bharatpur",
    "acNumber": 76,
    "acName": "Bayana",
    "partNumber": 230,
    "partName": "SHRINAGAR RUNDH RUPAVAS",
    "lat": 26.9059419,
    "lon": 77.2924498
  },
  {
    "partId": 76857,
    "stateCode": "S20",
    "stateName": "Rajasthan",
    "districtCode": "S2009",
    "districtName": "Bharatpur",
    "acNumber": 76,
    "acName": "Bayana",
    "partNumber": 231,
    "partName": "SHRINAGAR RUNDH RUPAVAS",
    "lat": 26.9059419,
    "lon": 77.2924498
  },
  {
    "partId": 76858,
    "stateCode": "S20",
    "stateName": "Rajasthan",
    "districtCode": "S2009",
    "districtName": "Bharatpur",
    "acNumber": 76,
    "acName": "Bayana",
    "partNumber": 232,
    "partName": "RUPAVAS",
    "lat": 26.9059419,
    "lon": 77.2924498
  },
  {
    "partId": 76859,
    "stateCode": "S20",
    "stateName": "Rajasthan",
    "districtCode": "S2009",
    "districtName": "Bharatpur",
    "acNumber": 76,
    "acName": "Bayana",
    "partNumber": 233,
    "partName": "RUPAVAS",
    "lat": 26.911665202325583,
    "lon": 77.31599660417918
  },
  {
    "partId": 76860,
    "stateCode": "S20",
    "stateName": "Rajasthan",
    "districtCode": "S2009",
    "districtName": "Bharatpur",
    "acNumber": 76,
    "acName": "Bayana",
    "partNumber": 234,
    "partName": "RUPAVAS",
    "lat": 26.9059419,
    "lon": 77.2924498
  },
  {
    "partId": 76861,
    "stateCode": "S20",
    "stateName": "Rajasthan",
    "districtCode": "S2009",
    "districtName": "Bharatpur",
    "acNumber": 76,
    "acName": "Bayana",
    "partNumber": 235,
    "partName": "RUPAVAS",
    "lat": 26.9059419,
    "lon": 77.2924498
  },
  {
    "partId": 76862,
    "stateCode": "S20",
    "stateName": "Rajasthan",
    "districtCode": "S2009",
    "districtName": "Bharatpur",
    "acNumber": 76,
    "acName": "Bayana",
    "partNumber": 236,
    "partName": "RUPAVAS",
    "lat": 26.9059419,
    "lon": 77.2924498
  },
  {
    "partId": 76863,
    "stateCode": "S20",
    "stateName": "Rajasthan",
    "districtCode": "S2009",
    "districtName": "Bharatpur",
    "acNumber": 76,
    "acName": "Bayana",
    "partNumber": 237,
    "partName": "RUPAVAS",
    "lat": 26.9059419,
    "lon": 77.2924498
  },
  {
    "partId": 76864,
    "stateCode": "S20",
    "stateName": "Rajasthan",
    "districtCode": "S2009",
    "districtName": "Bharatpur",
    "acNumber": 76,
    "acName": "Bayana",
    "partNumber": 238,
    "partName": "NAGLA KACHERA",
    "lat": 26.9059419,
    "lon": 77.2924498
  },
  {
    "partId": 76865,
    "stateCode": "S20",
    "stateName": "Rajasthan",
    "districtCode": "S2009",
    "districtName": "Bharatpur",
    "acNumber": 76,
    "acName": "Bayana",
    "partNumber": 239,
    "partName": "RUPAVAS",
    "lat": 26.9059419,
    "lon": 77.2924498
  },
  {
    "partId": 76866,
    "stateCode": "S20",
    "stateName": "Rajasthan",
    "districtCode": "S2009",
    "districtName": "Bharatpur",
    "acNumber": 76,
    "acName": "Bayana",
    "partNumber": 240,
    "partName": "NAGLA KACHERA",
    "lat": 26.9059419,
    "lon": 77.2924498
  },
  {
    "partId": 76867,
    "stateCode": "S20",
    "stateName": "Rajasthan",
    "districtCode": "S2009",
    "districtName": "Bharatpur",
    "acNumber": 76,
    "acName": "Bayana",
    "partNumber": 241,
    "partName": "RUPAVAS",
    "lat": 26.9059419,
    "lon": 77.2924498
  },
  {
    "partId": 76868,
    "stateCode": "S20",
    "stateName": "Rajasthan",
    "districtCode": "S2009",
    "districtName": "Bharatpur",
    "acNumber": 76,
    "acName": "Bayana",
    "partNumber": 242,
    "partName": "DOURADA",
    "lat": 26.9059419,
    "lon": 77.2924498
  },
  {
    "partId": 76869,
    "stateCode": "S20",
    "stateName": "Rajasthan",
    "districtCode": "S2009",
    "districtName": "Bharatpur",
    "acNumber": 76,
    "acName": "Bayana",
    "partNumber": 243,
    "partName": "DOURADA",
    "lat": 26.9059419,
    "lon": 77.2924498
  },
  {
    "partId": 76870,
    "stateCode": "S20",
    "stateName": "Rajasthan",
    "districtCode": "S2009",
    "districtName": "Bharatpur",
    "acNumber": 76,
    "acName": "Bayana",
    "partNumber": 244,
    "partName": "ODELAGADDI",
    "lat": 26.9059419,
    "lon": 77.2924498
  },
  {
    "partId": 76871,
    "stateCode": "S20",
    "stateName": "Rajasthan",
    "districtCode": "S2009",
    "districtName": "Bharatpur",
    "acNumber": 76,
    "acName": "Bayana",
    "partNumber": 245,
    "partName": "ODELAGADDI",
    "lat": 26.9059419,
    "lon": 77.2924498
  },
  {
    "partId": 76872,
    "stateCode": "S20",
    "stateName": "Rajasthan",
    "districtCode": "S2009",
    "districtName": "Bharatpur",
    "acNumber": 76,
    "acName": "Bayana",
    "partNumber": 246,
    "partName": "BARABAR",
    "lat": 26.9059419,
    "lon": 77.2924498
  },
  {
    "partId": 76873,
    "stateCode": "S20",
    "stateName": "Rajasthan",
    "districtCode": "S2009",
    "districtName": "Bharatpur",
    "acNumber": 76,
    "acName": "Bayana",
    "partNumber": 247,
    "partName": "SINGHAVALI",
    "lat": 26.9059419,
    "lon": 77.2924498
  },
  {
    "partId": 76874,
    "stateCode": "S20",
    "stateName": "Rajasthan",
    "districtCode": "S2009",
    "districtName": "Bharatpur",
    "acNumber": 76,
    "acName": "Bayana",
    "partNumber": 248,
    "partName": "SINGHAVALI",
    "lat": 26.9059419,
    "lon": 77.2924498
  },
  {
    "partId": 76875,
    "stateCode": "S20",
    "stateName": "Rajasthan",
    "districtCode": "S2009",
    "districtName": "Bharatpur",
    "acNumber": 76,
    "acName": "Bayana",
    "partNumber": 249,
    "partName": "CHAIKORA",
    "lat": 26.9059419,
    "lon": 77.2924498
  },
  {
    "partId": 76876,
    "stateCode": "S20",
    "stateName": "Rajasthan",
    "districtCode": "S2009",
    "districtName": "Bharatpur",
    "acNumber": 76,
    "acName": "Bayana",
    "partNumber": 250,
    "partName": "CHAIKORA",
    "lat": 26.9059419,
    "lon": 77.2924498
  },
  {
    "partId": 76903,
    "stateCode": "S20",
    "stateName": "Rajasthan",
    "districtCode": "S2009",
    "districtName": "Bharatpur",
    "acNumber": 76,
    "acName": "Bayana",
    "partNumber": 251,
    "partName": "NAGLA KHARGA",
    "lat": 26.9059419,
    "lon": 77.2924498
  },
  {
    "partId": 76877,
    "stateCode": "S20",
    "stateName": "Rajasthan",
    "districtCode": "S2009",
    "districtName": "Bharatpur",
    "acNumber": 76,
    "acName": "Bayana",
    "partNumber": 252,
    "partName": "KHANASURAJAPUR",
    "lat": 26.9059419,
    "lon": 77.2924498
  },
  {
    "partId": 76878,
    "stateCode": "S20",
    "stateName": "Rajasthan",
    "districtCode": "S2009",
    "districtName": "Bharatpur",
    "acNumber": 76,
    "acName": "Bayana",
    "partNumber": 253,
    "partName": "KHAN SURAJAPUR",
    "lat": 26.9059419,
    "lon": 77.2924498
  },
  {
    "partId": 76879,
    "stateCode": "S20",
    "stateName": "Rajasthan",
    "districtCode": "S2009",
    "districtName": "Bharatpur",
    "acNumber": 76,
    "acName": "Bayana",
    "partNumber": 254,
    "partName": "KHANASURAJAPUR",
    "lat": 26.9059419,
    "lon": 77.2924498
  },
  {
    "partId": 76880,
    "stateCode": "S20",
    "stateName": "Rajasthan",
    "districtCode": "S2009",
    "districtName": "Bharatpur",
    "acNumber": 76,
    "acName": "Bayana",
    "partNumber": 255,
    "partName": "GHATOULI",
    "lat": 26.9059419,
    "lon": 77.2924498
  },
  {
    "partId": 76881,
    "stateCode": "S20",
    "stateName": "Rajasthan",
    "districtCode": "S2009",
    "districtName": "Bharatpur",
    "acNumber": 76,
    "acName": "Bayana",
    "partNumber": 256,
    "partName": "IBRAHIMAPUR",
    "lat": 26.9059419,
    "lon": 77.2924498
  },
  {
    "partId": 76882,
    "stateCode": "S20",
    "stateName": "Rajasthan",
    "districtCode": "S2009",
    "districtName": "Bharatpur",
    "acNumber": 76,
    "acName": "Bayana",
    "partNumber": 257,
    "partName": "IBRAHIMAPUR",
    "lat": 26.9059419,
    "lon": 77.2924498
  },
  {
    "partId": 76883,
    "stateCode": "S20",
    "stateName": "Rajasthan",
    "districtCode": "S2009",
    "districtName": "Bharatpur",
    "acNumber": 76,
    "acName": "Bayana",
    "partNumber": 258,
    "partName": "IBRAHIMAPUR",
    "lat": 26.9059419,
    "lon": 77.2924498
  },
  {
    "partId": 76884,
    "stateCode": "S20",
    "stateName": "Rajasthan",
    "districtCode": "S2009",
    "districtName": "Bharatpur",
    "acNumber": 76,
    "acName": "Bayana",
    "partNumber": 259,
    "partName": "SHAKKARAPUR",
    "lat": 26.9059419,
    "lon": 77.2924498
  },
  {
    "partId": 76885,
    "stateCode": "S20",
    "stateName": "Rajasthan",
    "districtCode": "S2009",
    "districtName": "Bharatpur",
    "acNumber": 76,
    "acName": "Bayana",
    "partNumber": 260,
    "partName": "JASWANT NAGAR",
    "lat": 27.206181899999997,
    "lon": 77.47509657822768
  },
  {
    "partId": 76886,
    "stateCode": "S20",
    "stateName": "Rajasthan",
    "districtCode": "S2009",
    "districtName": "Bharatpur",
    "acNumber": 76,
    "acName": "Bayana",
    "partNumber": 261,
    "partName": "PANDARI",
    "lat": 26.911665202325583,
    "lon": 77.31599660417918
  },
  {
    "partId": 76887,
    "stateCode": "S20",
    "stateName": "Rajasthan",
    "districtCode": "S2009",
    "districtName": "Bharatpur",
    "acNumber": 76,
    "acName": "Bayana",
    "partNumber": 262,
    "partName": "DEVARI",
    "lat": 26.9059419,
    "lon": 77.2924498
  },
  {
    "partId": 76888,
    "stateCode": "S20",
    "stateName": "Rajasthan",
    "districtCode": "S2009",
    "districtName": "Bharatpur",
    "acNumber": 76,
    "acName": "Bayana",
    "partNumber": 263,
    "partName": "NAYA GAON",
    "lat": 27.0331348,
    "lon": 77.6842832
  },
  {
    "partId": 76889,
    "stateCode": "S20",
    "stateName": "Rajasthan",
    "districtCode": "S2009",
    "districtName": "Bharatpur",
    "acNumber": 76,
    "acName": "Bayana",
    "partNumber": 264,
    "partName": "NAYA GAON",
    "lat": 27.0331348,
    "lon": 77.6842832
  },
  {
    "partId": 76890,
    "stateCode": "S20",
    "stateName": "Rajasthan",
    "districtCode": "S2009",
    "districtName": "Bharatpur",
    "acNumber": 76,
    "acName": "Bayana",
    "partNumber": 265,
    "partName": "KARAI",
    "lat": 27.0101773,
    "lon": 77.6872229
  },
  {
    "partId": 76891,
    "stateCode": "S20",
    "stateName": "Rajasthan",
    "districtCode": "S2009",
    "districtName": "Bharatpur",
    "acNumber": 76,
    "acName": "Bayana",
    "partNumber": 266,
    "partName": "MAIRATHA",
    "lat": 26.9059419,
    "lon": 77.2924498
  },
  {
    "partId": 76892,
    "stateCode": "S20",
    "stateName": "Rajasthan",
    "districtCode": "S2009",
    "districtName": "Bharatpur",
    "acNumber": 76,
    "acName": "Bayana",
    "partNumber": 267,
    "partName": "MOROULI DAHAR",
    "lat": 26.9059419,
    "lon": 77.2924498
  },
  {
    "partId": 76893,
    "stateCode": "S20",
    "stateName": "Rajasthan",
    "districtCode": "S2009",
    "districtName": "Bharatpur",
    "acNumber": 76,
    "acName": "Bayana",
    "partNumber": 268,
    "partName": "MILASAVAN",
    "lat": 26.9059419,
    "lon": 77.2924498
  },
  {
    "partId": 76894,
    "stateCode": "S20",
    "stateName": "Rajasthan",
    "districtCode": "S2009",
    "districtName": "Bharatpur",
    "acNumber": 76,
    "acName": "Bayana",
    "partNumber": 269,
    "partName": "MILASAVAN",
    "lat": 26.9059419,
    "lon": 77.2924498
  },
  {
    "partId": 76895,
    "stateCode": "S20",
    "stateName": "Rajasthan",
    "districtCode": "S2009",
    "districtName": "Bharatpur",
    "acNumber": 76,
    "acName": "Bayana",
    "partNumber": 270,
    "partName": "MILASAVAN",
    "lat": 26.9059419,
    "lon": 77.2924498
  },
  {
    "partId": 76896,
    "stateCode": "S20",
    "stateName": "Rajasthan",
    "districtCode": "S2009",
    "districtName": "Bharatpur",
    "acNumber": 76,
    "acName": "Bayana",
    "partNumber": 271,
    "partName": "KHEDIYA BILLOCH",
    "lat": 26.9059419,
    "lon": 77.2924498
  },
  {
    "partId": 76386,
    "stateCode": "S20",
    "stateName": "Rajasthan",
    "districtCode": "S2009",
    "districtName": "Bharatpur",
    "acNumber": 73,
    "acName": "Bharatpur",
    "partNumber": 1,
    "partName": "NAGALA HAR CHAND",
    "lat": 27.2154447,
    "lon": 77.4986962
  },
  {
    "partId": 76387,
    "stateCode": "S20",
    "stateName": "Rajasthan",
    "districtCode": "S2009",
    "districtName": "Bharatpur",
    "acNumber": 73,
    "acName": "Bharatpur",
    "partNumber": 2,
    "partName": "MAHANGAYA",
    "lat": 27.2154447,
    "lon": 77.4986962
  },
  {
    "partId": 76388,
    "stateCode": "S20",
    "stateName": "Rajasthan",
    "districtCode": "S2009",
    "districtName": "Bharatpur",
    "acNumber": 73,
    "acName": "Bharatpur",
    "partNumber": 3,
    "partName": "MOUROLI KALA",
    "lat": 27.2154447,
    "lon": 77.4986962
  },
  {
    "partId": 76389,
    "stateCode": "S20",
    "stateName": "Rajasthan",
    "districtCode": "S2009",
    "districtName": "Bharatpur",
    "acNumber": 73,
    "acName": "Bharatpur",
    "partNumber": 4,
    "partName": "MOUROLI KALA",
    "lat": 27.2154447,
    "lon": 77.4986962
  },
  {
    "partId": 76390,
    "stateCode": "S20",
    "stateName": "Rajasthan",
    "districtCode": "S2009",
    "districtName": "Bharatpur",
    "acNumber": 73,
    "acName": "Bharatpur",
    "partNumber": 5,
    "partName": "MOUROLI KHURD",
    "lat": 27.2154447,
    "lon": 77.4986962
  },
  {
    "partId": 76391,
    "stateCode": "S20",
    "stateName": "Rajasthan",
    "districtCode": "S2009",
    "districtName": "Bharatpur",
    "acNumber": 73,
    "acName": "Bharatpur",
    "partNumber": 6,
    "partName": "TAMAROULI",
    "lat": 27.2154447,
    "lon": 77.4986962
  },
  {
    "partId": 76392,
    "stateCode": "S20",
    "stateName": "Rajasthan",
    "districtCode": "S2009",
    "districtName": "Bharatpur",
    "acNumber": 73,
    "acName": "Bharatpur",
    "partNumber": 7,
    "partName": "SAHANAVALI",
    "lat": 27.3051299,
    "lon": 77.540195
  },
  {
    "partId": 76393,
    "stateCode": "S20",
    "stateName": "Rajasthan",
    "districtCode": "S2009",
    "districtName": "Bharatpur",
    "acNumber": 73,
    "acName": "Bharatpur",
    "partNumber": 8,
    "partName": "DHOURAMUI",
    "lat": 27.2154447,
    "lon": 77.4986962
  },
  {
    "partId": 76394,
    "stateCode": "S20",
    "stateName": "Rajasthan",
    "districtCode": "S2009",
    "districtName": "Bharatpur",
    "acNumber": 73,
    "acName": "Bharatpur",
    "partNumber": 9,
    "partName": "DHOURAMUI",
    "lat": 27.21342478591549,
    "lon": 77.50331555384054
  },
  {
    "partId": 76395,
    "stateCode": "S20",
    "stateName": "Rajasthan",
    "districtCode": "S2009",
    "districtName": "Bharatpur",
    "acNumber": 73,
    "acName": "Bharatpur",
    "partNumber": 10,
    "partName": "SAINTHARA",
    "lat": 27.2154447,
    "lon": 77.4986962
  },
  {
    "partId": 76396,
    "stateCode": "S20",
    "stateName": "Rajasthan",
    "districtCode": "S2009",
    "districtName": "Bharatpur",
    "acNumber": 73,
    "acName": "Bharatpur",
    "partNumber": 11,
    "partName": "NAGALA BILOTHI",
    "lat": 27.2154447,
    "lon": 77.4986962
  },
  {
    "partId": 76397,
    "stateCode": "S20",
    "stateName": "Rajasthan",
    "districtCode": "S2009",
    "districtName": "Bharatpur",
    "acNumber": 73,
    "acName": "Bharatpur",
    "partNumber": 12,
    "partName": "BILOTHI",
    "lat": 27.3052634,
    "lon": 77.5789475
  },
  {
    "partId": 76398,
    "stateCode": "S20",
    "stateName": "Rajasthan",
    "districtCode": "S2009",
    "districtName": "Bharatpur",
    "acNumber": 73,
    "acName": "Bharatpur",
    "partNumber": 13,
    "partName": "KAROUTH",
    "lat": 27.2154447,
    "lon": 77.4986962
  },
  {
    "partId": 76399,
    "stateCode": "S20",
    "stateName": "Rajasthan",
    "districtCode": "S2009",
    "districtName": "Bharatpur",
    "acNumber": 73,
    "acName": "Bharatpur",
    "partNumber": 14,
    "partName": "BAGHAI",
    "lat": 27.2873583,
    "lon": 77.6111126
  },
  {
    "partId": 76400,
    "stateCode": "S20",
    "stateName": "Rajasthan",
    "districtCode": "S2009",
    "districtName": "Bharatpur",
    "acNumber": 73,
    "acName": "Bharatpur",
    "partNumber": 15,
    "partName": "KOLI PURA",
    "lat": 27.2154447,
    "lon": 77.4986962
  },
  {
    "partId": 76401,
    "stateCode": "S20",
    "stateName": "Rajasthan",
    "districtCode": "S2009",
    "districtName": "Bharatpur",
    "acNumber": 73,
    "acName": "Bharatpur",
    "partNumber": 16,
    "partName": "JATOULI RATABHAN",
    "lat": 27.21342478591549,
    "lon": 77.50331555384054
  },
  {
    "partId": 76402,
    "stateCode": "S20",
    "stateName": "Rajasthan",
    "districtCode": "S2009",
    "districtName": "Bharatpur",
    "acNumber": 73,
    "acName": "Bharatpur",
    "partNumber": 17,
    "partName": "JATOULI RATHABHAN",
    "lat": 27.21342478591549,
    "lon": 77.50331555384054
  },
  {
    "partId": 76403,
    "stateCode": "S20",
    "stateName": "Rajasthan",
    "districtCode": "S2009",
    "districtName": "Bharatpur",
    "acNumber": 73,
    "acName": "Bharatpur",
    "partNumber": 18,
    "partName": "NAGLA HATHAINI",
    "lat": 27.2780899,
    "lon": 77.5689268
  },
  {
    "partId": 76404,
    "stateCode": "S20",
    "stateName": "Rajasthan",
    "districtCode": "S2009",
    "districtName": "Bharatpur",
    "acNumber": 73,
    "acName": "Bharatpur",
    "partNumber": 19,
    "partName": "HATHAINI",
    "lat": 27.2677146,
    "lon": 77.5648069
  },
  {
    "partId": 76405,
    "stateCode": "S20",
    "stateName": "Rajasthan",
    "districtCode": "S2009",
    "districtName": "Bharatpur",
    "acNumber": 73,
    "acName": "Bharatpur",
    "partNumber": 20,
    "partName": "HATHAINI",
    "lat": 27.2677146,
    "lon": 77.5648069
  },
  {
    "partId": 76406,
    "stateCode": "S20",
    "stateName": "Rajasthan",
    "districtCode": "S2009",
    "districtName": "Bharatpur",
    "acNumber": 73,
    "acName": "Bharatpur",
    "partNumber": 21,
    "partName": "CHAR THOK, JAGHINA",
    "lat": 27.2154447,
    "lon": 77.4986962
  },
  {
    "partId": 76407,
    "stateCode": "S20",
    "stateName": "Rajasthan",
    "districtCode": "S2009",
    "districtName": "Bharatpur",
    "acNumber": 73,
    "acName": "Bharatpur",
    "partNumber": 22,
    "partName": "Laghupatti, thin thok, Bhavanpura Jaghina",
    "lat": 27.2154447,
    "lon": 77.4986962
  },
  {
    "partId": 76408,
    "stateCode": "S20",
    "stateName": "Rajasthan",
    "districtCode": "S2009",
    "districtName": "Bharatpur",
    "acNumber": 73,
    "acName": "Bharatpur",
    "partNumber": 23,
    "partName": "CHAR THAUK, PARASUA THAUK, JAGHINA",
    "lat": 27.2154447,
    "lon": 77.4986962
  },
  {
    "partId": 76409,
    "stateCode": "S20",
    "stateName": "Rajasthan",
    "districtCode": "S2009",
    "districtName": "Bharatpur",
    "acNumber": 73,
    "acName": "Bharatpur",
    "partNumber": 24,
    "partName": "TIN THAUK",
    "lat": 27.2154447,
    "lon": 77.4986962
  },
  {
    "partId": 76410,
    "stateCode": "S20",
    "stateName": "Rajasthan",
    "districtCode": "S2009",
    "districtName": "Bharatpur",
    "acNumber": 73,
    "acName": "Bharatpur",
    "partNumber": 25,
    "partName": "HOLI MOHALLA, TIN THAUK JAGHINA",
    "lat": 27.2154447,
    "lon": 77.4986962
  },
  {
    "partId": 76411,
    "stateCode": "S20",
    "stateName": "Rajasthan",
    "districtCode": "S2009",
    "districtName": "Bharatpur",
    "acNumber": 73,
    "acName": "Bharatpur",
    "partNumber": 26,
    "partName": "JAGHINA",
    "lat": 27.2626792,
    "lon": 77.5276851
  },
  {
    "partId": 76412,
    "stateCode": "S20",
    "stateName": "Rajasthan",
    "districtCode": "S2009",
    "districtName": "Bharatpur",
    "acNumber": 73,
    "acName": "Bharatpur",
    "partNumber": 27,
    "partName": "JAGHINA",
    "lat": 27.2626792,
    "lon": 77.5276851
  },
  {
    "partId": 76413,
    "stateCode": "S20",
    "stateName": "Rajasthan",
    "districtCode": "S2009",
    "districtName": "Bharatpur",
    "acNumber": 73,
    "acName": "Bharatpur",
    "partNumber": 28,
    "partName": "TUHIYA",
    "lat": 27.2154447,
    "lon": 77.4986962
  },
  {
    "partId": 76414,
    "stateCode": "S20",
    "stateName": "Rajasthan",
    "districtCode": "S2009",
    "districtName": "Bharatpur",
    "acNumber": 73,
    "acName": "Bharatpur",
    "partNumber": 29,
    "partName": "TUHIYA",
    "lat": 27.2615251,
    "lon": 77.4874949
  },
  {
    "partId": 76415,
    "stateCode": "S20",
    "stateName": "Rajasthan",
    "districtCode": "S2009",
    "districtName": "Bharatpur",
    "acNumber": 73,
    "acName": "Bharatpur",
    "partNumber": 30,
    "partName": "TUHIYA",
    "lat": 27.2615251,
    "lon": 77.4874949
  },
  {
    "partId": 76416,
    "stateCode": "S20",
    "stateName": "Rajasthan",
    "districtCode": "S2009",
    "districtName": "Bharatpur",
    "acNumber": 73,
    "acName": "Bharatpur",
    "partNumber": 31,
    "partName": "MAHARAJSAR",
    "lat": 27.2629081,
    "lon": 77.4512529
  },
  {
    "partId": 76417,
    "stateCode": "S20",
    "stateName": "Rajasthan",
    "districtCode": "S2009",
    "districtName": "Bharatpur",
    "acNumber": 73,
    "acName": "Bharatpur",
    "partNumber": 32,
    "partName": "BHANDOR KALAN",
    "lat": 27.21342478591549,
    "lon": 77.50331555384054
  },
  {
    "partId": 76418,
    "stateCode": "S20",
    "stateName": "Rajasthan",
    "districtCode": "S2009",
    "districtName": "Bharatpur",
    "acNumber": 73,
    "acName": "Bharatpur",
    "partNumber": 33,
    "partName": "BHADAUR  KHURD",
    "lat": 27.2154447,
    "lon": 77.4986962
  },
  {
    "partId": 76419,
    "stateCode": "S20",
    "stateName": "Rajasthan",
    "districtCode": "S2009",
    "districtName": "Bharatpur",
    "acNumber": 73,
    "acName": "Bharatpur",
    "partNumber": 34,
    "partName": "GIRADHARAPUR",
    "lat": 27.2154447,
    "lon": 77.4986962
  },
  {
    "partId": 76420,
    "stateCode": "S20",
    "stateName": "Rajasthan",
    "districtCode": "S2009",
    "districtName": "Bharatpur",
    "acNumber": 73,
    "acName": "Bharatpur",
    "partNumber": 35,
    "partName": "GUNDAVA",
    "lat": 27.2154447,
    "lon": 77.4986962
  },
  {
    "partId": 76421,
    "stateCode": "S20",
    "stateName": "Rajasthan",
    "districtCode": "S2009",
    "districtName": "Bharatpur",
    "acNumber": 73,
    "acName": "Bharatpur",
    "partNumber": 36,
    "partName": "GUNDAVA",
    "lat": 27.2154447,
    "lon": 77.4986962
  },
  {
    "partId": 76422,
    "stateCode": "S20",
    "stateName": "Rajasthan",
    "districtCode": "S2009",
    "districtName": "Bharatpur",
    "acNumber": 73,
    "acName": "Bharatpur",
    "partNumber": 37,
    "partName": "MURAVARA",
    "lat": 27.2154447,
    "lon": 77.4986962
  },
  {
    "partId": 76423,
    "stateCode": "S20",
    "stateName": "Rajasthan",
    "districtCode": "S2009",
    "districtName": "Bharatpur",
    "acNumber": 73,
    "acName": "Bharatpur",
    "partNumber": 38,
    "partName": "Achalpura",
    "lat": 27.2143922,
    "lon": 77.4516606
  },
  {
    "partId": 76424,
    "stateCode": "S20",
    "stateName": "Rajasthan",
    "districtCode": "S2009",
    "districtName": "Bharatpur",
    "acNumber": 73,
    "acName": "Bharatpur",
    "partNumber": 39,
    "partName": "kaua ka nagla",
    "lat": 27.2154447,
    "lon": 77.4986962
  },
  {
    "partId": 76425,
    "stateCode": "S20",
    "stateName": "Rajasthan",
    "districtCode": "S2009",
    "districtName": "Bharatpur",
    "acNumber": 73,
    "acName": "Bharatpur",
    "partNumber": 40,
    "partName": "kamalpura",
    "lat": 27.0716358,
    "lon": 76.9860205
  },
  {
    "partId": 76426,
    "stateCode": "S20",
    "stateName": "Rajasthan",
    "districtCode": "S2009",
    "districtName": "Bharatpur",
    "acNumber": 73,
    "acName": "Bharatpur",
    "partNumber": 41,
    "partName": "MUKHARJI NAGAR BHARATPUR",
    "lat": 27.2154447,
    "lon": 77.4986962
  },
  {
    "partId": 76427,
    "stateCode": "S20",
    "stateName": "Rajasthan",
    "districtCode": "S2009",
    "districtName": "Bharatpur",
    "acNumber": 73,
    "acName": "Bharatpur",
    "partNumber": 42,
    "partName": "MUKHARJI NAGAR BHARATPUR",
    "lat": 27.2154447,
    "lon": 77.4986962
  },
  {
    "partId": 76428,
    "stateCode": "S20",
    "stateName": "Rajasthan",
    "districtCode": "S2009",
    "districtName": "Bharatpur",
    "acNumber": 73,
    "acName": "Bharatpur",
    "partNumber": 43,
    "partName": "SHIV NAGAR, HARIJAN BASTI",
    "lat": 27.2154447,
    "lon": 77.4986962
  },
  {
    "partId": 76429,
    "stateCode": "S20",
    "stateName": "Rajasthan",
    "districtCode": "S2009",
    "districtName": "Bharatpur",
    "acNumber": 73,
    "acName": "Bharatpur",
    "partNumber": 44,
    "partName": "Anand nagar Bharatpur",
    "lat": 27.2011765,
    "lon": 77.5237706
  },
  {
    "partId": 76430,
    "stateCode": "S20",
    "stateName": "Rajasthan",
    "districtCode": "S2009",
    "districtName": "Bharatpur",
    "acNumber": 73,
    "acName": "Bharatpur",
    "partNumber": 45,
    "partName": "D - BLOCK RANJEET NAGAR",
    "lat": 27.2154447,
    "lon": 77.4986962
  },
  {
    "partId": 76431,
    "stateCode": "S20",
    "stateName": "Rajasthan",
    "districtCode": "S2009",
    "districtName": "Bharatpur",
    "acNumber": 73,
    "acName": "Bharatpur",
    "partNumber": 46,
    "partName": "D BLOCK RANAJIT NAGAR",
    "lat": 27.2154447,
    "lon": 77.4986962
  },
  {
    "partId": 76432,
    "stateCode": "S20",
    "stateName": "Rajasthan",
    "districtCode": "S2009",
    "districtName": "Bharatpur",
    "acNumber": 73,
    "acName": "Bharatpur",
    "partNumber": 47,
    "partName": "RANJEET NAGAR",
    "lat": 27.2154447,
    "lon": 77.4986962
  },
  {
    "partId": 76433,
    "stateCode": "S20",
    "stateName": "Rajasthan",
    "districtCode": "S2009",
    "districtName": "Bharatpur",
    "acNumber": 73,
    "acName": "Bharatpur",
    "partNumber": 48,
    "partName": "RANJEET NAGAR, GURU NANAK COLONY",
    "lat": 27.2154447,
    "lon": 77.4986962
  },
  {
    "partId": 76434,
    "stateCode": "S20",
    "stateName": "Rajasthan",
    "districtCode": "S2009",
    "districtName": "Bharatpur",
    "acNumber": 73,
    "acName": "Bharatpur",
    "partNumber": 49,
    "partName": "RANJEET NAGAR",
    "lat": 27.2154447,
    "lon": 77.4986962
  },
  {
    "partId": 76435,
    "stateCode": "S20",
    "stateName": "Rajasthan",
    "districtCode": "S2009",
    "districtName": "Bharatpur",
    "acNumber": 73,
    "acName": "Bharatpur",
    "partNumber": 50,
    "partName": "RANJEET NAGAR",
    "lat": 27.2154447,
    "lon": 77.4986962
  },
  {
    "partId": 76436,
    "stateCode": "S20",
    "stateName": "Rajasthan",
    "districtCode": "S2009",
    "districtName": "Bharatpur",
    "acNumber": 73,
    "acName": "Bharatpur",
    "partNumber": 51,
    "partName": "GIRRAJ COLONY BAJRIYA",
    "lat": 27.2154447,
    "lon": 77.4986962
  },
  {
    "partId": 76437,
    "stateCode": "S20",
    "stateName": "Rajasthan",
    "districtCode": "S2009",
    "districtName": "Bharatpur",
    "acNumber": 73,
    "acName": "Bharatpur",
    "partNumber": 52,
    "partName": "Gandhi Nagar, Kailashpuri",
    "lat": 27.2154447,
    "lon": 77.4986962
  },
  {
    "partId": 76438,
    "stateCode": "S20",
    "stateName": "Rajasthan",
    "districtCode": "S2009",
    "districtName": "Bharatpur",
    "acNumber": 73,
    "acName": "Bharatpur",
    "partNumber": 53,
    "partName": "Railway Colony`",
    "lat": 26.90428405,
    "lon": 77.29239128929223
  },
  {
    "partId": 76439,
    "stateCode": "S20",
    "stateName": "Rajasthan",
    "districtCode": "S2009",
    "districtName": "Bharatpur",
    "acNumber": 73,
    "acName": "Bharatpur",
    "partNumber": 54,
    "partName": "Motijheel Power House",
    "lat": 27.2154447,
    "lon": 77.4986962
  },
  {
    "partId": 76440,
    "stateCode": "S20",
    "stateName": "Rajasthan",
    "districtCode": "S2009",
    "districtName": "Bharatpur",
    "acNumber": 73,
    "acName": "Bharatpur",
    "partNumber": 55,
    "partName": "EKTA VIHAR, KARE KA NAGLA",
    "lat": 27.2154447,
    "lon": 77.4986962
  },
  {
    "partId": 76441,
    "stateCode": "S20",
    "stateName": "Rajasthan",
    "districtCode": "S2009",
    "districtName": "Bharatpur",
    "acNumber": 73,
    "acName": "Bharatpur",
    "partNumber": 56,
    "partName": "RAILWAY STATION ROAD",
    "lat": 27.2154447,
    "lon": 77.4986962
  },
  {
    "partId": 76442,
    "stateCode": "S20",
    "stateName": "Rajasthan",
    "districtCode": "S2009",
    "districtName": "Bharatpur",
    "acNumber": 73,
    "acName": "Bharatpur",
    "partNumber": 57,
    "partName": "SARVODAY NAGAR, TYOGA",
    "lat": 27.21342478591549,
    "lon": 77.50331555384054
  },
  {
    "partId": 76443,
    "stateCode": "S20",
    "stateName": "Rajasthan",
    "districtCode": "S2009",
    "districtName": "Bharatpur",
    "acNumber": 73,
    "acName": "Bharatpur",
    "partNumber": 58,
    "partName": "CIMMCO LEBOUR COLONY",
    "lat": 27.21342478591549,
    "lon": 77.50331555384054
  },
  {
    "partId": 76444,
    "stateCode": "S20",
    "stateName": "Rajasthan",
    "districtCode": "S2009",
    "districtName": "Bharatpur",
    "acNumber": 73,
    "acName": "Bharatpur",
    "partNumber": 59,
    "partName": "NEW CIMMCO COLONY, STAFF COLONY",
    "lat": 27.2154447,
    "lon": 77.4986962
  },
  {
    "partId": 76445,
    "stateCode": "S20",
    "stateName": "Rajasthan",
    "districtCode": "S2009",
    "districtName": "Bharatpur",
    "acNumber": 73,
    "acName": "Bharatpur",
    "partNumber": 60,
    "partName": "SHYAM NAGAR, SHASHTRI NAGAR",
    "lat": 27.2154447,
    "lon": 77.4986962
  },
  {
    "partId": 76446,
    "stateCode": "S20",
    "stateName": "Rajasthan",
    "districtCode": "S2009",
    "districtName": "Bharatpur",
    "acNumber": 73,
    "acName": "Bharatpur",
    "partNumber": 61,
    "partName": "RUDHIYA NAGAR, PRINCE NAGAR",
    "lat": 27.21342478591549,
    "lon": 77.50331555384054
  },
  {
    "partId": 76447,
    "stateCode": "S20",
    "stateName": "Rajasthan",
    "districtCode": "S2009",
    "districtName": "Bharatpur",
    "acNumber": 73,
    "acName": "Bharatpur",
    "partNumber": 62,
    "partName": "STC HOUSING BORD",
    "lat": 27.2154447,
    "lon": 77.4986962
  },
  {
    "partId": 76448,
    "stateCode": "S20",
    "stateName": "Rajasthan",
    "districtCode": "S2009",
    "districtName": "Bharatpur",
    "acNumber": 73,
    "acName": "Bharatpur",
    "partNumber": 63,
    "partName": "STC HOUSING BOARD SURAJMAL NAGAR, SHYAM NAGAR",
    "lat": 27.21342478591549,
    "lon": 77.50331555384054
  },
  {
    "partId": 76449,
    "stateCode": "S20",
    "stateName": "Rajasthan",
    "districtCode": "S2009",
    "districtName": "Bharatpur",
    "acNumber": 73,
    "acName": "Bharatpur",
    "partNumber": 64,
    "partName": "SURAJMAL NAGAR",
    "lat": 27.21158475,
    "lon": 77.51549485467592
  },
  {
    "partId": 76450,
    "stateCode": "S20",
    "stateName": "Rajasthan",
    "districtCode": "S2009",
    "districtName": "Bharatpur",
    "acNumber": 73,
    "acName": "Bharatpur",
    "partNumber": 65,
    "partName": "KISHAN PURA",
    "lat": 27.2154447,
    "lon": 77.4986962
  },
  {
    "partId": 76614,
    "stateCode": "S20",
    "stateName": "Rajasthan",
    "districtCode": "S2009",
    "districtName": "Bharatpur",
    "acNumber": 73,
    "acName": "Bharatpur",
    "partNumber": 66,
    "partName": "Kishanpura",
    "lat": 27.2154447,
    "lon": 77.4986962
  },
  {
    "partId": 76451,
    "stateCode": "S20",
    "stateName": "Rajasthan",
    "districtCode": "S2009",
    "districtName": "Bharatpur",
    "acNumber": 73,
    "acName": "Bharatpur",
    "partNumber": 67,
    "partName": "NAGLA ASTAWAN, MEHDI BAG",
    "lat": 27.2154447,
    "lon": 77.4986962
  },
  {
    "partId": 76452,
    "stateCode": "S20",
    "stateName": "Rajasthan",
    "districtCode": "S2009",
    "districtName": "Bharatpur",
    "acNumber": 73,
    "acName": "Bharatpur",
    "partNumber": 68,
    "partName": "NOUNH",
    "lat": 27.2154447,
    "lon": 77.4986962
  },
  {
    "partId": 76453,
    "stateCode": "S20",
    "stateName": "Rajasthan",
    "districtCode": "S2009",
    "districtName": "Bharatpur",
    "acNumber": 73,
    "acName": "Bharatpur",
    "partNumber": 69,
    "partName": "PAKKA BAG",
    "lat": 27.2154447,
    "lon": 77.4986962
  },
  {
    "partId": 76454,
    "stateCode": "S20",
    "stateName": "Rajasthan",
    "districtCode": "S2009",
    "districtName": "Bharatpur",
    "acNumber": 73,
    "acName": "Bharatpur",
    "partNumber": 70,
    "partName": "LAXMI NAGAR, PADAM VILLA, BRIJ VIHAR",
    "lat": 27.2154447,
    "lon": 77.4986962
  },
  {
    "partId": 76455,
    "stateCode": "S20",
    "stateName": "Rajasthan",
    "districtCode": "S2009",
    "districtName": "Bharatpur",
    "acNumber": 73,
    "acName": "Bharatpur",
    "partNumber": 71,
    "partName": "BRIJ NAGAR",
    "lat": 27.20944,
    "lon": 77.52965009606376
  },
  {
    "partId": 76456,
    "stateCode": "S20",
    "stateName": "Rajasthan",
    "districtCode": "S2009",
    "districtName": "Bharatpur",
    "acNumber": 73,
    "acName": "Bharatpur",
    "partNumber": 72,
    "partName": "BRIJ NAGAR",
    "lat": 27.20944,
    "lon": 77.52965009606376
  },
  {
    "partId": 76457,
    "stateCode": "S20",
    "stateName": "Rajasthan",
    "districtCode": "S2009",
    "districtName": "Bharatpur",
    "acNumber": 73,
    "acName": "Bharatpur",
    "partNumber": 73,
    "partName": "ANIRUDH NAGAR, GOVIND NAGAR",
    "lat": 27.2154447,
    "lon": 77.4986962
  },
  {
    "partId": 76613,
    "stateCode": "S20",
    "stateName": "Rajasthan",
    "districtCode": "S2009",
    "districtName": "Bharatpur",
    "acNumber": 73,
    "acName": "Bharatpur",
    "partNumber": 74,
    "partName": "JYOTI NAGAR , GOVIND NAGAR , GEETA COLONY",
    "lat": 27.2154447,
    "lon": 77.4986962
  },