[
  {
    "partId": 18784,
    "stateCode": "S20",
    "stateName": "Rajasthan",
    "districtCode": "S2036",
    "districtName": "Deeg",
    "acNumber": 72,
    "acName": "Deeg-Kumher",
    "partNumber": 1,
    "partName": "BHILAMAKA",
    "lat": 27.5431131,
    "lon": 77.3437714
  },
  {
    "partId": 18785,
    "stateCode": "S20",
    "stateName": "Rajasthan",
    "districtCode": "S2036",
    "districtName": "Deeg",
    "acNumber": 72,
    "acName": "Deeg-Kumher",
    "partNumber": 2,
    "partName": "BADRIPUR",
    "lat": 27.5186623,
    "lon": 77.3265838
  },
  {
    "partId": 18786,
    "stateCode": "S20",
    "stateName": "Rajasthan",
    "districtCode": "S2036",
    "districtName": "Deeg",
    "acNumber": 72,
    "acName": "Deeg-Kumher",
    "partNumber": 3,
    "partName": "BADRIPUR",
    "lat": 27.5186623,
    "lon": 77.3265838
  },
  {
    "partId": 18787,
    "stateCode": "S20",
    "stateName": "Rajasthan",
    "districtCode": "S2036",
    "districtName": "Deeg",
    "acNumber": 72,
    "acName": "Deeg-Kumher",
    "partNumber": 4,
    "partName": "IKALAHARA",
    "lat": 27.6138089,
    "lon": 77.1617889
  },
  {
    "partId": 18788,
    "stateCode": "S20",
    "stateName": "Rajasthan",
    "districtCode": "S2036",
    "districtName": "Deeg",
    "acNumber": 72,
    "acName": "Deeg-Kumher",
    "partNumber": 5,
    "partName": "IKALAHARA",
    "lat": 27.6138089,
    "lon": 77.1617889
  },
  {
    "partId": 18789,
    "stateCode": "S20",
    "stateName": "Rajasthan",
    "districtCode": "S2036",
    "districtName": "Deeg",
    "acNumber": 72,
    "acName": "Deeg-Kumher",
    "partNumber": 6,
    "partName": "MAIN MARKET DEEG",
    "lat": 27.5950498,
    "lon": 77.1329279
  },
  {
    "partId": 18790,
    "stateCode": "S20",
    "stateName": "Rajasthan",
    "districtCode": "S2036",
    "districtName": "Deeg",
    "acNumber": 72,
    "acName": "Deeg-Kumher",
    "partNumber": 7,
    "partName": "MAIN MARKET DEEG",
    "lat": 27.5950498,
    "lon": 77.1329279
  },
  {
    "partId": 18791,
    "stateCode": "S20",
    "stateName": "Rajasthan",
    "districtCode": "S2036",
    "districtName": "Deeg",
    "acNumber": 72,
    "acName": "Deeg-Kumher",
    "partNumber": 8,
    "partName": "MUKHYA BAZAR DEEG",
    "lat": 27.4706823,
    "lon": 77.32890660565869
  },
  {
    "partId": 51413,
    "stateCode": "S20",
    "stateName": "Rajasthan",
    "districtCode": "S2036",
    "districtName": "Deeg",
    "acNumber": 72,
    "acName": "Deeg-Kumher",
    "partNumber": 9,
    "partName": "URBAN DEEG",
    "lat": 27.4706823,
    "lon": 77.32890660565869
  },
  {
    "partId": 18792,
    "stateCode": "S20",
    "stateName": "Rajasthan",
    "districtCode": "S2036",
    "districtName": "Deeg",
    "acNumber": 72,
    "acName": "Deeg-Kumher",
    "partNumber": 10,
    "partName": "KUNDA BHAGWANDAS DEEG",
    "lat": 27.4706823,
    "lon": 77.32890660565869
  },
  {
    "partId": 18793,
    "stateCode": "S20",
    "stateName": "Rajasthan",
    "districtCode": "S2036",
    "districtName": "Deeg",
    "acNumber": 72,
    "acName": "Deeg-Kumher",
    "partNumber": 11,
    "partName": "KUNDA BHAGWANDAS DEEG",
    "lat": 27.4706823,
    "lon": 77.32890660565869
  },
  {
    "partId": 18794,
    "stateCode": "S20",
    "stateName": "Rajasthan",
    "districtCode": "S2036",
    "districtName": "Deeg",
    "acNumber": 72,
    "acName": "Deeg-Kumher",
    "partNumber": 12,
    "partName": "NAYA BUS STAND DEEG",
    "lat": 27.4706823,
    "lon": 77.32890660565869
  },
  {
    "partId": 18795,
    "stateCode": "S20",
    "stateName": "Rajasthan",
    "districtCode": "S2036",
    "districtName": "Deeg",
    "acNumber": 72,
    "acName": "Deeg-Kumher",
    "partNumber": 13,
    "partName": "NAYA BAS STAND DEEG",
    "lat": 27.4706823,
    "lon": 77.32890660565869
  },
  {
    "partId": 18796,
    "stateCode": "S20",
    "stateName": "Rajasthan",
    "districtCode": "S2036",
    "districtName": "Deeg",
    "acNumber": 72,
    "acName": "Deeg-Kumher",
    "partNumber": 14,
    "partName": "NAYA BUS STAND DEEG",
    "lat": 27.4706823,
    "lon": 77.32890660565869
  },
  {
    "partId": 18797,
    "stateCode": "S20",
    "stateName": "Rajasthan",
    "districtCode": "S2036",
    "districtName": "Deeg",
    "acNumber": 72,
    "acName": "Deeg-Kumher",
    "partNumber": 15,
    "partName": "BHUDAGATE DEEG",
    "lat": 27.4706823,
    "lon": 77.32890660565869
  },
  {
    "partId": 18798,
    "stateCode": "S20",
    "stateName": "Rajasthan",
    "districtCode": "S2036",
    "districtName": "Deeg",
    "acNumber": 72,
    "acName": "Deeg-Kumher",
    "partNumber": 16,
    "partName": "BHUDAGET DEEG",
    "lat": 27.4706823,
    "lon": 77.32890660565869
  },
  {
    "partId": 18799,
    "stateCode": "S20",
    "stateName": "Rajasthan",
    "districtCode": "S2036",
    "districtName": "Deeg",
    "acNumber": 72,
    "acName": "Deeg-Kumher",
    "partNumber": 17,
    "partName": "BHUDA GATE DEEG",
    "lat": 27.4706823,
    "lon": 77.32890660565869
  },
  {
    "partId": 18800,
    "stateCode": "S20",
    "stateName": "Rajasthan",
    "districtCode": "S2036",
    "districtName": "Deeg",
    "acNumber": 72,
    "acName": "Deeg-Kumher",
    "partNumber": 18,
    "partName": "PURANA BUS STAND DEEG",
    "lat": 27.4706823,
    "lon": 77.32890660565869
  },
  {
    "partId": 18801,
    "stateCode": "S20",
    "stateName": "Rajasthan",
    "districtCode": "S2036",
    "districtName": "Deeg",
    "acNumber": 72,
    "acName": "Deeg-Kumher",
    "partNumber": 19,
    "partName": "PURANA BAS STAND DEEG",
    "lat": 27.4706823,
    "lon": 77.32890660565869
  },
  {
    "partId": 18802,
    "stateCode": "S20",
    "stateName": "Rajasthan",
    "districtCode": "S2036",
    "districtName": "Deeg",
    "acNumber": 72,
    "acName": "Deeg-Kumher",
    "partNumber": 20,
    "partName": "NAI ROAD DEEG",
    "lat": 27.5943899,
    "lon": 77.13276
  },
  {
    "partId": 18803,
    "stateCode": "S20",
    "stateName": "Rajasthan",
    "districtCode": "S2036",
    "districtName": "Deeg",
    "acNumber": 72,
    "acName": "Deeg-Kumher",
    "partNumber": 21,
    "partName": "NAI ROAD DEEG",
    "lat": 27.5943899,
    "lon": 77.13276
  },
  {
    "partId": 18804,
    "stateCode": "S20",
    "stateName": "Rajasthan",
    "districtCode": "S2036",
    "districtName": "Deeg",
    "acNumber": 72,
    "acName": "Deeg-Kumher",
    "partNumber": 22,
    "partName": "AGARADATTA BAGICHI DEEG",
    "lat": 27.4706823,
    "lon": 77.32890660565869
  },
  {
    "partId": 18805,
    "stateCode": "S20",
    "stateName": "Rajasthan",
    "districtCode": "S2036",
    "districtName": "Deeg",
    "acNumber": 72,
    "acName": "Deeg-Kumher",
    "partNumber": 23,
    "partName": "PANDEY MOHALLA DEEG",
    "lat": 27.4706823,
    "lon": 77.32890660565869
  },
  {
    "partId": 18806,
    "stateCode": "S20",
    "stateName": "Rajasthan",
    "districtCode": "S2036",
    "districtName": "Deeg",
    "acNumber": 72,
    "acName": "Deeg-Kumher",
    "partNumber": 24,
    "partName": "PURANI DEEG",
    "lat": 27.4706823,
    "lon": 77.32890660565869
  },
  {
    "partId": 18807,
    "stateCode": "S20",
    "stateName": "Rajasthan",
    "districtCode": "S2036",
    "districtName": "Deeg",
    "acNumber": 72,
    "acName": "Deeg-Kumher",
    "partNumber": 25,
    "partName": "PURANI DEEG",
    "lat": 27.4706823,
    "lon": 77.32890660565869
  },
  {
    "partId": 18808,
    "stateCode": "S20",
    "stateName": "Rajasthan",
    "districtCode": "S2036",
    "districtName": "Deeg",
    "acNumber": 72,
    "acName": "Deeg-Kumher",
    "partNumber": 26,
    "partName": "PURANI DEEG",
    "lat": 27.4706823,
    "lon": 77.32890660565869
  },
  {
    "partId": 51418,
    "stateCode": "S20",
    "stateName": "Rajasthan",
    "districtCode": "S2036",
    "districtName": "Deeg",
    "acNumber": 72,
    "acName": "Deeg-Kumher",
    "partNumber": 27,
    "partName": "PURANI DEEG",
    "lat": 27.4706823,
    "lon": 77.32890660565869
  },
  {
    "partId": 18809,
    "stateCode": "S20",
    "stateName": "Rajasthan",
    "districtCode": "S2036",
    "districtName": "Deeg",
    "acNumber": 72,
    "acName": "Deeg-Kumher",
    "partNumber": 28,
    "partName": "PURANI DEEG",
    "lat": 27.4706823,
    "lon": 77.32890660565869
  },
  {
    "partId": 18810,
    "stateCode": "S20",
    "stateName": "Rajasthan",
    "districtCode": "S2036",
    "districtName": "Deeg",
    "acNumber": 72,
    "acName": "Deeg-Kumher",
    "partNumber": 29,
    "partName": "LALA VALI GALI DEEG",
    "lat": 27.4706823,
    "lon": 77.32890660565869
  },
  {
    "partId": 18811,
    "stateCode": "S20",
    "stateName": "Rajasthan",
    "districtCode": "S2036",
    "districtName": "Deeg",
    "acNumber": 72,
    "acName": "Deeg-Kumher",
    "partNumber": 30,
    "partName": "LAXMAN MANDIR KE PAS DEEG",
    "lat": 27.4706823,
    "lon": 77.32890660565869
  },
  {
    "partId": 18812,
    "stateCode": "S20",
    "stateName": "Rajasthan",
    "districtCode": "S2036",
    "districtName": "Deeg",
    "acNumber": 72,
    "acName": "Deeg-Kumher",
    "partNumber": 31,
    "partName": "malipura",
    "lat": 27.5088804,
    "lon": 77.3839295
  },
  {
    "partId": 18813,
    "stateCode": "S20",
    "stateName": "Rajasthan",
    "districtCode": "S2036",
    "districtName": "Deeg",
    "acNumber": 72,
    "acName": "Deeg-Kumher",
    "partNumber": 32,
    "partName": "NAGALA MOTI",
    "lat": 27.4951197,
    "lon": 77.3918152
  },
  {
    "partId": 18814,
    "stateCode": "S20",
    "stateName": "Rajasthan",
    "districtCode": "S2036",
    "districtName": "Deeg",
    "acNumber": 72,
    "acName": "Deeg-Kumher",
    "partNumber": 33,
    "partName": "BAHAJ",
    "lat": 27.4721813,
    "lon": 77.3742199
  },
  {
    "partId": 18815,
    "stateCode": "S20",
    "stateName": "Rajasthan",
    "districtCode": "S2036",
    "districtName": "Deeg",
    "acNumber": 72,
    "acName": "Deeg-Kumher",
    "partNumber": 34,
    "partName": "BAHAJ",
    "lat": 27.4721813,
    "lon": 77.3742199
  },
  {
    "partId": 18816,
    "stateCode": "S20",
    "stateName": "Rajasthan",
    "districtCode": "S2036",
    "districtName": "Deeg",
    "acNumber": 72,
    "acName": "Deeg-Kumher",
    "partNumber": 35,
    "partName": "BAHAJ",
    "lat": 27.4721813,
    "lon": 77.3742199
  },
  {
    "partId": 18817,
    "stateCode": "S20",
    "stateName": "Rajasthan",
    "districtCode": "S2036",
    "districtName": "Deeg",
    "acNumber": 72,
    "acName": "Deeg-Kumher",
    "partNumber": 36,
    "partName": "BAHAJ",
    "lat": 27.4721813,
    "lon": 77.3742199
  },
  {
    "partId": 18818,
    "stateCode": "S20",
    "stateName": "Rajasthan",
    "districtCode": "S2036",
    "districtName": "Deeg",
    "acNumber": 72,
    "acName": "Deeg-Kumher",
    "partNumber": 37,
    "partName": "BAHAJ",
    "lat": 27.4721813,
    "lon": 77.3742199
  },
  {
    "partId": 18819,
    "stateCode": "S20",
    "stateName": "Rajasthan",
    "districtCode": "S2036",
    "districtName": "Deeg",
    "acNumber": 72,
    "acName": "Deeg-Kumher",
    "partNumber": 38,
    "partName": "NANGALA DADU",
    "lat": 27.4706823,
    "lon": 77.32890660565869
  },
  {
    "partId": 18820,
    "stateCode": "S20",
    "stateName": "Rajasthan",
    "districtCode": "S2036",
    "districtName": "Deeg",
    "acNumber": 72,
    "acName": "Deeg-Kumher",
    "partNumber": 39,
    "partName": "BAROULI CHOUTH",
    "lat": 27.4706823,
    "lon": 77.32890660565869
  },
  {
    "partId": 18821,
    "stateCode": "S20",
    "stateName": "Rajasthan",
    "districtCode": "S2036",
    "districtName": "Deeg",
    "acNumber": 72,
    "acName": "Deeg-Kumher",
    "partNumber": 40,
    "partName": "BAROULI CHOUTH",
    "lat": 27.4706823,
    "lon": 77.32890660565869
  },
  {
    "partId": 18822,
    "stateCode": "S20",
    "stateName": "Rajasthan",
    "districtCode": "S2036",
    "districtName": "Deeg",
    "acNumber": 72,
    "acName": "Deeg-Kumher",
    "partNumber": 41,
    "partName": "BAROULI CHOUTH",
    "lat": 27.4706823,
    "lon": 77.32890660565869
  },
  {
    "partId": 18823,
    "stateCode": "S20",
    "stateName": "Rajasthan",
    "districtCode": "S2036",
    "districtName": "Deeg",
    "acNumber": 72,
    "acName": "Deeg-Kumher",
    "partNumber": 42,
    "partName": "PUNCHHARI",
    "lat": 27.4567737,
    "lon": 77.4303129
  },
  {
    "partId": 18824,
    "stateCode": "S20",
    "stateName": "Rajasthan",
    "districtCode": "S2036",
    "districtName": "Deeg",
    "acNumber": 72,
    "acName": "Deeg-Kumher",
    "partNumber": 43,
    "partName": "SAMAI",
    "lat": 27.4390788,
    "lon": 77.3999905
  },
  {
    "partId": 18825,
    "stateCode": "S20",
    "stateName": "Rajasthan",
    "districtCode": "S2036",
    "districtName": "Deeg",
    "acNumber": 72,
    "acName": "Deeg-Kumher",
    "partNumber": 44,
    "partName": "SAMAI",
    "lat": 27.4390788,
    "lon": 77.3999905
  },
  {
    "partId": 18826,
    "stateCode": "S20",
    "stateName": "Rajasthan",
    "districtCode": "S2036",
    "districtName": "Deeg",
    "acNumber": 72,
    "acName": "Deeg-Kumher",
    "partNumber": 45,
    "partName": "KHEDA  BRAHMAN",
    "lat": 27.4706823,
    "lon": 77.32890660565869
  },
  {
    "partId": 18827,
    "stateCode": "S20",
    "stateName": "Rajasthan",
    "districtCode": "S2036",
    "districtName": "Deeg",
    "acNumber": 72,
    "acName": "Deeg-Kumher",
    "partNumber": 46,
    "partName": "KHEDA  BRAHMAN",
    "lat": 27.4706823,
    "lon": 77.32890660565869
  },
  {
    "partId": 18828,
    "stateCode": "S20",
    "stateName": "Rajasthan",
    "districtCode": "S2036",
    "districtName": "Deeg",
    "acNumber": 72,
    "acName": "Deeg-Kumher",
    "partNumber": 47,
    "partName": "UMARA",
    "lat": 27.4338988,
    "lon": 77.3714948
  },
  {
    "partId": 18829,
    "stateCode": "S20",
    "stateName": "Rajasthan",
    "districtCode": "S2036",
    "districtName": "Deeg",
    "acNumber": 72,
    "acName": "Deeg-Kumher",
    "partNumber": 48,
    "partName": "NAGALA PHOUJADAR",
    "lat": 27.4706823,
    "lon": 77.32890660565869
  },
  {
    "partId": 18830,
    "stateCode": "S20",
    "stateName": "Rajasthan",
    "districtCode": "S2036",
    "districtName": "Deeg",
    "acNumber": 72,
    "acName": "Deeg-Kumher",
    "partNumber": 49,
    "partName": "AU",
    "lat": 27.4317372,
    "lon": 77.3459386
  },
  {
    "partId": 18831,
    "stateCode": "S20",
    "stateName": "Rajasthan",
    "districtCode": "S2036",
    "districtName": "Deeg",
    "acNumber": 72,
    "acName": "Deeg-Kumher",
    "partNumber": 50,
    "partName": "AU",
    "lat": 27.4317372,
    "lon": 77.3459386
  },
  {
    "partId": 18832,
    "stateCode": "S20",
    "stateName": "Rajasthan",
    "districtCode": "S2036",
    "districtName": "Deeg",
    "acNumber": 72,
    "acName": "Deeg-Kumher",
    "partNumber": 51,
    "partName": "KUCHAVATI",
    "lat": 27.4706823,
    "lon": 77.32890660565869
  },
  {
    "partId": 18833,
    "stateCode": "S20",
    "stateName": "Rajasthan",
    "districtCode": "S2036",
    "districtName": "Deeg",
    "acNumber": 72,
    "acName": "Deeg-Kumher",
    "partNumber": 52,
    "partName": "KUCHAVATI",
    "lat": 27.4706823,
    "lon": 77.32890660565869
  },
  {
    "partId": 18834,
    "stateCode": "S20",
    "stateName": "Rajasthan",
    "districtCode": "S2036",
    "districtName": "Deeg",
    "acNumber": 72,
    "acName": "Deeg-Kumher",
    "partNumber": 53,
    "partName": "KHERIYA  PUROHIT",
    "lat": 27.4249951,
    "lon": 77.3169279
  },
  {
    "partId": 18835,
    "stateCode": "S20",
    "stateName": "Rajasthan",
    "districtCode": "S2036",
    "districtName": "Deeg",
    "acNumber": 72,
    "acName": "Deeg-Kumher",
    "partNumber": 54,
    "partName": "BAHATANA",
    "lat": 27.4448203,
    "lon": 77.306478
  },
  {
    "partId": 18836,
    "stateCode": "S20",
    "stateName": "Rajasthan",
    "districtCode": "S2036",
    "districtName": "Deeg",
    "acNumber": 72,
    "acName": "Deeg-Kumher",
    "partNumber": 55,
    "partName": "KHOHARI",
    "lat": 27.4329942,
    "lon": 77.2901487
  },
  {
    "partId": 18837,
    "stateCode": "S20",
    "stateName": "Rajasthan",
    "districtCode": "S2036",
    "districtName": "Deeg",
    "acNumber": 72,
    "acName": "Deeg-Kumher",
    "partNumber": 56,
    "partName": "GIRASAI",
    "lat": 27.4706823,
    "lon": 77.32890660565869
  },
  {
    "partId": 18838,
    "stateCode": "S20",
    "stateName": "Rajasthan",
    "districtCode": "S2036",
    "districtName": "Deeg",
    "acNumber": 72,
    "acName": "Deeg-Kumher",
    "partNumber": 57,
    "partName": "GIRASAI",
    "lat": 27.4706823,
    "lon": 77.32890660565869
  },
  {
    "partId": 18839,
    "stateCode": "S20",
    "stateName": "Rajasthan",
    "districtCode": "S2036",
    "districtName": "Deeg",
    "acNumber": 72,
    "acName": "Deeg-Kumher",
    "partNumber": 58,
    "partName": "SONAGANV",
    "lat": 27.4706823,
    "lon": 77.32890660565869
  },
  {
    "partId": 18840,
    "stateCode": "S20",
    "stateName": "Rajasthan",
    "districtCode": "S2036",
    "districtName": "Deeg",
    "acNumber": 72,
    "acName": "Deeg-Kumher",
    "partNumber": 59,
    "partName": "SONAGANV",
    "lat": 27.4706823,
    "lon": 77.32890660565869
  },
  {
    "partId": 18841,
    "stateCode": "S20",
    "stateName": "Rajasthan",
    "districtCode": "S2036",
    "districtName": "Deeg",
    "acNumber": 72,
    "acName": "Deeg-Kumher",
    "partNumber": 60,
    "partName": "BARAVALI",
    "lat": 27.4706823,
    "lon": 77.32890660565869
  },
  {
    "partId": 18842,
    "stateCode": "S20",
    "stateName": "Rajasthan",
    "districtCode": "S2036",
    "districtName": "Deeg",
    "acNumber": 72,
    "acName": "Deeg-Kumher",
    "partNumber": 61,
    "partName": "SAHARAI",
    "lat": 27.4004133,
    "lon": 77.2818553
  },
  {
    "partId": 18843,
    "stateCode": "S20",
    "stateName": "Rajasthan",
    "districtCode": "S2036",
    "districtName": "Deeg",
    "acNumber": 72,
    "acName": "Deeg-Kumher",
    "partNumber": 62,
    "partName": "NASABADA",
    "lat": 27.4706823,
    "lon": 77.32890660565869
  },
  {
    "partId": 18844,
    "stateCode": "S20",
    "stateName": "Rajasthan",
    "districtCode": "S2036",
    "districtName": "Deeg",
    "acNumber": 72,
    "acName": "Deeg-Kumher",
    "partNumber": 63,
    "partName": "SHYORAVALI",
    "lat": 27.4706823,
    "lon": 77.32890660565869
  },
  {
    "partId": 18845,
    "stateCode": "S20",
    "stateName": "Rajasthan",
    "districtCode": "S2036",
    "districtName": "Deeg",
    "acNumber": 72,
    "acName": "Deeg-Kumher",
    "partNumber": 64,
    "partName": "SHYORAVALI",
    "lat": 27.4706823,
    "lon": 77.32890660565869
  },
  {
    "partId": 18846,
    "stateCode": "S20",
    "stateName": "Rajasthan",
    "districtCode": "S2036",
    "districtName": "Deeg",
    "acNumber": 72,
    "acName": "Deeg-Kumher",
    "partNumber": 65,
    "partName": "ANKHOULI",
    "lat": 27.4706823,
    "lon": 77.32890660565869
  },
  {
    "partId": 18847,
    "stateCode": "S20",
    "stateName": "Rajasthan",
    "districtCode": "S2036",
    "districtName": "Deeg",
    "acNumber": 72,
    "acName": "Deeg-Kumher",
    "partNumber": 66,
    "partName": "SINSINI",
    "lat": 27.366527,
    "lon": 77.2993755
  },
  {
    "partId": 18848,
    "stateCode": "S20",
    "stateName": "Rajasthan",
    "districtCode": "S2036",
    "districtName": "Deeg",
    "acNumber": 72,
    "acName": "Deeg-Kumher",
    "partNumber": 67,
    "partName": "GRAM PANCHAYAT SINSINI",
    "lat": 27.4706823,
    "lon": 77.32890660565869
  },
  {
    "partId": 18849,
    "stateCode": "S20",
    "stateName": "Rajasthan",
    "districtCode": "S2036",
    "districtName": "Deeg",
    "acNumber": 72,
    "acName": "Deeg-Kumher",
    "partNumber": 68,
    "partName": "SINASINI",
    "lat": 27.366527,
    "lon": 77.2993755
  },
  {
    "partId": 18850,
    "stateCode": "S20",
    "stateName": "Rajasthan",
    "districtCode": "S2036",
    "districtName": "Deeg",
    "acNumber": 72,
    "acName": "Deeg-Kumher",
    "partNumber": 69,
    "partName": "SINASINI",
    "lat": 27.366527,
    "lon": 77.2993755
  },
  {
    "partId": 19605,
    "stateCode": "S20",
    "stateName": "Rajasthan",
    "districtCode": "S2036",
    "districtName": "Deeg",
    "acNumber": 72,
    "acName": "Deeg-Kumher",
    "partNumber": 70,
    "partName": "SINASINI",
    "lat": 27.366527,
    "lon": 77.2993755
  },
  {
    "partId": 19606,
    "stateCode": "S20",
    "stateName": "Rajasthan",
    "districtCode": "S2036",
    "districtName": "Deeg",
    "acNumber": 72,
    "acName": "Deeg-Kumher",
    "partNumber": 71,
    "partName": "SINASINI",
    "lat": 27.366527,
    "lon": 77.2993755
  },
  {
    "partId": 19607,
    "stateCode": "S20",
    "stateName": "Rajasthan",
    "districtCode": "S2036",
    "districtName": "Deeg",
    "acNumber": 72,
    "acName": "Deeg-Kumher",
    "partNumber": 72,
    "partName": "BADANAGADH",
    "lat": 27.4706823,
    "lon": 77.32890660565869
  },
  {
    "partId": 19608,
    "stateCode": "S20",
    "stateName": "Rajasthan",
    "districtCode": "S2036",
    "districtName": "Deeg",
    "acNumber": 72,
    "acName": "Deeg-Kumher",
    "partNumber": 73,
    "partName": "BADANAGADH",
    "lat": 27.4706823,
    "lon": 77.32890660565869
  },
  {
    "partId": 19609,
    "stateCode": "S20",
    "stateName": "Rajasthan",
    "districtCode": "S2036",
    "districtName": "Deeg",
    "acNumber": 72,
    "acName": "Deeg-Kumher",
    "partNumber": 74,
    "partName": "MADHERA",
    "lat": 27.3946314,
    "lon": 77.3535347
  },
  {
    "partId": 19610,
    "stateCode": "S20",
    "stateName": "Rajasthan",
    "districtCode": "S2036",
    "districtName": "Deeg",
    "acNumber": 72,
    "acName": "Deeg-Kumher",
    "partNumber": 75,
    "partName": "GHARAVARI",
    "lat": 27.4162906,
    "lon": 77.3686194
  },
  {
    "partId": 19611,
    "stateCode": "S20",
    "stateName": "Rajasthan",
    "districtCode": "S2036",
    "districtName": "Deeg",
    "acNumber": 72,
    "acName": "Deeg-Kumher",
    "partNumber": 76,
    "partName": "KATHAIRA CHOUTH",
    "lat": 27.4706823,
    "lon": 77.32890660565869
  },
  {
    "partId": 19612,
    "stateCode": "S20",
    "stateName": "Rajasthan",
    "districtCode": "S2036",
    "districtName": "Deeg",
    "acNumber": 72,
    "acName": "Deeg-Kumher",
    "partNumber": 77,
    "partName": "KATHAIRA CHOUTH",
    "lat": 27.4706823,
    "lon": 77.32890660565869
  },
  {
    "partId": 19613,
    "stateCode": "S20",
    "stateName": "Rajasthan",
    "districtCode": "S2036",
    "districtName": "Deeg",
    "acNumber": 72,
    "acName": "Deeg-Kumher",
    "partNumber": 78,
    "partName": "KOUNRER",
    "lat": 27.4706823,
    "lon": 77.32890660565869
  },
  {
    "partId": 19614,
    "stateCode": "S20",
    "stateName": "Rajasthan",
    "districtCode": "S2036",
    "districtName": "Deeg",
    "acNumber": 72,
    "acName": "Deeg-Kumher",
    "partNumber": 79,
    "partName": "KONRER",
    "lat": 27.4706823,
    "lon": 77.32890660565869
  },
  {
    "partId": 19615,
    "stateCode": "S20",
    "stateName": "Rajasthan",
    "districtCode": "S2036",
    "districtName": "Deeg",
    "acNumber": 72,
    "acName": "Deeg-Kumher",
    "partNumber": 80,
    "partName": "KOUNRER",
    "lat": 27.4706823,
    "lon": 77.32890660565869
  },
  {
    "partId": 19616,
    "stateCode": "S20",
    "stateName": "Rajasthan",
    "districtCode": "S2036",
    "districtName": "Deeg",
    "acNumber": 72,
    "acName": "Deeg-Kumher",
    "partNumber": 81,
    "partName": "KONRER",
    "lat": 27.4706823,
    "lon": 77.32890660565869
  },
  {
    "partId": 19617,
    "stateCode": "S20",
    "stateName": "Rajasthan",
    "districtCode": "S2036",
    "districtName": "Deeg",
    "acNumber": 72,
    "acName": "Deeg-Kumher",
    "partNumber": 82,
    "partName": "KASOUT",
    "lat": 27.4706823,
    "lon": 77.32890660565869
  },
  {
    "partId": 19618,
    "stateCode": "S20",
    "stateName": "Rajasthan",
    "districtCode": "S2036",
    "districtName": "Deeg",
    "acNumber": 72,
    "acName": "Deeg-Kumher",
    "partNumber": 83,
    "partName": "KASOUT",
    "lat": 27.4706823,
    "lon": 77.32890660565869
  },
  {
    "partId": 19619,
    "stateCode": "S20",
    "stateName": "Rajasthan",
    "districtCode": "S2036",
    "districtName": "Deeg",
    "acNumber": 72,
    "acName": "Deeg-Kumher",
    "partNumber": 84,
    "partName": "KASOUT",
    "lat": 27.4706823,
    "lon": 77.32890660565869
  },
  {
    "partId": 19620,
    "stateCode": "S20",
    "stateName": "Rajasthan",
    "districtCode": "S2036",
    "districtName": "Deeg",
    "acNumber": 72,
    "acName": "Deeg-Kumher",
    "partNumber": 85,
    "partName": "KHAIRAPUR",
    "lat": 27.4706823,
    "lon": 77.32890660565869
  },
  {
    "partId": 19621,
    "stateCode": "S20",
    "stateName": "Rajasthan",
    "districtCode": "S2036",
    "districtName": "Deeg",
    "acNumber": 72,
    "acName": "Deeg-Kumher",
    "partNumber": 86,
    "partName": "KARAUN",
    "lat": 27.4706823,
    "lon": 77.32890660565869
  },
  {
    "partId": 19622,
    "stateCode": "S20",
    "stateName": "Rajasthan",
    "districtCode": "S2036",
    "districtName": "Deeg",
    "acNumber": 72,
    "acName": "Deeg-Kumher",
    "partNumber": 87,
    "partName": "TAMARER",
    "lat": 27.4706823,
    "lon": 77.32890660565869
  },
  {
    "partId": 19623,
    "stateCode": "S20",
    "stateName": "Rajasthan",
    "districtCode": "S2036",
    "districtName": "Deeg",
    "acNumber": 72,
    "acName": "Deeg-Kumher",
    "partNumber": 88,
    "partName": "TAMARER",
    "lat": 27.4706823,
    "lon": 77.32890660565869
  },
  {
    "partId": 19624,
    "stateCode": "S20",
    "stateName": "Rajasthan",
    "districtCode": "S2036",
    "districtName": "Deeg",
    "acNumber": 72,
    "acName": "Deeg-Kumher",
    "partNumber": 89,
    "partName": "GANGARASOULI",
    "lat": 27.4706823,
    "lon": 77.32890660565869
  },
  {
    "partId": 19625,
    "stateCode": "S20",
    "stateName": "Rajasthan",
    "districtCode": "S2036",
    "districtName": "Deeg",
    "acNumber": 72,
    "acName": "Deeg-Kumher",
    "partNumber": 90,
    "partName": "SAINT",
    "lat": 27.370281,
    "lon": 77.3582553
  },
  {
    "partId": 19626,
    "stateCode": "S20",
    "stateName": "Rajasthan",
    "districtCode": "S2036",
    "districtName": "Deeg",
    "acNumber": 72,
    "acName": "Deeg-Kumher",
    "partNumber": 91,
    "partName": "SAINT",
    "lat": 27.370281,
    "lon": 77.3582553
  },
  {
    "partId": 19627,
    "stateCode": "S20",
    "stateName": "Rajasthan",
    "districtCode": "S2036",
    "districtName": "Deeg",
    "acNumber": 72,
    "acName": "Deeg-Kumher",
    "partNumber": 92,
    "partName": "SITARA",
    "lat": 27.3721103,
    "lon": 77.3428702
  },
  {
    "partId": 19628,
    "stateCode": "S20",
    "stateName": "Rajasthan",
    "districtCode": "S2036",
    "districtName": "Deeg",
    "acNumber": 72,
    "acName": "Deeg-Kumher",
    "partNumber": 93,
    "partName": "SITARA",
    "lat": 27.3721103,
    "lon": 77.3428702
  },
  {
    "partId": 19629,
    "stateCode": "S20",
    "stateName": "Rajasthan",
    "districtCode": "S2036",
    "districtName": "Deeg",
    "acNumber": 72,
    "acName": "Deeg-Kumher",
    "partNumber": 94,
    "partName": "SAIHATI",
    "lat": 27.429744506359647,
    "lon": 77.3384529262859
  },
  {
    "partId": 19630,
    "stateCode": "S20",
    "stateName": "Rajasthan",
    "districtCode": "S2036",
    "districtName": "Deeg",
    "acNumber": 72,
    "acName": "Deeg-Kumher",
    "partNumber": 95,
    "partName": "PALA",
    "lat": 27.429744506359647,
    "lon": 77.3384529262859
  },
  {
    "partId": 19631,
    "stateCode": "S20",
    "stateName": "Rajasthan",
    "districtCode": "S2036",
    "districtName": "Deeg",
    "acNumber": 72,
    "acName": "Deeg-Kumher",
    "partNumber": 96,
    "partName": "RANADHIR PURA",
    "lat": 27.50874725,
    "lon": 77.20561222065001
  },
  {
    "partId": 19632,
    "stateCode": "S20",
    "stateName": "Rajasthan",
    "districtCode": "S2036",
    "districtName": "Deeg",
    "acNumber": 72,
    "acName": "Deeg-Kumher",
    "partNumber": 97,
    "partName": "SUPAVAS",
    "lat": 27.4706823,
    "lon": 77.32890660565869
  },
  {
    "partId": 19633,
    "stateCode": "S20",
    "stateName": "Rajasthan",
    "districtCode": "S2036",
    "districtName": "Deeg",
    "acNumber": 72,
    "acName": "Deeg-Kumher",
    "partNumber": 98,
    "partName": "VILAVATI",
    "lat": 27.4706823,
    "lon": 77.32890660565869
  },
  {
    "partId": 19634,
    "stateCode": "S20",
    "stateName": "Rajasthan",
    "districtCode": "S2036",
    "districtName": "Deeg",
    "acNumber": 72,
    "acName": "Deeg-Kumher",
    "partNumber": 99,
    "partName": "RITHOTHI",
    "lat": 27.429744506359647,
    "lon": 77.3384529262859
  },
  {
    "partId": 19635,
    "stateCode": "S20",
    "stateName": "Rajasthan",
    "districtCode": "S2036",
    "districtName": "Deeg",
    "acNumber": 72,
    "acName": "Deeg-Kumher",
    "partNumber": 100,
    "partName": "JAYA",
    "lat": 27.3507378,
    "lon": 77.3018861
  },
  {
    "partId": 19636,
    "stateCode": "S20",
    "stateName": "Rajasthan",
    "districtCode": "S2036",
    "districtName": "Deeg",
    "acNumber": 72,
    "acName": "Deeg-Kumher",
    "partNumber": 101,
    "partName": "JAHANGIRAPUR",
    "lat": 27.4706823,
    "lon": 77.32890660565869
  },
  {
    "partId": 19637,
    "stateCode": "S20",
    "stateName": "Rajasthan",
    "districtCode": "S2036",
    "districtName": "Deeg",
    "acNumber": 72,
    "acName": "Deeg-Kumher",
    "partNumber": 102,
    "partName": "PICHUMAR",
    "lat": 27.4706823,
    "lon": 77.32890660565869
  },
  {
    "partId": 19638,
    "stateCode": "S20",
    "stateName": "Rajasthan",
    "districtCode": "S2036",
    "districtName": "Deeg",
    "acNumber": 72,
    "acName": "Deeg-Kumher",
    "partNumber": 103,
    "partName": "PICHUMAR",
    "lat": 27.4706823,
    "lon": 77.32890660565869
  },
  {
    "partId": 19639,
    "stateCode": "S20",
    "stateName": "Rajasthan",
    "districtCode": "S2036",
    "districtName": "Deeg",
    "acNumber": 72,
    "acName": "Deeg-Kumher",
    "partNumber": 104,
    "partName": "BARATAI",
    "lat": 27.429744506359647,
    "lon": 77.3384529262859
  },
  {
    "partId": 19640,
    "stateCode": "S20",
    "stateName": "Rajasthan",
    "districtCode": "S2036",
    "districtName": "Deeg",
    "acNumber": 72,
    "acName": "Deeg-Kumher",
    "partNumber": 105,
    "partName": "BARATAI",
    "lat": 27.429744506359647,
    "lon": 77.3384529262859
  },
  {
    "partId": 19641,
    "stateCode": "S20",
    "stateName": "Rajasthan",
    "districtCode": "S2036",
    "districtName": "Deeg",
    "acNumber": 72,
    "acName": "Deeg-Kumher",
    "partNumber": 106,
    "partName": "USARANI",
    "lat": 27.3557216,
    "lon": 77.2728753
  },
  {
    "partId": 19642,
    "stateCode": "S20",
    "stateName": "Rajasthan",
    "districtCode": "S2036",
    "districtName": "Deeg",
    "acNumber": 72,
    "acName": "Deeg-Kumher",
    "partNumber": 107,
    "partName": "THAIRAVAR",
    "lat": 27.4706823,
    "lon": 77.32890660565869
  },
  {
    "partId": 19643,
    "stateCode": "S20",
    "stateName": "Rajasthan",
    "districtCode": "S2036",
    "districtName": "Deeg",
    "acNumber": 72,
    "acName": "Deeg-Kumher",
    "partNumber": 108,
    "partName": "THAIRAVAR",
    "lat": 27.4706823,
    "lon": 77.32890660565869
  },
  {
    "partId": 19644,
    "stateCode": "S20",
    "stateName": "Rajasthan",
    "districtCode": "S2036",
    "districtName": "Deeg",
    "acNumber": 72,
    "acName": "Deeg-Kumher",
    "partNumber": 109,
    "partName": "KURAVARA",
    "lat": 27.429744506359647,
    "lon": 77.3384529262859
  },
  {
    "partId": 19645,
    "stateCode": "S20",
    "stateName": "Rajasthan",
    "districtCode": "S2036",
    "districtName": "Deeg",
    "acNumber": 72,
    "acName": "Deeg-Kumher",
    "partNumber": 110,
    "partName": "LANKI",
    "lat": 27.3416939,
    "lon": 77.2483706
  },
  {
    "partId": 19646,
    "stateCode": "S20",
    "stateName": "Rajasthan",
    "districtCode": "S2036",
    "districtName": "Deeg",
    "acNumber": 72,
    "acName": "Deeg-Kumher",
    "partNumber": 111,
    "partName": "SAVOURA",
    "lat": 27.4706823,
    "lon": 77.32890660565869
  },
  {
    "partId": 19647,
    "stateCode": "S20",
    "stateName": "Rajasthan",
    "districtCode": "S2036",
    "districtName": "Deeg",
    "acNumber": 72,
    "acName": "Deeg-Kumher",
    "partNumber": 112,
    "partName": "SAVOURA",
    "lat": 27.4706823,
    "lon": 77.32890660565869
  },
  {
    "partId": 19648,
    "stateCode": "S20",
    "stateName": "Rajasthan",
    "districtCode": "S2036",
    "districtName": "Deeg",
    "acNumber": 72,
    "acName": "Deeg-Kumher",
    "partNumber": 113,
    "partName": "SAVOURA",
    "lat": 27.4706823,
    "lon": 77.32890660565869
  },
  {
    "partId": 19649,
    "stateCode": "S20",
    "stateName": "Rajasthan",
    "districtCode": "S2036",
    "districtName": "Deeg",
    "acNumber": 72,
    "acName": "Deeg-Kumher",
    "partNumber": 114,
    "partName": "DAHAVA",
    "lat": 27.307456,
    "lon": 77.2335863
  },
  {
    "partId": 19650,
    "stateCode": "S20",
    "stateName": "Rajasthan",
    "districtCode": "S2036",
    "districtName": "Deeg",
    "acNumber": 72,
    "acName": "Deeg-Kumher",
    "partNumber": 115,
    "partName": "PACHOURA",
    "lat": 27.4706823,
    "lon": 77.32890660565869
  },
  {
    "partId": 19651,
    "stateCode": "S20",
    "stateName": "Rajasthan",
    "districtCode": "S2036",
    "districtName": "Deeg",
    "acNumber": 72,
    "acName": "Deeg-Kumher",
    "partNumber": 116,
    "partName": "VIRAHARU",
    "lat": 27.4706823,
    "lon": 77.32890660565869
  },
  {
    "partId": 19652,
    "stateCode": "S20",
    "stateName": "Rajasthan",
    "districtCode": "S2036",
    "districtName": "Deeg",
    "acNumber": 72,
    "acName": "Deeg-Kumher",
    "partNumber": 117,
    "partName": "VIRAHARU",
    "lat": 27.4706823,
    "lon": 77.32890660565869
  },
  {
    "partId": 19653,
    "stateCode": "S20",
    "stateName": "Rajasthan",
    "districtCode": "S2036",
    "districtName": "Deeg",
    "acNumber": 72,
    "acName": "Deeg-Kumher",
    "partNumber": 118,
    "partName": "MAHARAVAR",
    "lat": 27.429744506359647,
    "lon": 77.3384529262859
  },
  {
    "partId": 19654,
    "stateCode": "S20",
    "stateName": "Rajasthan",
    "districtCode": "S2036",
    "districtName": "Deeg",
    "acNumber": 72,
    "acName": "Deeg-Kumher",
    "partNumber": 119,
    "partName": "MAHARAVAR",
    "lat": 27.4706823,
    "lon": 77.32890660565869
  },
  {
    "partId": 19655,
    "stateCode": "S20",
    "stateName": "Rajasthan",
    "districtCode": "S2036",
    "districtName": "Deeg",
    "acNumber": 72,
    "acName": "Deeg-Kumher",
    "partNumber": 120,
    "partName": "HINGOLI",
    "lat": 27.2867671,
    "lon": 77.2704506
  },
  {
    "partId": 19656,
    "stateCode": "S20",
    "stateName": "Rajasthan",
    "districtCode": "S2036",
    "districtName": "Deeg",
    "acNumber": 72,
    "acName": "Deeg-Kumher",
    "partNumber": 121,
    "partName": "ASTAVAN",
    "lat": 27.2959393,
    "lon": 77.2950411
  },
  {
    "partId": 19657,
    "stateCode": "S20",
    "stateName": "Rajasthan",
    "districtCode": "S2036",
    "districtName": "Deeg",
    "acNumber": 72,
    "acName": "Deeg-Kumher",
    "partNumber": 122,
    "partName": "ASTAVAN",
    "lat": 27.2959393,
    "lon": 77.2950411
  },
  {
    "partId": 19658,
    "stateCode": "S20",
    "stateName": "Rajasthan",
    "districtCode": "S2036",
    "districtName": "Deeg",
    "acNumber": 72,
    "acName": "Deeg-Kumher",
    "partNumber": 123,
    "partName": "ASTAVAN",
    "lat": 27.2959393,
    "lon": 77.2950411
  },
  {
    "partId": 19659,
    "stateCode": "S20",
    "stateName": "Rajasthan",
    "districtCode": "S2036",
    "districtName": "Deeg",
    "acNumber": 72,
    "acName": "Deeg-Kumher",
    "partNumber": 124,
    "partName": "PIDHI",
    "lat": 27.3081996,
    "lon": 77.3210263
  },
  {
    "partId": 19660,
    "stateCode": "S20",
    "stateName": "Rajasthan",
    "districtCode": "S2036",
    "districtName": "Deeg",
    "acNumber": 72,
    "acName": "Deeg-Kumher",
    "partNumber": 125,
    "partName": "KHEDA KAROLI",
    "lat": 27.4706823,
    "lon": 77.32890660565869
  },
  {
    "partId": 19661,
    "stateCode": "S20",
    "stateName": "Rajasthan",
    "districtCode": "S2036",
    "districtName": "Deeg",
    "acNumber": 72,
    "acName": "Deeg-Kumher",
    "partNumber": 126,
    "partName": "SIKARORA",
    "lat": 27.317332,
    "lon": 77.3411107
  },
  {
    "partId": 19662,
    "stateCode": "S20",
    "stateName": "Rajasthan",
    "districtCode": "S2036",
    "districtName": "Deeg",
    "acNumber": 72,
    "acName": "Deeg-Kumher",
    "partNumber": 127,
    "partName": "SIKARORI",
    "lat": 27.3201916,
    "lon": 77.3465824
  },
  {
    "partId": 19663,
    "stateCode": "S20",
    "stateName": "Rajasthan",
    "districtCode": "S2036",
    "districtName": "Deeg",
    "acNumber": 72,
    "acName": "Deeg-Kumher",
    "partNumber": 128,
    "partName": "SIKARORI",
    "lat": 27.3201916,
    "lon": 77.3465824
  },
  {
    "partId": 19664,
    "stateCode": "S20",
    "stateName": "Rajasthan",
    "districtCode": "S2036",
    "districtName": "Deeg",
    "acNumber": 72,
    "acName": "Deeg-Kumher",
    "partNumber": 129,
    "partName": "KUMHER",
    "lat": 27.3152709,
    "lon": 77.3789964
  },
  {
    "partId": 19665,
    "stateCode": "S20",
    "stateName": "Rajasthan",
    "districtCode": "S2036",
    "districtName": "Deeg",
    "acNumber": 72,
    "acName": "Deeg-Kumher",
    "partNumber": 130,
    "partName": "KUMHER",
    "lat": 27.3152709,
    "lon": 77.3789964
  },
  {
    "partId": 19666,
    "stateCode": "S20",
    "stateName": "Rajasthan",
    "districtCode": "S2036",
    "districtName": "Deeg",
    "acNumber": 72,
    "acName": "Deeg-Kumher",
    "partNumber": 131,
    "partName": "KUMHER",
    "lat": 27.3152709,
    "lon": 77.3789964
  },
  {
    "partId": 19667,
    "stateCode": "S20",
    "stateName": "Rajasthan",
    "districtCode": "S2036",
    "districtName": "Deeg",
    "acNumber": 72,
    "acName": "Deeg-Kumher",
    "partNumber": 132,
    "partName": "KUMHER",
    "lat": 27.3152709,
    "lon": 77.3789964
  },
  {
    "partId": 19668,
    "stateCode": "S20",
    "stateName": "Rajasthan",
    "districtCode": "S2036",
    "districtName": "Deeg",
    "acNumber": 72,
    "acName": "Deeg-Kumher",
    "partNumber": 133,
    "partName": "KUMHER",
    "lat": 27.3152709,
    "lon": 77.3789964
  },
  {
    "partId": 51425,
    "stateCode": "S20",
    "stateName": "Rajasthan",
    "districtCode": "S2036",
    "districtName": "Deeg",
    "acNumber": 72,
    "acName": "Deeg-Kumher",
    "partNumber": 134,
    "partName": "URBAN KUMHER",
    "lat": 27.4706823,
    "lon": 77.32890660565869
  },
  {
    "partId": 19669,
    "stateCode": "S20",
    "stateName": "Rajasthan",
    "districtCode": "S2036",
    "districtName": "Deeg",
    "acNumber": 72,
    "acName": "Deeg-Kumher",
    "partNumber": 135,
    "partName": "KUMHER",
    "lat": 27.3152709,
    "lon": 77.3789964
  },
  {
    "partId": 19670,
    "stateCode": "S20",
    "stateName": "Rajasthan",
    "districtCode": "S2036",
    "districtName": "Deeg",
    "acNumber": 72,
    "acName": "Deeg-Kumher",
    "partNumber": 136,
    "partName": "KUMHER",
    "lat": 27.3152709,
    "lon": 77.3789964
  },
  {
    "partId": 19671,
    "stateCode": "S20",
    "stateName": "Rajasthan",
    "districtCode": "S2036",
    "districtName": "Deeg",
    "acNumber": 72,
    "acName": "Deeg-Kumher",
    "partNumber": 137,
    "partName": "KUMHER",
    "lat": 27.429744506359647,
    "lon": 77.3384529262859
  },
  {
    "partId": 19672,
    "stateCode": "S20",
    "stateName": "Rajasthan",
    "districtCode": "S2036",
    "districtName": "Deeg",
    "acNumber": 72,
    "acName": "Deeg-Kumher",
    "partNumber": 138,
    "partName": "KUMHER",
    "lat": 27.3152709,
    "lon": 77.3789964
  },
  {
    "partId": 19673,
    "stateCode": "S20",
    "stateName": "Rajasthan",
    "districtCode": "S2036",
    "districtName": "Deeg",
    "acNumber": 72,
    "acName": "Deeg-Kumher",
    "partNumber": 139,
    "partName": "KUMHER",
    "lat": 27.3152709,
    "lon": 77.3789964
  },
  {
    "partId": 19674,
    "stateCode": "S20",
    "stateName": "Rajasthan",
    "districtCode": "S2036",
    "districtName": "Deeg",
    "acNumber": 72,
    "acName": "Deeg-Kumher",
    "partNumber": 140,
    "partName": "KUMHER",
    "lat": 27.3152709,
    "lon": 77.3789964
  },
  {
    "partId": 19675,
    "stateCode": "S20",
    "stateName": "Rajasthan",
    "districtCode": "S2036",
    "districtName": "Deeg",
    "acNumber": 72,
    "acName": "Deeg-Kumher",
    "partNumber": 141,
    "partName": "KUMHER",
    "lat": 27.50874725,
    "lon": 77.20561222065001
  },
  {
    "partId": 19676,
    "stateCode": "S20",
    "stateName": "Rajasthan",
    "districtCode": "S2036",
    "districtName": "Deeg",
    "acNumber": 72,
    "acName": "Deeg-Kumher",
    "partNumber": 142,
    "partName": "KUMHA",
    "lat": 27.50874725,
    "lon": 77.20561222065001
  },
  {
    "partId": 19677,
    "stateCode": "S20",
    "stateName": "Rajasthan",
    "districtCode": "S2036",
    "districtName": "Deeg",
    "acNumber": 72,
    "acName": "Deeg-Kumher",
    "partNumber": 143,
    "partName": "KUMHA",
    "lat": 27.4706823,
    "lon": 77.32890660565869
  },
  {
    "partId": 19678,
    "stateCode": "S20",
    "stateName": "Rajasthan",
    "districtCode": "S2036",
    "districtName": "Deeg",
    "acNumber": 72,
    "acName": "Deeg-Kumher",
    "partNumber": 144,
    "partName": "INDU",
    "lat": 27.4706823,
    "lon": 77.32890660565869
  },
  {
    "partId": 19679,
    "stateCode": "S20",
    "stateName": "Rajasthan",
    "districtCode": "S2036",
    "districtName": "Deeg",
    "acNumber": 72,
    "acName": "Deeg-Kumher",
    "partNumber": 145,
    "partName": "DIDAVARI",
    "lat": 27.3915259,
    "lon": 77.4218774
  },
  {
    "partId": 19680,
    "stateCode": "S20",
    "stateName": "Rajasthan",
    "districtCode": "S2036",
    "districtName": "Deeg",
    "acNumber": 72,
    "acName": "Deeg-Kumher",
    "partNumber": 146,
    "partName": "TALAPHARA",
    "lat": 27.3756164,
    "lon": 77.455641
  },
  {
    "partId": 19681,
    "stateCode": "S20",
    "stateName": "Rajasthan",
    "districtCode": "S2036",
    "districtName": "Deeg",
    "acNumber": 72,
    "acName": "Deeg-Kumher",
    "partNumber": 147,
    "partName": "TALAPHARA",
    "lat": 27.3756164,
    "lon": 77.455641
  },
  {
    "partId": 19682,
    "stateCode": "S20",
    "stateName": "Rajasthan",
    "districtCode": "S2036",
    "districtName": "Deeg",
    "acNumber": 72,
    "acName": "Deeg-Kumher",
    "partNumber": 148,
    "partName": "TALAPHARA",
    "lat": 27.3756164,
    "lon": 77.455641
  },
  {
    "partId": 19683,
    "stateCode": "S20",
    "stateName": "Rajasthan",
    "districtCode": "S2036",
    "districtName": "Deeg",
    "acNumber": 72,
    "acName": "Deeg-Kumher",
    "partNumber": 149,
    "partName": "ABHOURRA",
    "lat": 27.4706823,
    "lon": 77.32890660565869
  },
  {
    "partId": 19684,
    "stateCode": "S20",
    "stateName": "Rajasthan",
    "districtCode": "S2036",
    "districtName": "Deeg",
    "acNumber": 72,
    "acName": "Deeg-Kumher",
    "partNumber": 150,
    "partName": "ABHOURRA",
    "lat": 27.50874725,
    "lon": 77.20561222065001
  },
  {
    "partId": 19685,
    "stateCode": "S20",
    "stateName": "Rajasthan",
    "districtCode": "S2036",
    "districtName": "Deeg",
    "acNumber": 72,
    "acName": "Deeg-Kumher",
    "partNumber": 151,
    "partName": "ABHOURRA",
    "lat": 27.4706823,
    "lon": 77.32890660565869
  },
  {
    "partId": 19686,
    "stateCode": "S20",
    "stateName": "Rajasthan",
    "districtCode": "S2036",
    "districtName": "Deeg",
    "acNumber": 72,
    "acName": "Deeg-Kumher",
    "partNumber": 152,
    "partName": "SUNARI",
    "lat": 27.3333642,
    "lon": 77.4445367
  },
  {
    "partId": 19687,
    "stateCode": "S20",
    "stateName": "Rajasthan",
    "districtCode": "S2036",
    "districtName": "Deeg",
    "acNumber": 72,
    "acName": "Deeg-Kumher",
    "partNumber": 153,
    "partName": "KHAN",
    "lat": 27.3347938,
    "lon": 77.4103331
  },
  {
    "partId": 19688,
    "stateCode": "S20",
    "stateName": "Rajasthan",
    "districtCode": "S2036",
    "districtName": "Deeg",
    "acNumber": 72,
    "acName": "Deeg-Kumher",
    "partNumber": 154,
    "partName": "PAINGHOR",
    "lat": 27.4706823,
    "lon": 77.32890660565869
  },
  {
    "partId": 19689,
    "stateCode": "S20",
    "stateName": "Rajasthan",
    "districtCode": "S2036",
    "districtName": "Deeg",
    "acNumber": 72,
    "acName": "Deeg-Kumher",
    "partNumber": 155,
    "partName": "PENGOR",
    "lat": 27.4706823,
    "lon": 77.32890660565869
  },
  {
    "partId": 19690,
    "stateCode": "S20",
    "stateName": "Rajasthan",
    "districtCode": "S2036",
    "districtName": "Deeg",
    "acNumber": 72,
    "acName": "Deeg-Kumher",
    "partNumber": 156,
    "partName": "LAKHAN",
    "lat": 27.3291514,
    "lon": 77.4117493
  },
  {
    "partId": 19691,
    "stateCode": "S20",
    "stateName": "Rajasthan",
    "districtCode": "S2036",
    "districtName": "Deeg",
    "acNumber": 72,
    "acName": "Deeg-Kumher",
    "partNumber": 157,
    "partName": "LAKHAN",
    "lat": 27.3291514,
    "lon": 77.4117493
  },
  {
    "partId": 19692,
    "stateCode": "S20",
    "stateName": "Rajasthan",
    "districtCode": "S2036",
    "districtName": "Deeg",
    "acNumber": 72,
    "acName": "Deeg-Kumher",
    "partNumber": 158,
    "partName": "SUROUTA",
    "lat": 27.4706823,
    "lon": 77.32890660565869
  },
  {
    "partId": 19693,
    "stateCode": "S20",
    "stateName": "Rajasthan",
    "districtCode": "S2036",
    "districtName": "Deeg",
    "acNumber": 72,
    "acName": "Deeg-Kumher",
    "partNumber": 159,
    "partName": "ADHAIYA KHURD",
    "lat": 27.3110023,
    "lon": 77.4075866
  },
  {
    "partId": 19694,
    "stateCode": "S20",
    "stateName": "Rajasthan",
    "districtCode": "S2036",
    "districtName": "Deeg",
    "acNumber": 72,
    "acName": "Deeg-Kumher",
    "partNumber": 160,
    "partName": "BAILARA KALA",
    "lat": 27.4706823,
    "lon": 77.32890660565869
  },
  {
    "partId": 19695,
    "stateCode": "S20",
    "stateName": "Rajasthan",
    "districtCode": "S2036",
    "districtName": "Deeg",
    "acNumber": 72,
    "acName": "Deeg-Kumher",
    "partNumber": 161,
    "partName": "BAILARA KALA",
    "lat": 27.4706823,
    "lon": 77.32890660565869
  },
  {
    "partId": 19696,
    "stateCode": "S20",
    "stateName": "Rajasthan",
    "districtCode": "S2036",
    "districtName": "Deeg",
    "acNumber": 72,
    "acName": "Deeg-Kumher",
    "partNumber": 162,
    "partName": "SIRASAI",
    "lat": 27.4706823,
    "lon": 77.32890660565869
  },
  {
    "partId": 19697,
    "stateCode": "S20",
    "stateName": "Rajasthan",
    "districtCode": "S2036",
    "districtName": "Deeg",
    "acNumber": 72,
    "acName": "Deeg-Kumher",
    "partNumber": 163,
    "partName": "DHANAVADA",
    "lat": 27.2937274,
    "lon": 77.3656153
  },
  {
    "partId": 19698,
    "stateCode": "S20",
    "stateName": "Rajasthan",
    "districtCode": "S2036",
    "districtName": "Deeg",
    "acNumber": 72,
    "acName": "Deeg-Kumher",
    "partNumber": 164,
    "partName": "DHANAVADA",
    "lat": 27.2937274,
    "lon": 77.3656153
  },
  {
    "partId": 19699,
    "stateCode": "S20",
    "stateName": "Rajasthan",
    "districtCode": "S2036",
    "districtName": "Deeg",
    "acNumber": 72,
    "acName": "Deeg-Kumher",
    "partNumber": 165,
    "partName": "NAGALA MANA",
    "lat": 27.4706823,
    "lon": 77.32890660565869
  },
  {
    "partId": 19700,
    "stateCode": "S20",
    "stateName": "Rajasthan",
    "districtCode": "S2036",
    "districtName": "Deeg",
    "acNumber": 72,
    "acName": "Deeg-Kumher",
    "partNumber": 166,
    "partName": "KISHAN PURA",
    "lat": 27.4706823,
    "lon": 77.32890660565869
  },
  {
    "partId": 19701,
    "stateCode": "S20",
    "stateName": "Rajasthan",
    "districtCode": "S2036",
    "districtName": "Deeg",
    "acNumber": 72,
    "acName": "Deeg-Kumher",
    "partNumber": 167,
    "partName": "PANUTH",
    "lat": 27.4706823,
    "lon": 77.32890660565869
  },
  {
    "partId": 19702,
    "stateCode": "S20",
    "stateName": "Rajasthan",
    "districtCode": "S2036",
    "districtName": "Deeg",
    "acNumber": 72,
    "acName": "Deeg-Kumher",
    "partNumber": 168,
    "partName": "PADOLA",
    "lat": 27.2613058,
    "lon": 77.3018217
  },
  {
    "partId": 19703,
    "stateCode": "S20",
    "stateName": "Rajasthan",
    "districtCode": "S2036",
    "districtName": "Deeg",
    "acNumber": 72,
    "acName": "Deeg-Kumher",
    "partNumber": 169,
    "partName": "GUHAVALI",
    "lat": 27.4706823,
    "lon": 77.32890660565869
  },
  {
    "partId": 19704,
    "stateCode": "S20",
    "stateName": "Rajasthan",
    "districtCode": "S2036",
    "districtName": "Deeg",
    "acNumber": 72,
    "acName": "Deeg-Kumher",
    "partNumber": 170,
    "partName": "GUDAVALI",
    "lat": 27.4706823,
    "lon": 77.32890660565869
  },
  {
    "partId": 19705,
    "stateCode": "S20",
    "stateName": "Rajasthan",
    "districtCode": "S2036",
    "districtName": "Deeg",
    "acNumber": 72,
    "acName": "Deeg-Kumher",
    "partNumber": 171,
    "partName": "BANSAROLI",
    "lat": 27.4706823,
    "lon": 77.32890660565869
  },
  {
    "partId": 19706,
    "stateCode": "S20",
    "stateName": "Rajasthan",
    "districtCode": "S2036",
    "districtName": "Deeg",
    "acNumber": 72,
    "acName": "Deeg-Kumher",
    "partNumber": 172,
    "partName": "BHATAVALI",
    "lat": 27.2362012,
    "lon": 77.281394
  },
  {
    "partId": 19707,
    "stateCode": "S20",
    "stateName": "Rajasthan",
    "districtCode": "S2036",
    "districtName": "Deeg",
    "acNumber": 72,
    "acName": "Deeg-Kumher",
    "partNumber": 173,
    "partName": "BHATAVALI",
    "lat": 27.50874725,
    "lon": 77.20561222065001
  },
  {
    "partId": 19708,
    "stateCode": "S20",
    "stateName": "Rajasthan",
    "districtCode": "S2036",
    "districtName": "Deeg",
    "acNumber": 72,
    "acName": "Deeg-Kumher",
    "partNumber": 174,
    "partName": "BHATAVALI",
    "lat": 27.2362012,
    "lon": 77.281394
  },
  {
    "partId": 19709,
    "stateCode": "S20",
    "stateName": "Rajasthan",
    "districtCode": "S2036",
    "districtName": "Deeg",
    "acNumber": 72,
    "acName": "Deeg-Kumher",
    "partNumber": 175,
    "partName": "BANI",
    "lat": 27.2445382,
    "lon": 77.2979593
  },
  {
    "partId": 19710,
    "stateCode": "S20",
    "stateName": "Rajasthan",
    "districtCode": "S2036",
    "districtName": "Deeg",
    "acNumber": 72,
    "acName": "Deeg-Kumher",
    "partNumber": 176,
    "partName": "PAPARERA",
    "lat": 27.4706823,
    "lon": 77.32890660565869
  },
  {
    "partId": 19711,
    "stateCode": "S20",
    "stateName": "Rajasthan",
    "districtCode": "S2036",
    "districtName": "Deeg",
    "acNumber": 72,
    "acName": "Deeg-Kumher",
    "partNumber": 177,
    "partName": "PAPARERA",
    "lat": 27.4706823,
    "lon": 77.32890660565869
  },
  {
    "partId": 19712,
    "stateCode": "S20",
    "stateName": "Rajasthan",
    "districtCode": "S2036",
    "districtName": "Deeg",
    "acNumber": 72,
    "acName": "Deeg-Kumher",
    "partNumber": 178,
    "partName": "BASOKAR",
    "lat": 27.4706823,
    "lon": 77.32890660565869
  },
  {
    "partId": 19713,
    "stateCode": "S20",
    "stateName": "Rajasthan",
    "districtCode": "S2036",
    "districtName": "Deeg",
    "acNumber": 72,
    "acName": "Deeg-Kumher",
    "partNumber": 179,
    "partName": "KHANSAVADA",
    "lat": 27.4706823,
    "lon": 77.32890660565869
  },
  {
    "partId": 19714,
    "stateCode": "S20",
    "stateName": "Rajasthan",
    "districtCode": "S2036",
    "districtName": "Deeg",
    "acNumber": 72,
    "acName": "Deeg-Kumher",
    "partNumber": 180,
    "partName": "SOUNERA",
    "lat": 27.4706823,
    "lon": 77.32890660565869
  },
  {
    "partId": 19715,
    "stateCode": "S20",
    "stateName": "Rajasthan",
    "districtCode": "S2036",
    "districtName": "Deeg",
    "acNumber": 72,
    "acName": "Deeg-Kumher",
    "partNumber": 181,
    "partName": "SIHI",
    "lat": 27.2416766,
    "lon": 77.3261332
  },
  {
    "partId": 19716,
    "stateCode": "S20",
    "stateName": "Rajasthan",
    "districtCode": "S2036",
    "districtName": "Deeg",
    "acNumber": 72,
    "acName": "Deeg-Kumher",
    "partNumber": 182,
    "partName": "AJAUN",
    "lat": 27.4706823,
    "lon": 77.32890660565869
  },
  {
    "partId": 19717,
    "stateCode": "S20",
    "stateName": "Rajasthan",
    "districtCode": "S2036",
    "districtName": "Deeg",
    "acNumber": 72,
    "acName": "Deeg-Kumher",
    "partNumber": 183,
    "partName": "AJAUN",
    "lat": 27.4706823,
    "lon": 77.32890660565869
  },
  {
    "partId": 19718,
    "stateCode": "S20",
    "stateName": "Rajasthan",
    "districtCode": "S2036",
    "districtName": "Deeg",
    "acNumber": 72,
    "acName": "Deeg-Kumher",
    "partNumber": 184,
    "partName": "PAHUAN",
    "lat": 27.4706823,
    "lon": 77.32890660565869
  },
  {
    "partId": 19719,
    "stateCode": "S20",
    "stateName": "Rajasthan",
    "districtCode": "S2036",
    "districtName": "Deeg",
    "acNumber": 72,
    "acName": "Deeg-Kumher",
    "partNumber": 185,
    "partName": "RUNDH HELAK",
    "lat": 27.4706823,
    "lon": 77.32890660565869
  },
  {
    "partId": 19720,
    "stateCode": "S20",
    "stateName": "Rajasthan",
    "districtCode": "S2036",
    "districtName": "Deeg",
    "acNumber": 72,
    "acName": "Deeg-Kumher",
    "partNumber": 186,
    "partName": "VIJAY NAGAR",
    "lat": 27.50874725,
    "lon": 77.20561222065001
  },
  {
    "partId": 19721,
    "stateCode": "S20",
    "stateName": "Rajasthan",
    "districtCode": "S2036",
    "districtName": "Deeg",
    "acNumber": 72,
    "acName": "Deeg-Kumher",
    "partNumber": 187,
    "partName": "VIJAY NAGAR",
    "lat": 27.4706823,
    "lon": 77.32890660565869
  },
  {
    "partId": 19722,
    "stateCode": "S20",
    "stateName": "Rajasthan",
    "districtCode": "S2036",
    "districtName": "Deeg",
    "acNumber": 72,
    "acName": "Deeg-Kumher",
    "partNumber": 188,
    "partName": "CHOUKI PURA",
    "lat": 27.4706823,
    "lon": 77.32890660565869
  },
  {
    "partId": 19723,
    "stateCode": "S20",
    "stateName": "Rajasthan",
    "districtCode": "S2036",
    "districtName": "Deeg",
    "acNumber": 72,
    "acName": "Deeg-Kumher",
    "partNumber": 189,
    "partName": "KANCHAN PURA",
    "lat": 27.4706823,
    "lon": 77.32890660565869
  },
  {
    "partId": 19724,
    "stateCode": "S20",
    "stateName": "Rajasthan",
    "districtCode": "S2036",
    "districtName": "Deeg",
    "acNumber": 72,
    "acName": "Deeg-Kumher",
    "partNumber": 190,
    "partName": "HELAK",
    "lat": 27.2251351,
    "lon": 77.3708295
  },
  {
    "partId": 19725,
    "stateCode": "S20",
    "stateName": "Rajasthan",
    "districtCode": "S2036",
    "districtName": "Deeg",
    "acNumber": 72,
    "acName": "Deeg-Kumher",
    "partNumber": 191,
    "partName": "HELAK",
    "lat": 27.2251351,
    "lon": 77.3708295
  },
  {
    "partId": 19726,
    "stateCode": "S20",
    "stateName": "Rajasthan",
    "districtCode": "S2036",
    "districtName": "Deeg",
    "acNumber": 72,
    "acName": "Deeg-Kumher",
    "partNumber": 192,
    "partName": "HELAK",
    "lat": 27.2251351,
    "lon": 77.3708295
  },
  {
    "partId": 19727,
    "stateCode": "S20",
    "stateName": "Rajasthan",
    "districtCode": "S2036",
    "districtName": "Deeg",
    "acNumber": 72,
    "acName": "Deeg-Kumher",
    "partNumber": 193,
    "partName": "NAGALA GOLA SINGH HELAK",
    "lat": 27.4706823,
    "lon": 77.32890660565869
  },
  {
    "partId": 19728,
    "stateCode": "S20",
    "stateName": "Rajasthan",
    "districtCode": "S2036",
    "districtName": "Deeg",
    "acNumber": 72,
    "acName": "Deeg-Kumher",
    "partNumber": 194,
    "partName": "BAVAIN",
    "lat": 27.4706823,
    "lon": 77.32890660565869
  },
  {
    "partId": 19729,
    "stateCode": "S20",
    "stateName": "Rajasthan",
    "districtCode": "S2036",
    "districtName": "Deeg",
    "acNumber": 72,
    "acName": "Deeg-Kumher",
    "partNumber": 195,
    "partName": "BAVAIN",
    "lat": 27.4706823,
    "lon": 77.32890660565869
  },
  {
    "partId": 19730,
    "stateCode": "S20",
    "stateName": "Rajasthan",
    "districtCode": "S2036",
    "districtName": "Deeg",
    "acNumber": 72,
    "acName": "Deeg-Kumher",
    "partNumber": 196,
    "partName": "SAIH",
    "lat": 27.4706823,
    "lon": 77.32890660565869
  },
  {
    "partId": 19731,
    "stateCode": "S20",
    "stateName": "Rajasthan",
    "districtCode": "S2036",
    "districtName": "Deeg",
    "acNumber": 72,
    "acName": "Deeg-Kumher",
    "partNumber": 197,
    "partName": "SAIH",
    "lat": 27.4706823,
    "lon": 77.32890660565869
  },
  {
    "partId": 19732,
    "stateCode": "S20",
    "stateName": "Rajasthan",
    "districtCode": "S2036",
    "districtName": "Deeg",
    "acNumber": 72,
    "acName": "Deeg-Kumher",
    "partNumber": 198,
    "partName": "BOURAI",
    "lat": 27.4706823,
    "lon": 77.32890660565869
  },
  {
    "partId": 19733,
    "stateCode": "S20",
    "stateName": "Rajasthan",
    "districtCode": "S2036",
    "districtName": "Deeg",
    "acNumber": 72,
    "acName": "Deeg-Kumher",
    "partNumber": 199,
    "partName": "NAGALA MAJHI",
    "lat": 27.2747333,
    "lon": 77.4224567
  },
  {
    "partId": 19734,
    "stateCode": "S20",
    "stateName": "Rajasthan",
    "districtCode": "S2036",
    "districtName": "Deeg",
    "acNumber": 72,
    "acName": "Deeg-Kumher",
    "partNumber": 200,
    "partName": "NAGALA JODH SINGH",
    "lat": 27.4706823,
    "lon": 77.32890660565869
  },
  {
    "partId": 19735,
    "stateCode": "S20",
    "stateName": "Rajasthan",
    "districtCode": "S2036",
    "districtName": "Deeg",
    "acNumber": 72,
    "acName": "Deeg-Kumher",
    "partNumber": 201,
    "partName": "DAHARA",
    "lat": 27.2952243,
    "lon": 77.4429595
  },
  {
    "partId": 19736,
    "stateCode": "S20",
    "stateName": "Rajasthan",
    "districtCode": "S2036",
    "districtName": "Deeg",
    "acNumber": 72,
    "acName": "Deeg-Kumher",
    "partNumber": 202,
    "partName": "DAHARA",
    "lat": 27.2952243,
    "lon": 77.4429595
  },
  {
    "partId": 19737,
    "stateCode": "S20",
    "stateName": "Rajasthan",
    "districtCode": "S2036",
    "districtName": "Deeg",
    "acNumber": 72,
    "acName": "Deeg-Kumher",
    "partNumber": 203,
    "partName": "NAGALA SAWAI RAM",
    "lat": 27.4706823,
    "lon": 77.32890660565869
  },
  {
    "partId": 19738,
    "stateCode": "S20",
    "stateName": "Rajasthan",
    "districtCode": "S2036",
    "districtName": "Deeg",
    "acNumber": 72,
    "acName": "Deeg-Kumher",
    "partNumber": 204,
    "partName": "VAILARA KHURD",
    "lat": 27.4706823,
    "lon": 77.32890660565869
  },
  {
    "partId": 19739,
    "stateCode": "S20",
    "stateName": "Rajasthan",
    "districtCode": "S2036",
    "districtName": "Deeg",
    "acNumber": 72,
    "acName": "Deeg-Kumher",
    "partNumber": 205,
    "partName": "AVAR",
    "lat": 27.4706823,
    "lon": 77.32890660565869
  },
  {
    "partId": 19740,
    "stateCode": "S20",
    "stateName": "Rajasthan",
    "districtCode": "S2036",
    "districtName": "Deeg",
    "acNumber": 72,
    "acName": "Deeg-Kumher",
    "partNumber": 206,
    "partName": "AVAR",
    "lat": 27.4706823,
    "lon": 77.32890660565869
  },
  {
    "partId": 19741,
    "stateCode": "S20",
    "stateName": "Rajasthan",
    "districtCode": "S2036",
    "districtName": "Deeg",
    "acNumber": 72,
    "acName": "Deeg-Kumher",
    "partNumber": 207,
    "partName": "AVAR",
    "lat": 27.4706823,
    "lon": 77.32890660565869
  },
  {
    "partId": 19742,
    "stateCode": "S20",
    "stateName": "Rajasthan",
    "districtCode": "S2036",
    "districtName": "Deeg",
    "acNumber": 72,
    "acName": "Deeg-Kumher",
    "partNumber": 208,
    "partName": "AVAR",
    "lat": 27.4706823,
    "lon": 77.32890660565869
  },
  {
    "partId": 19743,
    "stateCode": "S20",
    "stateName": "Rajasthan",
    "districtCode": "S2036",
    "districtName": "Deeg",
    "acNumber": 72,
    "acName": "Deeg-Kumher",
    "partNumber": 209,
    "partName": "SOGAR",
    "lat": 27.2793296,
    "lon": 77.4884605
  },
  {
    "partId": 19744,
    "stateCode": "S20",
    "stateName": "Rajasthan",
    "districtCode": "S2036",
    "districtName": "Deeg",
    "acNumber": 72,
    "acName": "Deeg-Kumher",
    "partNumber": 210,
    "partName": "SOGAR",
    "lat": 27.2793296,
    "lon": 77.4884605
  },
  {
    "partId": 19745,
    "stateCode": "S20",
    "stateName": "Rajasthan",
    "districtCode": "S2036",
    "districtName": "Deeg",
    "acNumber": 72,
    "acName": "Deeg-Kumher",
    "partNumber": 211,
    "partName": "SOGAR",
    "lat": 27.2793296,
    "lon": 77.4884605
  },
  {
    "partId": 19746,
    "stateCode": "S20",
    "stateName": "Rajasthan",
    "districtCode": "S2036",
    "districtName": "Deeg",
    "acNumber": 72,
    "acName": "Deeg-Kumher",
    "partNumber": 212,
    "partName": "NAGALA JIVANA",
    "lat": 27.2745426,
    "lon": 77.476294
  },
  {
    "partId": 19747,
    "stateCode": "S20",
    "stateName": "Rajasthan",
    "districtCode": "S2036",
    "districtName": "Deeg",
    "acNumber": 72,
    "acName": "Deeg-Kumher",
    "partNumber": 213,
    "partName": "UBAR",
    "lat": 27.4706823,
    "lon": 77.32890660565869
  },
  {
    "partId": 19748,
    "stateCode": "S20",
    "stateName": "Rajasthan",
    "districtCode": "S2036",
    "districtName": "Deeg",
    "acNumber": 72,
    "acName": "Deeg-Kumher",
    "partNumber": 214,
    "partName": "UBAR",
    "lat": 27.4706823,
    "lon": 77.32890660565869
  },
  {
    "partId": 19749,
    "stateCode": "S20",
    "stateName": "Rajasthan",
    "districtCode": "S2036",
    "districtName": "Deeg",
    "acNumber": 72,
    "acName": "Deeg-Kumher",
    "partNumber": 215,
    "partName": "LUDHAVADA",
    "lat": 27.4706823,
    "lon": 77.32890660565869
  },
  {
    "partId": 19750,
    "stateCode": "S20",
    "stateName": "Rajasthan",
    "districtCode": "S2036",
    "districtName": "Deeg",
    "acNumber": 72,
    "acName": "Deeg-Kumher",
    "partNumber": 216,
    "partName": "AJAN",
    "lat": 27.3389111,
    "lon": 77.493782
  },
  {
    "partId": 19751,
    "stateCode": "S20",
    "stateName": "Rajasthan",
    "districtCode": "S2036",
    "districtName": "Deeg",
    "acNumber": 72,
    "acName": "Deeg-Kumher",
    "partNumber": 217,
    "partName": "AJAN",
    "lat": 27.3389111,
    "lon": 77.493782
  },
  {
    "partId": 19752,
    "stateCode": "S20",
    "stateName": "Rajasthan",
    "districtCode": "S2036",
    "districtName": "Deeg",
    "acNumber": 72,
    "acName": "Deeg-Kumher",
    "partNumber": 218,
    "partName": "AJAN",
    "lat": 27.3389111,
    "lon": 77.493782
  },
  {
    "partId": 19753,
    "stateCode": "S20",
    "stateName": "Rajasthan",
    "districtCode": "S2036",
    "districtName": "Deeg",
    "acNumber": 72,
    "acName": "Deeg-Kumher",
    "partNumber": 219,
    "partName": "NAGALA AJAN KHURD",
    "lat": 27.50874725,
    "lon": 77.20561222065001
  },
  {
    "partId": 19754,
    "stateCode": "S20",
    "stateName": "Rajasthan",
    "districtCode": "S2036",
    "districtName": "Deeg",
    "acNumber": 72,
    "acName": "Deeg-Kumher",
    "partNumber": 220,
    "partName": "NAGAL KALAN AJAN",
    "lat": 27.4706823,
    "lon": 77.32890660565869
  },
  {
    "partId": 19755,
    "stateCode": "S20",
    "stateName": "Rajasthan",
    "districtCode": "S2036",
    "districtName": "Deeg",
    "acNumber": 72,
    "acName": "Deeg-Kumher",
    "partNumber": 221,
    "partName": "GUNASARA",
    "lat": 27.4706823,
    "lon": 77.32890660565869
  },
  {
    "partId": 19756,
    "stateCode": "S20",
    "stateName": "Rajasthan",
    "districtCode": "S2036",
    "districtName": "Deeg",
    "acNumber": 72,
    "acName": "Deeg-Kumher",
    "partNumber": 222,
    "partName": "GUNASARA",
    "lat": 27.50874725,
    "lon": 77.20561222065001
  },
  {
    "partId": 19757,
    "stateCode": "S20",
    "stateName": "Rajasthan",
    "districtCode": "S2036",
    "districtName": "Deeg",
    "acNumber": 72,
    "acName": "Deeg-Kumher",
    "partNumber": 223,
    "partName": "GUNASARA",
    "lat": 27.4706823,
    "lon": 77.32890660565869
  },
  {
    "partId": 19758,
    "stateCode": "S20",
    "stateName": "Rajasthan",
    "districtCode": "S2036",
    "districtName": "Deeg",
    "acNumber": 72,
    "acName": "Deeg-Kumher",
    "partNumber": 224,
    "partName": "GUNASARA",
    "lat": 27.4706823,
    "lon": 77.32890660565869
  },
  {
    "partId": 19759,
    "stateCode": "S20",
    "stateName": "Rajasthan",
    "districtCode": "S2036",
    "districtName": "Deeg",
    "acNumber": 72,
    "acName": "Deeg-Kumher",
    "partNumber": 225,
    "partName": "TAKHA",
    "lat": 27.50874725,
    "lon": 77.20561222065001
  },
  {
    "partId": 19760,
    "stateCode": "S20",
    "stateName": "Rajasthan",
    "districtCode": "S2036",
    "districtName": "Deeg",
    "acNumber": 72,
    "acName": "Deeg-Kumher",
    "partNumber": 226,
    "partName": "TAKHA",
    "lat": 27.3423039,
    "lon": 77.5311184
  },
  {
    "partId": 19761,
    "stateCode": "S20",
    "stateName": "Rajasthan",
    "districtCode": "S2036",
    "districtName": "Deeg",
    "acNumber": 72,
    "acName": "Deeg-Kumher",
    "partNumber": 227,
    "partName": "TAKHA",
    "lat": 27.3423039,
    "lon": 77.5311184
  },
  {
    "partId": 19762,
    "stateCode": "S20",
    "stateName": "Rajasthan",
    "districtCode": "S2036",
    "districtName": "Deeg",
    "acNumber": 72,
    "acName": "Deeg-Kumher",
    "partNumber": 228,
    "partName": "RARAH",
    "lat": 27.3213831,
    "lon": 77.5589919
  },
  {
    "partId": 19763,
    "stateCode": "S20",
    "stateName": "Rajasthan",
    "districtCode": "S2036",
    "districtName": "Deeg",
    "acNumber": 72,
    "acName": "Deeg-Kumher",
    "partNumber": 229,
    "partName": "RARAH",
    "lat": 27.3213831,
    "lon": 77.5589919
  },
  {
    "partId": 19764,
    "stateCode": "S20",
    "stateName": "Rajasthan",
    "districtCode": "S2036",
    "districtName": "Deeg",
    "acNumber": 72,
    "acName": "Deeg-Kumher",
    "partNumber": 230,
    "partName": "RARAH",
    "lat": 27.3213831,
    "lon": 77.5589919
  },
  {
    "partId": 19765,
    "stateCode": "S20",
    "stateName": "Rajasthan",
    "districtCode": "S2036",
    "districtName": "Deeg",
    "acNumber": 72,
    "acName": "Deeg-Kumher",
    "partNumber": 231,
    "partName": "RARAH",
    "lat": 27.3213831,
    "lon": 77.5589919
  },
  {
    "partId": 19766,
    "stateCode": "S20",
    "stateName": "Rajasthan",
    "districtCode": "S2036",
    "districtName": "Deeg",
    "acNumber": 72,
    "acName": "Deeg-Kumher",
    "partNumber": 232,
    "partName": "BURAVAI",
    "lat": 27.4706823,
    "lon": 77.32890660565869
  },
  {
    "partId": 19767,
    "stateCode": "S20",
    "stateName": "Rajasthan",
    "districtCode": "S2036",
    "districtName": "Deeg",
    "acNumber": 72,
    "acName": "Deeg-Kumher",
    "partNumber": 233,
    "partName": "SANTARUK",
    "lat": 27.4706823,
    "lon": 77.32890660565869
  },
  {
    "partId": 19768,
    "stateCode": "S20",
    "stateName": "Rajasthan",
    "districtCode": "S2036",
    "districtName": "Deeg",
    "acNumber": 72,
    "acName": "Deeg-Kumher",
    "partNumber": 234,
    "partName": "SANTARUK",
    "lat": 27.4706823,
    "lon": 77.32890660565869
  },
  {
    "partId": 19769,
    "stateCode": "S20",
    "stateName": "Rajasthan",
    "districtCode": "S2036",
    "districtName": "Deeg",
    "acNumber": 72,
    "acName": "Deeg-Kumher",
    "partNumber": 235,
    "partName": "SANTARUK",
    "lat": 27.4706823,
    "lon": 77.32890660565869
  },
  {
    "partId": 19770,
    "stateCode": "S20",
    "stateName": "Rajasthan",
    "districtCode": "S2036",
    "districtName": "Deeg",
    "acNumber": 72,
    "acName": "Deeg-Kumher",
    "partNumber": 236,
    "partName": "SANTARUK",
    "lat": 27.4706823,
    "lon": 77.32890660565869
  },
  {
    "partId": 73721,
    "stateCode": "S20",
    "stateName": "Rajasthan",
    "districtCode": "S2036",
    "districtName": "Deeg",
    "acNumber": 70,
    "acName": "Kaman",
    "partNumber": 1,
    "partName": "DHOLET",
    "lat": 27.6526038,
    "lon": 77.2696401
  },
  {
    "partId": 73722,
    "stateCode": "S20",
    "stateName": "Rajasthan",
    "districtCode": "S2036",
    "districtName": "Deeg",
    "acNumber": 70,
    "acName": "Kaman",
    "partNumber": 2,
    "partName": "DHOLET",
    "lat": 27.6526038,
    "lon": 77.2696401
  },
  {
    "partId": 73723,
    "stateCode": "S20",
    "stateName": "Rajasthan",
    "districtCode": "S2036",
    "districtName": "Deeg",
    "acNumber": 70,
    "acName": "Kaman",
    "partNumber": 3,
    "partName": "DATHAIT",
    "lat": 27.8078495,
    "lon": 77.0630622
  },
  {
    "partId": 73724,
    "stateCode": "S20",
    "stateName": "Rajasthan",
    "districtCode": "S2036",
    "districtName": "Deeg",
    "acNumber": 70,
    "acName": "Kaman",
    "partNumber": 4,
    "partName": "GADHANER",
    "lat": 27.7953697,
    "lon": 77.0716238
  },
  {
    "partId": 73725,
    "stateCode": "S20",
    "stateName": "Rajasthan",
    "districtCode": "S2036",
    "districtName": "Deeg",
    "acNumber": 70,
    "acName": "Kaman",
    "partNumber": 5,
    "partName": "GADHANER",
    "lat": 27.7953697,
    "lon": 77.0716238
  },
  {
    "partId": 73726,
    "stateCode": "S20",
    "stateName": "Rajasthan",
    "districtCode": "S2036",
    "districtName": "Deeg",
    "acNumber": 70,
    "acName": "Kaman",
    "partNumber": 6,
    "partName": "FATEHPUR",
    "lat": 27.7807717,
    "lon": 77.0969224
  },
  {
    "partId": 73727,
    "stateCode": "S20",
    "stateName": "Rajasthan",
    "districtCode": "S2036",
    "districtName": "Deeg",
    "acNumber": 70,
    "acName": "Kaman",
    "partNumber": 7,
    "partName": "FATEHPUR",
    "lat": 27.7807717,
    "lon": 77.0969224
  },
  {
    "partId": 73728,
    "stateCode": "S20",
    "stateName": "Rajasthan",
    "districtCode": "S2036",
    "districtName": "Deeg",
    "acNumber": 70,
    "acName": "Kaman",
    "partNumber": 8,
    "partName": "GHATMIKA",
    "lat": 27.50874725,
    "lon": 77.20561222065001
  },
  {
    "partId": 73729,
    "stateCode": "S20",
    "stateName": "Rajasthan",
    "districtCode": "S2036",
    "districtName": "Deeg",
    "acNumber": 70,
    "acName": "Kaman",
    "partNumber": 9,
    "partName": "GHATMIKA",
    "lat": 27.6526038,
    "lon": 77.2696401
  },
  {
    "partId": 73730,
    "stateCode": "S20",
    "stateName": "Rajasthan",
    "districtCode": "S2036",
    "districtName": "Deeg",
    "acNumber": 70,
    "acName": "Kaman",
    "partNumber": 10,
    "partName": "GHEESEDA",
    "lat": 27.6526038,
    "lon": 77.2696401
  },
  {
    "partId": 73731,
    "stateCode": "S20",
    "stateName": "Rajasthan",
    "districtCode": "S2036",
    "districtName": "Deeg",
    "acNumber": 70,
    "acName": "Kaman",
    "partNumber": 11,
    "partName": "DHIMARI",
    "lat": 27.6526038,
    "lon": 77.2696401
  },
  {
    "partId": 73570,
    "stateCode": "S20",
    "stateName": "Rajasthan",
    "districtCode": "S2036",
    "districtName": "Deeg",
    "acNumber": 70,
    "acName": "Kaman",
    "partNumber": 12,
    "partName": "DHIMARI",
    "lat": 27.6526038,
    "lon": 77.2696401
  },
  {
    "partId": 73571,
    "stateCode": "S20",
    "stateName": "Rajasthan",
    "districtCode": "S2036",
    "districtName": "Deeg",
    "acNumber": 70,
    "acName": "Kaman",
    "partNumber": 13,
    "partName": "JHANDIPUR",
    "lat": 27.7675008,
    "lon": 77.0945191
  },
  {
    "partId": 73572,
    "stateCode": "S20",
    "stateName": "Rajasthan",
    "districtCode": "S2036",
    "districtName": "Deeg",
    "acNumber": 70,
    "acName": "Kaman",
    "partNumber": 14,
    "partName": "BHONRI",
    "lat": 27.50874725,
    "lon": 77.20561222065001
  },
  {
    "partId": 73573,
    "stateCode": "S20",
    "stateName": "Rajasthan",
    "districtCode": "S2036",
    "districtName": "Deeg",
    "acNumber": 70,
    "acName": "Kaman",
    "partNumber": 15,
    "partName": "BHONRI",
    "lat": 27.6526038,
    "lon": 77.2696401
  },
  {
    "partId": 73574,
    "stateCode": "S20",
    "stateName": "Rajasthan",
    "districtCode": "S2036",
    "districtName": "Deeg",
    "acNumber": 70,
    "acName": "Kaman",
    "partNumber": 16,
    "partName": "KHALLUKA",
    "lat": 27.6526038,
    "lon": 77.2696401
  },
  {
    "partId": 73575,
    "stateCode": "S20",
    "stateName": "Rajasthan",
    "districtCode": "S2036",
    "districtName": "Deeg",
    "acNumber": 70,
    "acName": "Kaman",
    "partNumber": 17,
    "partName": "SAMDIKA",
    "lat": 27.50874725,
    "lon": 77.20561222065001
  },
  {
    "partId": 73576,
    "stateCode": "S20",
    "stateName": "Rajasthan",
    "districtCode": "S2036",
    "districtName": "Deeg",
    "acNumber": 70,
    "acName": "Kaman",
    "partNumber": 18,
    "partName": "SAMDIKA",
    "lat": 27.6526038,
    "lon": 77.2696401
  },
  {
    "partId": 73577,
    "stateCode": "S20",
    "stateName": "Rajasthan",
    "districtCode": "S2036",
    "districtName": "Deeg",
    "acNumber": 70,
    "acName": "Kaman",
    "partNumber": 19,
    "partName": "THALCHANA",
    "lat": 27.7554435,
    "lon": 77.1365118
  },
  {
    "partId": 73578,
    "stateCode": "S20",
    "stateName": "Rajasthan",
    "districtCode": "S2036",
    "districtName": "Deeg",
    "acNumber": 70,
    "acName": "Kaman",
    "partNumber": 20,
    "partName": "KATHOL",
    "lat": 27.6526038,
    "lon": 77.2696401
  },
  {
    "partId": 73579,
    "stateCode": "S20",
    "stateName": "Rajasthan",
    "districtCode": "S2036",
    "districtName": "Deeg",
    "acNumber": 70,
    "acName": "Kaman",
    "partNumber": 21,
    "partName": "KATHOL",
    "lat": 27.6526038,
    "lon": 77.2696401
  },
  {
    "partId": 73580,
    "stateCode": "S20",
    "stateName": "Rajasthan",
    "districtCode": "S2036",
    "districtName": "Deeg",
    "acNumber": 70,
    "acName": "Kaman",
    "partNumber": 22,
    "partName": "KATHOL",
    "lat": 27.6526038,
    "lon": 77.2696401
  },
  {
    "partId": 73581,
    "stateCode": "S20",
    "stateName": "Rajasthan",
    "districtCode": "S2036",
    "districtName": "Deeg",
    "acNumber": 70,
    "acName": "Kaman",
    "partNumber": 23,
    "partName": "JASOTI",
    "lat": 27.7202326,
    "lon": 77.1116638
  },
  {
    "partId": 73582,
    "stateCode": "S20",
    "stateName": "Rajasthan",
    "districtCode": "S2036",
    "districtName": "Deeg",
    "acNumber": 70,
    "acName": "Kaman",
    "partNumber": 24,
    "partName": "PAHARI",
    "lat": 27.7102563,
    "lon": 77.0852209
  },
  {
    "partId": 73583,
    "stateCode": "S20",
    "stateName": "Rajasthan",
    "districtCode": "S2036",
    "districtName": "Deeg",
    "acNumber": 70,
    "acName": "Kaman",
    "partNumber": 25,
    "partName": "PAHARI",
    "lat": 27.50874725,
    "lon": 77.20561222065001
  },
  {
    "partId": 73584,
    "stateCode": "S20",
    "stateName": "Rajasthan",
    "districtCode": "S2036",
    "districtName": "Deeg",
    "acNumber": 70,
    "acName": "Kaman",
    "partNumber": 26,
    "partName": "PAHARI",
    "lat": 27.7102563,
    "lon": 77.0852209
  },
  {
    "partId": 73585,
    "stateCode": "S20",
    "stateName": "Rajasthan",
    "districtCode": "S2036",
    "districtName": "Deeg",
    "acNumber": 70,
    "acName": "Kaman",
    "partNumber": 27,
    "partName": "PAHARI",
    "lat": 27.7102563,
    "lon": 77.0852209
  },
  {
    "partId": 73586,
    "stateCode": "S20",
    "stateName": "Rajasthan",
    "districtCode": "S2036",
    "districtName": "Deeg",
    "acNumber": 70,
    "acName": "Kaman",
    "partNumber": 28,
    "partName": "PAHARI",
    "lat": 27.7102563,
    "lon": 77.0852209
  },
  {
    "partId": 73587,
    "stateCode": "S20",
    "stateName": "Rajasthan",
    "districtCode": "S2036",
    "districtName": "Deeg",
    "acNumber": 70,
    "acName": "Kaman",
    "partNumber": 29,
    "partName": "BURANA",
    "lat": 27.6975502,
    "lon": 77.0878458
  },
  {
    "partId": 73588,
    "stateCode": "S20",
    "stateName": "Rajasthan",
    "districtCode": "S2036",
    "districtName": "Deeg",
    "acNumber": 70,
    "acName": "Kaman",
    "partNumber": 30,
    "partName": "BURANI",
    "lat": 27.6955363,
    "lon": 77.0846486
  },
  {
    "partId": 73589,
    "stateCode": "S20",
    "stateName": "Rajasthan",
    "districtCode": "S2036",
    "districtName": "Deeg",
    "acNumber": 70,
    "acName": "Kaman",
    "partNumber": 31,
    "partName": "KHANDEWLA",
    "lat": 27.6948143,
    "lon": 77.0413684
  },
  {
    "partId": 73590,
    "stateCode": "S20",
    "stateName": "Rajasthan",
    "districtCode": "S2036",
    "districtName": "Deeg",
    "acNumber": 70,
    "acName": "Kaman",
    "partNumber": 32,
    "partName": "KHANDEWLA",
    "lat": 27.6948143,
    "lon": 77.0413684
  },
  {
    "partId": 73591,
    "stateCode": "S20",
    "stateName": "Rajasthan",
    "districtCode": "S2036",
    "districtName": "Deeg",
    "acNumber": 70,
    "acName": "Kaman",
    "partNumber": 33,
    "partName": "ALAMPUR",
    "lat": 27.7051115,
    "lon": 77.0533848
  },
  {
    "partId": 73592,
    "stateCode": "S20",
    "stateName": "Rajasthan",
    "districtCode": "S2036",
    "districtName": "Deeg",
    "acNumber": 70,
    "acName": "Kaman",
    "partNumber": 34,
    "partName": "GAJUKA",
    "lat": 27.50874725,
    "lon": 77.20561222065001
  },
  {
    "partId": 73593,
    "stateCode": "S20",
    "stateName": "Rajasthan",
    "districtCode": "S2036",
    "districtName": "Deeg",
    "acNumber": 70,
    "acName": "Kaman",
    "partNumber": 35,
    "partName": "GADSORA",
    "lat": 27.6526038,
    "lon": 77.2696401
  },
  {
    "partId": 73594,
    "stateCode": "S20",
    "stateName": "Rajasthan",
    "districtCode": "S2036",
    "districtName": "Deeg",
    "acNumber": 70,
    "acName": "Kaman",
    "partNumber": 36,
    "partName": "CHHAPARA",
    "lat": 27.6526038,
    "lon": 77.2696401
  },
  {
    "partId": 73595,
    "stateCode": "S20",
    "stateName": "Rajasthan",
    "districtCode": "S2036",
    "districtName": "Deeg",
    "acNumber": 70,
    "acName": "Kaman",
    "partNumber": 37,
    "partName": "CHHAPARA",
    "lat": 27.6526038,
    "lon": 77.2696401
  },
  {
    "partId": 73596,
    "stateCode": "S20",
    "stateName": "Rajasthan",
    "districtCode": "S2036",
    "districtName": "Deeg",
    "acNumber": 70,
    "acName": "Kaman",
    "partNumber": 38,
    "partName": "GANGORA",
    "lat": 27.7095378,
    "lon": 77.0240629
  },
  {
    "partId": 73597,
    "stateCode": "S20",
    "stateName": "Rajasthan",
    "districtCode": "S2036",
    "districtName": "Deeg",
    "acNumber": 70,
    "acName": "Kaman",
    "partNumber": 39,
    "partName": "GANGORA",
    "lat": 27.7095378,
    "lon": 77.0240629
  },
  {
    "partId": 73598,
    "stateCode": "S20",
    "stateName": "Rajasthan",
    "districtCode": "S2036",
    "districtName": "Deeg",
    "acNumber": 70,
    "acName": "Kaman",
    "partNumber": 40,
    "partName": "CHINAWADA",
    "lat": 27.6526038,
    "lon": 77.2696401
  },
  {
    "partId": 73599,
    "stateCode": "S20",
    "stateName": "Rajasthan",
    "districtCode": "S2036",
    "districtName": "Deeg",
    "acNumber": 70,
    "acName": "Kaman",
    "partNumber": 41,
    "partName": "CHINAWADA",
    "lat": 27.6526038,
    "lon": 77.2696401
  },
  {
    "partId": 73600,
    "stateCode": "S20",
    "stateName": "Rajasthan",
    "districtCode": "S2036",
    "districtName": "Deeg",
    "acNumber": 70,
    "acName": "Kaman",
    "partNumber": 42,
    "partName": "LIWASANA",
    "lat": 27.6864923,
    "lon": 77.0110273
  },
  {
    "partId": 73601,
    "stateCode": "S20",
    "stateName": "Rajasthan",
    "districtCode": "S2036",
    "districtName": "Deeg",
    "acNumber": 70,
    "acName": "Kaman",
    "partNumber": 43,
    "partName": "PAPDA",
    "lat": 27.6526038,
    "lon": 77.2696401
  },
  {
    "partId": 73602,
    "stateCode": "S20",
    "stateName": "Rajasthan",
    "districtCode": "S2036",
    "districtName": "Deeg",
    "acNumber": 70,
    "acName": "Kaman",
    "partNumber": 44,
    "partName": "PAPDA",
    "lat": 27.6526038,
    "lon": 77.2696401
  },
  {
    "partId": 73603,
    "stateCode": "S20",
    "stateName": "Rajasthan",
    "districtCode": "S2036",
    "districtName": "Deeg",
    "acNumber": 70,
    "acName": "Kaman",
    "partNumber": 45,
    "partName": "KHANDIYAWAS",
    "lat": 27.6526038,
    "lon": 77.2696401
  },
  {
    "partId": 73604,
    "stateCode": "S20",
    "stateName": "Rajasthan",
    "districtCode": "S2036",
    "districtName": "Deeg",
    "acNumber": 70,
    "acName": "Kaman",
    "partNumber": 46,
    "partName": "JOTARIPIPAL",
    "lat": 27.6526038,
    "lon": 77.2696401
  },
  {
    "partId": 73605,
    "stateCode": "S20",
    "stateName": "Rajasthan",
    "districtCode": "S2036",
    "districtName": "Deeg",
    "acNumber": 70,
    "acName": "Kaman",
    "partNumber": 47,
    "partName": "JOTARIPIPAL",
    "lat": 27.6526038,
    "lon": 77.2696401
  },
  {
    "partId": 73606,
    "stateCode": "S20",
    "stateName": "Rajasthan",
    "districtCode": "S2036",
    "districtName": "Deeg",
    "acNumber": 70,
    "acName": "Kaman",
    "partNumber": 48,
    "partName": "BHOJPUR",
    "lat": 27.6322504,
    "lon": 77.0173144
  },
  {
    "partId": 73607,
    "stateCode": "S20",
    "stateName": "Rajasthan",
    "districtCode": "S2036",
    "districtName": "Deeg",
    "acNumber": 70,
    "acName": "Kaman",
    "partNumber": 49,
    "partName": "JOTARUHALLA",
    "lat": 27.6526038,
    "lon": 77.2696401
  },
  {
    "partId": 73608,
    "stateCode": "S20",
    "stateName": "Rajasthan",
    "districtCode": "S2036",
    "districtName": "Deeg",
    "acNumber": 70,
    "acName": "Kaman",
    "partNumber": 50,
    "partName": "JOTARUHALLA",
    "lat": 27.6526038,
    "lon": 77.2696401
  },
  {
    "partId": 73609,
    "stateCode": "S20",
    "stateName": "Rajasthan",
    "districtCode": "S2036",
    "districtName": "Deeg",
    "acNumber": 70,
    "acName": "Kaman",
    "partNumber": 51,
    "partName": "JOTGAMETI",
    "lat": 27.6526038,
    "lon": 77.2696401
  },
  {
    "partId": 73610,
    "stateCode": "S20",
    "stateName": "Rajasthan",
    "districtCode": "S2036",
    "districtName": "Deeg",
    "acNumber": 70,
    "acName": "Kaman",
    "partNumber": 52,
    "partName": "JOTGAMETI",
    "lat": 27.6526038,
    "lon": 77.2696401
  },
  {
    "partId": 73611,
    "stateCode": "S20",
    "stateName": "Rajasthan",
    "districtCode": "S2036",
    "districtName": "Deeg",
    "acNumber": 70,
    "acName": "Kaman",
    "partNumber": 53,
    "partName": "LAWNA",
    "lat": 27.6805258,
    "lon": 77.0401025
  },
  {
    "partId": 73612,
    "stateCode": "S20",
    "stateName": "Rajasthan",
    "districtCode": "S2036",
    "districtName": "Deeg",
    "acNumber": 70,
    "acName": "Kaman",
    "partNumber": 54,
    "partName": "HAIWATKA",
    "lat": 27.6732669,
    "lon": 77.0489645
  },
  {
    "partId": 73613,
    "stateCode": "S20",
    "stateName": "Rajasthan",
    "districtCode": "S2036",
    "districtName": "Deeg",
    "acNumber": 70,
    "acName": "Kaman",
    "partNumber": 55,
    "partName": "LADAMAKA",
    "lat": 27.6400063,
    "lon": 77.0422482
  },
  {
    "partId": 73614,
    "stateCode": "S20",
    "stateName": "Rajasthan",
    "districtCode": "S2036",
    "districtName": "Deeg",
    "acNumber": 70,
    "acName": "Kaman",
    "partNumber": 56,
    "partName": "ARDUKA",
    "lat": 27.6526038,
    "lon": 77.2696401
  },
  {
    "partId": 73615,
    "stateCode": "S20",
    "stateName": "Rajasthan",
    "districtCode": "S2036",
    "districtName": "Deeg",
    "acNumber": 70,
    "acName": "Kaman",
    "partNumber": 57,
    "partName": "PALI",
    "lat": 27.6257868,
    "lon": 77.0421409
  },
  {
    "partId": 73616,
    "stateCode": "S20",
    "stateName": "Rajasthan",
    "districtCode": "S2036",
    "districtName": "Deeg",
    "acNumber": 70,
    "acName": "Kaman",
    "partNumber": 58,
    "partName": "KHEDLA NOUABAD",
    "lat": 27.6526038,
    "lon": 77.2696401
  },
  {
    "partId": 73617,
    "stateCode": "S20",
    "stateName": "Rajasthan",
    "districtCode": "S2036",
    "districtName": "Deeg",
    "acNumber": 70,
    "acName": "Kaman",
    "partNumber": 59,
    "partName": "GOPALGARH",
    "lat": 27.50874725,
    "lon": 77.20561222065001
  },
  {
    "partId": 73618,
    "stateCode": "S20",
    "stateName": "Rajasthan",
    "districtCode": "S2036",
    "districtName": "Deeg",
    "acNumber": 70,
    "acName": "Kaman",
    "partNumber": 60,
    "partName": "GOPALGARH",
    "lat": 27.6534638,
    "lon": 77.0608091
  },
  {
    "partId": 73619,
    "stateCode": "S20",
    "stateName": "Rajasthan",
    "districtCode": "S2036",
    "districtName": "Deeg",
    "acNumber": 70,
    "acName": "Kaman",
    "partNumber": 61,
    "partName": "GOPALGARH",
    "lat": 27.6534638,
    "lon": 77.0608091
  },
  {
    "partId": 73620,
    "stateCode": "S20",
    "stateName": "Rajasthan",
    "districtCode": "S2036",
    "districtName": "Deeg",
    "acNumber": 70,
    "acName": "Kaman",
    "partNumber": 62,
    "partName": "GOPALGARH",
    "lat": 27.6534638,
    "lon": 77.0608091
  },
  {
    "partId": 73621,
    "stateCode": "S20",
    "stateName": "Rajasthan",
    "districtCode": "S2036",
    "districtName": "Deeg",
    "acNumber": 70,
    "acName": "Kaman",
    "partNumber": 63,
    "partName": "PANDEKA",
    "lat": 27.50874725,
    "lon": 77.20561222065001
  },
  {
    "partId": 73622,
    "stateCode": "S20",
    "stateName": "Rajasthan",
    "districtCode": "S2036",
    "districtName": "Deeg",
    "acNumber": 70,
    "acName": "Kaman",
    "partNumber": 64,
    "partName": "BODOLI DAHAR",
    "lat": 27.6526038,
    "lon": 77.2696401
  },
  {
    "partId": 73623,
    "stateCode": "S20",
    "stateName": "Rajasthan",
    "districtCode": "S2036",
    "districtName": "Deeg",
    "acNumber": 70,
    "acName": "Kaman",
    "partNumber": 65,
    "partName": "BODOLI DAHAR",
    "lat": 27.6526038,
    "lon": 77.2696401
  },
  {
    "partId": 73624,
    "stateCode": "S20",
    "stateName": "Rajasthan",
    "districtCode": "S2036",
    "districtName": "Deeg",
    "acNumber": 70,
    "acName": "Kaman",
    "partNumber": 66,
    "partName": "GADLI",
    "lat": 27.50874725,
    "lon": 77.20561222065001
  },
  {
    "partId": 73625,
    "stateCode": "S20",
    "stateName": "Rajasthan",
    "districtCode": "S2036",
    "districtName": "Deeg",
    "acNumber": 70,
    "acName": "Kaman",
    "partNumber": 67,
    "partName": "PEELASU",
    "lat": 27.6526038,
    "lon": 77.2696401
  },
  {
    "partId": 73626,
    "stateCode": "S20",
    "stateName": "Rajasthan",
    "districtCode": "S2036",
    "districtName": "Deeg",
    "acNumber": 70,
    "acName": "Kaman",
    "partNumber": 68,
    "partName": "PIPROLI",
    "lat": 27.629646,
    "lon": 77.0721388
  },
  {
    "partId": 73627,
    "stateCode": "S20",
    "stateName": "Rajasthan",
    "districtCode": "S2036",
    "districtName": "Deeg",
    "acNumber": 70,
    "acName": "Kaman",
    "partNumber": 69,
    "partName": "PIPALKHEDA",
    "lat": 27.6526038,
    "lon": 77.2696401
  },
  {
    "partId": 73628,
    "stateCode": "S20",
    "stateName": "Rajasthan",
    "districtCode": "S2036",
    "districtName": "Deeg",
    "acNumber": 70,
    "acName": "Kaman",
    "partNumber": 70,
    "partName": "PIPALKHEDA",
    "lat": 27.6526038,
    "lon": 77.2696401
  },
  {
    "partId": 73629,
    "stateCode": "S20",
    "stateName": "Rajasthan",
    "districtCode": "S2036",
    "districtName": "Deeg",
    "acNumber": 70,
    "acName": "Kaman",
    "partNumber": 71,
    "partName": "MALIKI",
    "lat": 27.6358433,
    "lon": 77.0837045
  },
  {
    "partId": 73630,
    "stateCode": "S20",
    "stateName": "Rajasthan",
    "districtCode": "S2036",
    "districtName": "Deeg",
    "acNumber": 70,
    "acName": "Kaman",
    "partNumber": 72,
    "partName": "CHANDUPURA",
    "lat": 27.6526038,
    "lon": 77.2696401
  },
  {
    "partId": 73631,
    "stateCode": "S20",
    "stateName": "Rajasthan",
    "districtCode": "S2036",
    "districtName": "Deeg",
    "acNumber": 70,
    "acName": "Kaman",
    "partNumber": 73,
    "partName": "PATHRALI",
    "lat": 27.6501186,
    "lon": 77.1059775
  },
  {
    "partId": 73632,
    "stateCode": "S20",
    "stateName": "Rajasthan",
    "districtCode": "S2036",
    "districtName": "Deeg",
    "acNumber": 70,
    "acName": "Kaman",
    "partNumber": 74,
    "partName": "RAYAWAKA",
    "lat": 27.6526038,
    "lon": 77.2696401
  },
  {
    "partId": 73633,
    "stateCode": "S20",
    "stateName": "Rajasthan",
    "districtCode": "S2036",
    "districtName": "Deeg",
    "acNumber": 70,
    "acName": "Kaman",
    "partNumber": 75,
    "partName": "SHAHDUNGAR",
    "lat": 27.6526038,
    "lon": 77.2696401
  },
  {
    "partId": 73634,
    "stateCode": "S20",
    "stateName": "Rajasthan",
    "districtCode": "S2036",
    "districtName": "Deeg",
    "acNumber": 70,
    "acName": "Kaman",
    "partNumber": 76,
    "partName": "KAITHWADA",
    "lat": 27.6526038,
    "lon": 77.2696401
  },
  {
    "partId": 73635,
    "stateCode": "S20",
    "stateName": "Rajasthan",
    "districtCode": "S2036",
    "districtName": "Deeg",
    "acNumber": 70,
    "acName": "Kaman",
    "partNumber": 77,
    "partName": "KAITHWADA",
    "lat": 27.6526038,
    "lon": 77.2696401
  },
  {
    "partId": 73636,
    "stateCode": "S20",
    "stateName": "Rajasthan",
    "districtCode": "S2036",
    "districtName": "Deeg",
    "acNumber": 70,
    "acName": "Kaman",
    "partNumber": 78,
    "partName": "KAITHWADA",
    "lat": 27.6526038,
    "lon": 77.2696401
  },
  {
    "partId": 73637,
    "stateCode": "S20",
    "stateName": "Rajasthan",
    "districtCode": "S2036",
    "districtName": "Deeg",
    "acNumber": 70,
    "acName": "Kaman",
    "partNumber": 79,
    "partName": "KAITHWADA",
    "lat": 27.6526038,
    "lon": 77.2696401
  },
  {
    "partId": 73638,
    "stateCode": "S20",
    "stateName": "Rajasthan",
    "districtCode": "S2036",
    "districtName": "Deeg",
    "acNumber": 70,
    "acName": "Kaman",
    "partNumber": 80,
    "partName": "KAITHWADA",
    "lat": 27.6526038,
    "lon": 77.2696401
  },
  {
    "partId": 73639,
    "stateCode": "S20",
    "stateName": "Rajasthan",
    "districtCode": "S2036",
    "districtName": "Deeg",
    "acNumber": 70,
    "acName": "Kaman",
    "partNumber": 81,
    "partName": "IKALAHARA",
    "lat": 27.6138089,
    "lon": 77.1617889
  },
  {
    "partId": 73640,
    "stateCode": "S20",
    "stateName": "Rajasthan",
    "districtCode": "S2036",
    "districtName": "Deeg",
    "acNumber": 70,
    "acName": "Kaman",
    "partNumber": 82,
    "partName": "GHAGHAWADI",
    "lat": 27.6526038,
    "lon": 77.2696401
  },
  {
    "partId": 73641,
    "stateCode": "S20",
    "stateName": "Rajasthan",
    "districtCode": "S2036",
    "districtName": "Deeg",
    "acNumber": 70,
    "acName": "Kaman",
    "partNumber": 83,
    "partName": "ABHAYPUR",
    "lat": 27.6526038,
    "lon": 77.2696401
  },
  {
    "partId": 73642,
    "stateCode": "S20",
    "stateName": "Rajasthan",
    "districtCode": "S2036",
    "districtName": "Deeg",
    "acNumber": 70,
    "acName": "Kaman",
    "partNumber": 84,
    "partName": "RANF",
    "lat": 27.50874725,
    "lon": 77.20561222065001
  },
  {
    "partId": 73643,
    "stateCode": "S20",
    "stateName": "Rajasthan",
    "districtCode": "S2036",
    "districtName": "Deeg",
    "acNumber": 70,
    "acName": "Kaman",
    "partNumber": 85,
    "partName": "RANF",
    "lat": 27.6526038,
    "lon": 77.2696401
  },
  {
    "partId": 73644,
    "stateCode": "S20",
    "stateName": "Rajasthan",
    "districtCode": "S2036",
    "districtName": "Deeg",
    "acNumber": 70,
    "acName": "Kaman",
    "partNumber": 86,
    "partName": "MATUKI",
    "lat": 27.6301878,
    "lon": 77.1711981
  },
  {
    "partId": 73645,
    "stateCode": "S20",
    "stateName": "Rajasthan",
    "districtCode": "S2036",
    "districtName": "Deeg",
    "acNumber": 70,
    "acName": "Kaman",
    "partNumber": 87,
    "partName": "JATOLI",
    "lat": 27.6275358,
    "lon": 77.1599865
  },
  {
    "partId": 73646,
    "stateCode": "S20",
    "stateName": "Rajasthan",
    "districtCode": "S2036",
    "districtName": "Deeg",
    "acNumber": 70,
    "acName": "Kaman",
    "partNumber": 88,
    "partName": "AMRUKA",
    "lat": 27.6526038,
    "lon": 77.2696401
  },
  {
    "partId": 73647,
    "stateCode": "S20",
    "stateName": "Rajasthan",
    "districtCode": "S2036",
    "districtName": "Deeg",
    "acNumber": 70,
    "acName": "Kaman",
    "partNumber": 89,
    "partName": "TILAKPURI",
    "lat": 27.6528936,
    "lon": 77.1402883
  },
  {
    "partId": 73648,
    "stateCode": "S20",
    "stateName": "Rajasthan",
    "districtCode": "S2036",
    "districtName": "Deeg",
    "acNumber": 70,
    "acName": "Kaman",
    "partNumber": 90,
    "partName": "TILAKPURI",
    "lat": 27.6528936,
    "lon": 77.1402883
  },
  {
    "partId": 73649,
    "stateCode": "S20",
    "stateName": "Rajasthan",
    "districtCode": "S2036",
    "districtName": "Deeg",
    "acNumber": 70,
    "acName": "Kaman",
    "partNumber": 91,
    "partName": "KANHOR",
    "lat": 27.65392,
    "lon": 77.1305036
  },
  {
    "partId": 73650,
    "stateCode": "S20",
    "stateName": "Rajasthan",
    "districtCode": "S2036",
    "districtName": "Deeg",
    "acNumber": 70,
    "acName": "Kaman",
    "partNumber": 92,
    "partName": "KANHOR",
    "lat": 27.65392,
    "lon": 77.1305036
  },
  {
    "partId": 73651,
    "stateCode": "S20",
    "stateName": "Rajasthan",
    "districtCode": "S2036",
    "districtName": "Deeg",
    "acNumber": 70,
    "acName": "Kaman",
    "partNumber": 93,
    "partName": "SATWADI",
    "lat": 27.50874725,
    "lon": 77.20561222065001
  },
  {
    "partId": 73652,
    "stateCode": "S20",
    "stateName": "Rajasthan",
    "districtCode": "S2036",
    "districtName": "Deeg",
    "acNumber": 70,
    "acName": "Kaman",
    "partNumber": 94,
    "partName": "SATWADI",
    "lat": 27.6526038,
    "lon": 77.2696401
  },
  {
    "partId": 73653,
    "stateCode": "S20",
    "stateName": "Rajasthan",
    "districtCode": "S2036",
    "districtName": "Deeg",
    "acNumber": 70,
    "acName": "Kaman",
    "partNumber": 95,
    "partName": "MAHMADPUR",
    "lat": 27.5039606,
    "lon": 77.2902024
  },
  {
    "partId": 73654,
    "stateCode": "S20",
    "stateName": "Rajasthan",
    "districtCode": "S2036",
    "districtName": "Deeg",
    "acNumber": 70,
    "acName": "Kaman",
    "partNumber": 96,
    "partName": "MALHAKA",
    "lat": 27.7020719,
    "lon": 77.1240234
  },
  {
    "partId": 73655,
    "stateCode": "S20",
    "stateName": "Rajasthan",
    "districtCode": "S2036",
    "districtName": "Deeg",
    "acNumber": 70,
    "acName": "Kaman",
    "partNumber": 97,
    "partName": "BHAINSEDA",
    "lat": 27.6526038,
    "lon": 77.2696401
  },
  {
    "partId": 73656,
    "stateCode": "S20",
    "stateName": "Rajasthan",
    "districtCode": "S2036",
    "districtName": "Deeg",
    "acNumber": 70,
    "acName": "Kaman",
    "partNumber": 98,
    "partName": "SANWLER",
    "lat": 27.7051875,
    "lon": 77.1396017
  },
  {
    "partId": 73657,
    "stateCode": "S20",
    "stateName": "Rajasthan",
    "districtCode": "S2036",
    "districtName": "Deeg",
    "acNumber": 70,
    "acName": "Kaman",
    "partNumber": 99,
    "partName": "SANWLER",
    "lat": 27.7051875,
    "lon": 77.1396017
  },
  {
    "partId": 73658,
    "stateCode": "S20",
    "stateName": "Rajasthan",
    "districtCode": "S2036",
    "districtName": "Deeg",
    "acNumber": 70,
    "acName": "Kaman",
    "partNumber": 100,
    "partName": "SANWLER",
    "lat": 27.7051875,
    "lon": 77.1396017
  },
  {
    "partId": 73659,
    "stateCode": "S20",
    "stateName": "Rajasthan",
    "districtCode": "S2036",
    "districtName": "Deeg",
    "acNumber": 70,
    "acName": "Kaman",
    "partNumber": 101,
    "partName": "UBHAKA",
    "lat": 27.6703214,
    "lon": 77.1540105
  },
  {
    "partId": 73660,
    "stateCode": "S20",
    "stateName": "Rajasthan",
    "districtCode": "S2036",
    "districtName": "Deeg",
    "acNumber": 70,
    "acName": "Kaman",
    "partNumber": 102,
    "partName": "JODHPUR",
    "lat": 27.6672617,
    "lon": 77.1603942
  },
  {
    "partId": 73661,
    "stateCode": "S20",
    "stateName": "Rajasthan",
    "districtCode": "S2036",
    "districtName": "Deeg",
    "acNumber": 70,
    "acName": "Kaman",
    "partNumber": 103,
    "partName": "MUNGASKA",
    "lat": 27.6526038,
    "lon": 77.2696401
  },
  {
    "partId": 73662,
    "stateCode": "S20",
    "stateName": "Rajasthan",
    "districtCode": "S2036",
    "districtName": "Deeg",
    "acNumber": 70,
    "acName": "Kaman",
    "partNumber": 104,
    "partName": "SOMKA",
    "lat": 27.6526038,
    "lon": 77.2696401
  },
  {
    "partId": 73663,
    "stateCode": "S20",
    "stateName": "Rajasthan",
    "districtCode": "S2036",
    "districtName": "Deeg",
    "acNumber": 70,
    "acName": "Kaman",
    "partNumber": 105,
    "partName": "SOMKA",
    "lat": 27.6526038,
    "lon": 77.2696401
  },
  {
    "partId": 73664,
    "stateCode": "S20",
    "stateName": "Rajasthan",
    "districtCode": "S2036",
    "districtName": "Deeg",
    "acNumber": 70,
    "acName": "Kaman",
    "partNumber": 106,
    "partName": "KHAIRAWA",
    "lat": 27.7166614,
    "lon": 77.1923661
  },
  {
    "partId": 73665,
    "stateCode": "S20",
    "stateName": "Rajasthan",
    "districtCode": "S2036",
    "districtName": "Deeg",
    "acNumber": 70,
    "acName": "Kaman",
    "partNumber": 107,
    "partName": "SAHSAN",
    "lat": 27.50874725,
    "lon": 77.20561222065001
  },
  {
    "partId": 73666,
    "stateCode": "S20",
    "stateName": "Rajasthan",
    "districtCode": "S2036",
    "districtName": "Deeg",
    "acNumber": 70,
    "acName": "Kaman",
    "partNumber": 108,
    "partName": "SAHSAN",
    "lat": 27.7406312,
    "lon": 77.1801137
  },
  {
    "partId": 73667,
    "stateCode": "S20",
    "stateName": "Rajasthan",
    "districtCode": "S2036",
    "districtName": "Deeg",
    "acNumber": 70,
    "acName": "Kaman",
    "partNumber": 109,
    "partName": "SAHSAN",
    "lat": 27.7406312,
    "lon": 77.1801137
  },
  {
    "partId": 73668,
    "stateCode": "S20",
    "stateName": "Rajasthan",
    "districtCode": "S2036",
    "districtName": "Deeg",
    "acNumber": 70,
    "acName": "Kaman",
    "partNumber": 110,
    "partName": "SAHSAN",
    "lat": 27.50874725,
    "lon": 77.20561222065001
  },
  {
    "partId": 73669,
    "stateCode": "S20",
    "stateName": "Rajasthan",
    "districtCode": "S2036",
    "districtName": "Deeg",
    "acNumber": 70,
    "acName": "Kaman",
    "partNumber": 111,
    "partName": "IKHANKA",
    "lat": 27.50874725,
    "lon": 77.20561222065001
  },
  {
    "partId": 73670,
    "stateCode": "S20",
    "stateName": "Rajasthan",
    "districtCode": "S2036",
    "districtName": "Deeg",
    "acNumber": 70,
    "acName": "Kaman",
    "partNumber": 112,
    "partName": "HULTANA",
    "lat": 27.7459012,
    "lon": 77.2014213
  },