[
  {
    "partId": 73060,
    "stateCode": "S20",
    "stateName": "Rajasthan",
    "districtCode": "S2034",
    "districtName": "Kotputli-Behror",
    "acNumber": 63,
    "acName": "Bansur",
    "partNumber": 1,
    "partName": "BHEDIVAS",
    "lat": 27.6846426,
    "lon": 76.3552224
  },
  {
    "partId": 73061,
    "stateCode": "S20",
    "stateName": "Rajasthan",
    "districtCode": "S2034",
    "districtName": "Kotputli-Behror",
    "acNumber": 63,
    "acName": "Bansur",
    "partNumber": 2,
    "partName": "JHIDA",
    "lat": 27.6846426,
    "lon": 76.3552224
  },
  {
    "partId": 73062,
    "stateCode": "S20",
    "stateName": "Rajasthan",
    "districtCode": "S2034",
    "districtName": "Kotputli-Behror",
    "acNumber": 63,
    "acName": "Bansur",
    "partNumber": 3,
    "partName": "DANGIVAS",
    "lat": 27.6846426,
    "lon": 76.3552224
  },
  {
    "partId": 73063,
    "stateCode": "S20",
    "stateName": "Rajasthan",
    "districtCode": "S2034",
    "districtName": "Kotputli-Behror",
    "acNumber": 63,
    "acName": "Bansur",
    "partNumber": 4,
    "partName": "BASAI  CHOUHAN",
    "lat": 27.6846426,
    "lon": 76.3552224
  },
  {
    "partId": 73064,
    "stateCode": "S20",
    "stateName": "Rajasthan",
    "districtCode": "S2034",
    "districtName": "Kotputli-Behror",
    "acNumber": 63,
    "acName": "Bansur",
    "partNumber": 5,
    "partName": "BABEDI",
    "lat": 27.6846426,
    "lon": 76.3552224
  },
  {
    "partId": 73065,
    "stateCode": "S20",
    "stateName": "Rajasthan",
    "districtCode": "S2034",
    "districtName": "Kotputli-Behror",
    "acNumber": 63,
    "acName": "Bansur",
    "partNumber": 6,
    "partName": "BABEDI",
    "lat": 27.6846426,
    "lon": 76.3552224
  },
  {
    "partId": 73066,
    "stateCode": "S20",
    "stateName": "Rajasthan",
    "districtCode": "S2034",
    "districtName": "Kotputli-Behror",
    "acNumber": 63,
    "acName": "Bansur",
    "partNumber": 7,
    "partName": "DEVANAGAR",
    "lat": 27.6846426,
    "lon": 76.3552224
  },
  {
    "partId": 73067,
    "stateCode": "S20",
    "stateName": "Rajasthan",
    "districtCode": "S2034",
    "districtName": "Kotputli-Behror",
    "acNumber": 63,
    "acName": "Bansur",
    "partNumber": 8,
    "partName": "MAJARA DHAKODA",
    "lat": 27.8131068,
    "lon": 76.3821351
  },
  {
    "partId": 73068,
    "stateCode": "S20",
    "stateName": "Rajasthan",
    "districtCode": "S2034",
    "districtName": "Kotputli-Behror",
    "acNumber": 63,
    "acName": "Bansur",
    "partNumber": 9,
    "partName": "CHHABADIWAS",
    "lat": 27.6846426,
    "lon": 76.3552224
  },
  {
    "partId": 73069,
    "stateCode": "S20",
    "stateName": "Rajasthan",
    "districtCode": "S2034",
    "districtName": "Kotputli-Behror",
    "acNumber": 63,
    "acName": "Bansur",
    "partNumber": 10,
    "partName": "RAYALI",
    "lat": 27.8026205,
    "lon": 76.4230227
  },
  {
    "partId": 73070,
    "stateCode": "S20",
    "stateName": "Rajasthan",
    "districtCode": "S2034",
    "districtName": "Kotputli-Behror",
    "acNumber": 63,
    "acName": "Bansur",
    "partNumber": 11,
    "partName": "MALLUWAS",
    "lat": 27.6846426,
    "lon": 76.3552224
  },
  {
    "partId": 73071,
    "stateCode": "S20",
    "stateName": "Rajasthan",
    "districtCode": "S2034",
    "districtName": "Kotputli-Behror",
    "acNumber": 63,
    "acName": "Bansur",
    "partNumber": 12,
    "partName": "MAJARA AHIR",
    "lat": 27.6846426,
    "lon": 76.3552224
  },
  {
    "partId": 73072,
    "stateCode": "S20",
    "stateName": "Rajasthan",
    "districtCode": "S2034",
    "districtName": "Kotputli-Behror",
    "acNumber": 63,
    "acName": "Bansur",
    "partNumber": 13,
    "partName": "ALANAPUR",
    "lat": 27.6846426,
    "lon": 76.3552224
  },
  {
    "partId": 73073,
    "stateCode": "S20",
    "stateName": "Rajasthan",
    "districtCode": "S2034",
    "districtName": "Kotputli-Behror",
    "acNumber": 63,
    "acName": "Bansur",
    "partNumber": 14,
    "partName": "ALANAPUR",
    "lat": 27.6846426,
    "lon": 76.3552224
  },
  {
    "partId": 73074,
    "stateCode": "S20",
    "stateName": "Rajasthan",
    "districtCode": "S2034",
    "districtName": "Kotputli-Behror",
    "acNumber": 63,
    "acName": "Bansur",
    "partNumber": 15,
    "partName": "SHIVANAGAR (MANNAVALI)",
    "lat": 27.6846426,
    "lon": 76.3552224
  },
  {
    "partId": 73075,
    "stateCode": "S20",
    "stateName": "Rajasthan",
    "districtCode": "S2034",
    "districtName": "Kotputli-Behror",
    "acNumber": 63,
    "acName": "Bansur",
    "partNumber": 16,
    "partName": "LADPUR",
    "lat": 27.784037,
    "lon": 76.4731264
  },
  {
    "partId": 73076,
    "stateCode": "S20",
    "stateName": "Rajasthan",
    "districtCode": "S2034",
    "districtName": "Kotputli-Behror",
    "acNumber": 63,
    "acName": "Bansur",
    "partNumber": 17,
    "partName": "CHIPARI",
    "lat": 27.7799364,
    "lon": 76.4696073
  },
  {
    "partId": 73077,
    "stateCode": "S20",
    "stateName": "Rajasthan",
    "districtCode": "S2034",
    "districtName": "Kotputli-Behror",
    "acNumber": 63,
    "acName": "Bansur",
    "partNumber": 18,
    "partName": "BHURIYAWAS",
    "lat": 27.6846426,
    "lon": 76.3552224
  },
  {
    "partId": 73078,
    "stateCode": "S20",
    "stateName": "Rajasthan",
    "districtCode": "S2034",
    "districtName": "Kotputli-Behror",
    "acNumber": 63,
    "acName": "Bansur",
    "partNumber": 19,
    "partName": "KISHORPURA",
    "lat": 27.7472021,
    "lon": 76.4931678
  },
  {
    "partId": 73079,
    "stateCode": "S20",
    "stateName": "Rajasthan",
    "districtCode": "S2034",
    "districtName": "Kotputli-Behror",
    "acNumber": 63,
    "acName": "Bansur",
    "partNumber": 20,
    "partName": "KISHORPURA",
    "lat": 27.7472021,
    "lon": 76.4931678
  },
  {
    "partId": 73080,
    "stateCode": "S20",
    "stateName": "Rajasthan",
    "districtCode": "S2034",
    "districtName": "Kotputli-Behror",
    "acNumber": 63,
    "acName": "Bansur",
    "partNumber": 21,
    "partName": "TALAWAS",
    "lat": 27.6846426,
    "lon": 76.3552224
  },
  {
    "partId": 73081,
    "stateCode": "S20",
    "stateName": "Rajasthan",
    "districtCode": "S2034",
    "districtName": "Kotputli-Behror",
    "acNumber": 63,
    "acName": "Bansur",
    "partNumber": 22,
    "partName": "HARASOURA",
    "lat": 27.6846426,
    "lon": 76.3552224
  },
  {
    "partId": 73082,
    "stateCode": "S20",
    "stateName": "Rajasthan",
    "districtCode": "S2034",
    "districtName": "Kotputli-Behror",
    "acNumber": 63,
    "acName": "Bansur",
    "partNumber": 23,
    "partName": "HARASOURA",
    "lat": 27.6846426,
    "lon": 76.3552224
  },
  {
    "partId": 73083,
    "stateCode": "S20",
    "stateName": "Rajasthan",
    "districtCode": "S2034",
    "districtName": "Kotputli-Behror",
    "acNumber": 63,
    "acName": "Bansur",
    "partNumber": 24,
    "partName": "HARASOURA",
    "lat": 27.6846426,
    "lon": 76.3552224
  },
  {
    "partId": 73084,
    "stateCode": "S20",
    "stateName": "Rajasthan",
    "districtCode": "S2034",
    "districtName": "Kotputli-Behror",
    "acNumber": 63,
    "acName": "Bansur",
    "partNumber": 25,
    "partName": "BHAGGU KA BAS",
    "lat": 27.6846426,
    "lon": 76.3552224
  },
  {
    "partId": 73302,
    "stateCode": "S20",
    "stateName": "Rajasthan",
    "districtCode": "S2034",
    "districtName": "Kotputli-Behror",
    "acNumber": 63,
    "acName": "Bansur",
    "partNumber": 26,
    "partName": "BHAGGU KA BAS",
    "lat": 27.6846426,
    "lon": 76.3552224
  },
  {
    "partId": 73085,
    "stateCode": "S20",
    "stateName": "Rajasthan",
    "districtCode": "S2034",
    "districtName": "Kotputli-Behror",
    "acNumber": 63,
    "acName": "Bansur",
    "partNumber": 27,
    "partName": "DEVASAN",
    "lat": 27.6846426,
    "lon": 76.3552224
  },
  {
    "partId": 73086,
    "stateCode": "S20",
    "stateName": "Rajasthan",
    "districtCode": "S2034",
    "districtName": "Kotputli-Behror",
    "acNumber": 63,
    "acName": "Bansur",
    "partNumber": 28,
    "partName": "KHATOTI",
    "lat": 27.6846426,
    "lon": 76.3552224
  },
  {
    "partId": 73087,
    "stateCode": "S20",
    "stateName": "Rajasthan",
    "districtCode": "S2034",
    "districtName": "Kotputli-Behror",
    "acNumber": 63,
    "acName": "Bansur",
    "partNumber": 29,
    "partName": "BABARIYA",
    "lat": 27.7777341,
    "lon": 76.3900423
  },
  {
    "partId": 73088,
    "stateCode": "S20",
    "stateName": "Rajasthan",
    "districtCode": "S2034",
    "districtName": "Kotputli-Behror",
    "acNumber": 63,
    "acName": "Bansur",
    "partNumber": 30,
    "partName": "BABARIYA",
    "lat": 27.7777341,
    "lon": 76.3900423
  },
  {
    "partId": 73089,
    "stateCode": "S20",
    "stateName": "Rajasthan",
    "districtCode": "S2034",
    "districtName": "Kotputli-Behror",
    "acNumber": 63,
    "acName": "Bansur",
    "partNumber": 31,
    "partName": "MUGALAPUR",
    "lat": 27.6846426,
    "lon": 76.3552224
  },
  {
    "partId": 73090,
    "stateCode": "S20",
    "stateName": "Rajasthan",
    "districtCode": "S2034",
    "districtName": "Kotputli-Behror",
    "acNumber": 63,
    "acName": "Bansur",
    "partNumber": 32,
    "partName": "ISARA KA BAS",
    "lat": 27.7884221,
    "lon": 76.3366341
  },
  {
    "partId": 73091,
    "stateCode": "S20",
    "stateName": "Rajasthan",
    "districtCode": "S2034",
    "districtName": "Kotputli-Behror",
    "acNumber": 63,
    "acName": "Bansur",
    "partNumber": 33,
    "partName": "MANCHI",
    "lat": 27.7677096,
    "lon": 76.3303256
  },
  {
    "partId": 73092,
    "stateCode": "S20",
    "stateName": "Rajasthan",
    "districtCode": "S2034",
    "districtName": "Kotputli-Behror",
    "acNumber": 63,
    "acName": "Bansur",
    "partNumber": 34,
    "partName": "MEERAPUR",
    "lat": 27.7646147,
    "lon": 76.3282442
  },
  {
    "partId": 73093,
    "stateCode": "S20",
    "stateName": "Rajasthan",
    "districtCode": "S2034",
    "districtName": "Kotputli-Behror",
    "acNumber": 63,
    "acName": "Bansur",
    "partNumber": 35,
    "partName": "MORODI",
    "lat": 27.7824233,
    "lon": 76.3215494
  },
  {
    "partId": 73303,
    "stateCode": "S20",
    "stateName": "Rajasthan",
    "districtCode": "S2034",
    "districtName": "Kotputli-Behror",
    "acNumber": 63,
    "acName": "Bansur",
    "partNumber": 36,
    "partName": "MORODI",
    "lat": 27.7824233,
    "lon": 76.3215494
  },
  {
    "partId": 73094,
    "stateCode": "S20",
    "stateName": "Rajasthan",
    "districtCode": "S2034",
    "districtName": "Kotputli-Behror",
    "acNumber": 63,
    "acName": "Bansur",
    "partNumber": 37,
    "partName": "NANGAL LAKHA",
    "lat": 27.7821385,
    "lon": 76.2869167
  },
  {
    "partId": 73095,
    "stateCode": "S20",
    "stateName": "Rajasthan",
    "districtCode": "S2034",
    "districtName": "Kotputli-Behror",
    "acNumber": 63,
    "acName": "Bansur",
    "partNumber": 38,
    "partName": "KOUTHIYA",
    "lat": 27.6846426,
    "lon": 76.3552224
  },
  {
    "partId": 73096,
    "stateCode": "S20",
    "stateName": "Rajasthan",
    "districtCode": "S2034",
    "districtName": "Kotputli-Behror",
    "acNumber": 63,
    "acName": "Bansur",
    "partNumber": 39,
    "partName": "PARASA KA BAS",
    "lat": 27.7763292,
    "lon": 76.3066577
  },
  {
    "partId": 73097,
    "stateCode": "S20",
    "stateName": "Rajasthan",
    "districtCode": "S2034",
    "districtName": "Kotputli-Behror",
    "acNumber": 63,
    "acName": "Bansur",
    "partNumber": 40,
    "partName": "DHANI CHECHIYAN",
    "lat": 27.6846426,
    "lon": 76.3552224
  },
  {
    "partId": 73098,
    "stateCode": "S20",
    "stateName": "Rajasthan",
    "districtCode": "S2034",
    "districtName": "Kotputli-Behror",
    "acNumber": 63,
    "acName": "Bansur",
    "partNumber": 41,
    "partName": "BABERA",
    "lat": 27.7512089,
    "lon": 76.258775
  },
  {
    "partId": 73099,
    "stateCode": "S20",
    "stateName": "Rajasthan",
    "districtCode": "S2034",
    "districtName": "Kotputli-Behror",
    "acNumber": 63,
    "acName": "Bansur",
    "partNumber": 42,
    "partName": "BABERA",
    "lat": 27.7512089,
    "lon": 76.258775
  },
  {
    "partId": 73100,
    "stateCode": "S20",
    "stateName": "Rajasthan",
    "districtCode": "S2034",
    "districtName": "Kotputli-Behror",
    "acNumber": 63,
    "acName": "Bansur",
    "partNumber": 43,
    "partName": "CHODHANIYA",
    "lat": 27.6846426,
    "lon": 76.3552224
  },
  {
    "partId": 73101,
    "stateCode": "S20",
    "stateName": "Rajasthan",
    "districtCode": "S2034",
    "districtName": "Kotputli-Behror",
    "acNumber": 63,
    "acName": "Bansur",
    "partNumber": 44,
    "partName": "KEHAR PURA",
    "lat": 27.6846426,
    "lon": 76.3552224
  },
  {
    "partId": 73102,
    "stateCode": "S20",
    "stateName": "Rajasthan",
    "districtCode": "S2034",
    "districtName": "Kotputli-Behror",
    "acNumber": 63,
    "acName": "Bansur",
    "partNumber": 45,
    "partName": "LOYATI",
    "lat": 27.7292263,
    "lon": 76.2944162
  },
  {
    "partId": 73103,
    "stateCode": "S20",
    "stateName": "Rajasthan",
    "districtCode": "S2034",
    "districtName": "Kotputli-Behror",
    "acNumber": 63,
    "acName": "Bansur",
    "partNumber": 46,
    "partName": "MAHANAPUR",
    "lat": 27.6846426,
    "lon": 76.3552224
  },
  {
    "partId": 73104,
    "stateCode": "S20",
    "stateName": "Rajasthan",
    "districtCode": "S2034",
    "districtName": "Kotputli-Behror",
    "acNumber": 63,
    "acName": "Bansur",
    "partNumber": 47,
    "partName": "MAHANAPUR",
    "lat": 27.6846426,
    "lon": 76.3552224
  },
  {
    "partId": 73105,
    "stateCode": "S20",
    "stateName": "Rajasthan",
    "districtCode": "S2034",
    "districtName": "Kotputli-Behror",
    "acNumber": 63,
    "acName": "Bansur",
    "partNumber": 48,
    "partName": "DHAKALA",
    "lat": 27.6846426,
    "lon": 76.3552224
  },
  {
    "partId": 73106,
    "stateCode": "S20",
    "stateName": "Rajasthan",
    "districtCode": "S2034",
    "districtName": "Kotputli-Behror",
    "acNumber": 63,
    "acName": "Bansur",
    "partNumber": 49,
    "partName": "UCHHAPUR",
    "lat": 27.6846426,
    "lon": 76.3552224
  },
  {
    "partId": 73107,
    "stateCode": "S20",
    "stateName": "Rajasthan",
    "districtCode": "S2034",
    "districtName": "Kotputli-Behror",
    "acNumber": 63,
    "acName": "Bansur",
    "partNumber": 50,
    "partName": "RAM NAGAR",
    "lat": 27.7260069,
    "lon": 76.3634562
  },
  {
    "partId": 73108,
    "stateCode": "S20",
    "stateName": "Rajasthan",
    "districtCode": "S2034",
    "districtName": "Kotputli-Behror",
    "acNumber": 63,
    "acName": "Bansur",
    "partNumber": 51,
    "partName": "GUNTA",
    "lat": 27.6846426,
    "lon": 76.3552224
  },
  {
    "partId": 73109,
    "stateCode": "S20",
    "stateName": "Rajasthan",
    "districtCode": "S2034",
    "districtName": "Kotputli-Behror",
    "acNumber": 63,
    "acName": "Bansur",
    "partNumber": 52,
    "partName": "GUNTA",
    "lat": 27.6846426,
    "lon": 76.3552224
  },
  {
    "partId": 73110,
    "stateCode": "S20",
    "stateName": "Rajasthan",
    "districtCode": "S2034",
    "districtName": "Kotputli-Behror",
    "acNumber": 63,
    "acName": "Bansur",
    "partNumber": 53,
    "partName": "GUNTA",
    "lat": 27.6846426,
    "lon": 76.3552224
  },
  {
    "partId": 73111,
    "stateCode": "S20",
    "stateName": "Rajasthan",
    "districtCode": "S2034",
    "districtName": "Kotputli-Behror",
    "acNumber": 63,
    "acName": "Bansur",
    "partNumber": 54,
    "partName": "SHAHAPUR",
    "lat": 27.6846426,
    "lon": 76.3552224
  },
  {
    "partId": 73112,
    "stateCode": "S20",
    "stateName": "Rajasthan",
    "districtCode": "S2034",
    "districtName": "Kotputli-Behror",
    "acNumber": 63,
    "acName": "Bansur",
    "partNumber": 55,
    "partName": "SHAHAPUR",
    "lat": 27.6846426,
    "lon": 76.3552224
  },
  {
    "partId": 73113,
    "stateCode": "S20",
    "stateName": "Rajasthan",
    "districtCode": "S2034",
    "districtName": "Kotputli-Behror",
    "acNumber": 63,
    "acName": "Bansur",
    "partNumber": 56,
    "partName": "MOUTHUKA",
    "lat": 27.6846426,
    "lon": 76.3552224
  },
  {
    "partId": 73114,
    "stateCode": "S20",
    "stateName": "Rajasthan",
    "districtCode": "S2034",
    "districtName": "Kotputli-Behror",
    "acNumber": 63,
    "acName": "Bansur",
    "partNumber": 57,
    "partName": "MOUTHUKA",
    "lat": 27.6846426,
    "lon": 76.3552224
  },
  {
    "partId": 73115,
    "stateCode": "S20",
    "stateName": "Rajasthan",
    "districtCode": "S2034",
    "districtName": "Kotputli-Behror",
    "acNumber": 63,
    "acName": "Bansur",
    "partNumber": 58,
    "partName": "GWADA",
    "lat": 27.6846426,
    "lon": 76.3552224
  },
  {
    "partId": 73116,
    "stateCode": "S20",
    "stateName": "Rajasthan",
    "districtCode": "S2034",
    "districtName": "Kotputli-Behror",
    "acNumber": 63,
    "acName": "Bansur",
    "partNumber": 59,
    "partName": "DHIRAPUR",
    "lat": 27.6846426,
    "lon": 76.3552224
  },
  {
    "partId": 73117,
    "stateCode": "S20",
    "stateName": "Rajasthan",
    "districtCode": "S2034",
    "districtName": "Kotputli-Behror",
    "acNumber": 63,
    "acName": "Bansur",
    "partNumber": 60,
    "partName": "NAROL",
    "lat": 27.7652983,
    "lon": 76.4481067
  },
  {
    "partId": 73118,
    "stateCode": "S20",
    "stateName": "Rajasthan",
    "districtCode": "S2034",
    "districtName": "Kotputli-Behror",
    "acNumber": 63,
    "acName": "Bansur",
    "partNumber": 61,
    "partName": "BAMANBAS",
    "lat": 27.6846426,
    "lon": 76.3552224
  },
  {
    "partId": 73119,
    "stateCode": "S20",
    "stateName": "Rajasthan",
    "districtCode": "S2034",
    "districtName": "Kotputli-Behror",
    "acNumber": 63,
    "acName": "Bansur",
    "partNumber": 62,
    "partName": "RAGHUNATH PURA",
    "lat": 27.6846426,
    "lon": 76.3552224
  },
  {
    "partId": 73120,
    "stateCode": "S20",
    "stateName": "Rajasthan",
    "districtCode": "S2034",
    "districtName": "Kotputli-Behror",
    "acNumber": 63,
    "acName": "Bansur",
    "partNumber": 63,
    "partName": "HAMIRAPUR",
    "lat": 27.6846426,
    "lon": 76.3552224
  },
  {
    "partId": 73121,
    "stateCode": "S20",
    "stateName": "Rajasthan",
    "districtCode": "S2034",
    "districtName": "Kotputli-Behror",
    "acNumber": 63,
    "acName": "Bansur",
    "partNumber": 64,
    "partName": "HAMIRAPUR",
    "lat": 27.6846426,
    "lon": 76.3552224
  },
  {
    "partId": 73122,
    "stateCode": "S20",
    "stateName": "Rajasthan",
    "districtCode": "S2034",
    "districtName": "Kotputli-Behror",
    "acNumber": 63,
    "acName": "Bansur",
    "partNumber": 65,
    "partName": "HAMIRAPUR",
    "lat": 27.6846426,
    "lon": 76.3552224
  },
  {
    "partId": 73123,
    "stateCode": "S20",
    "stateName": "Rajasthan",
    "districtCode": "S2034",
    "districtName": "Kotputli-Behror",
    "acNumber": 63,
    "acName": "Bansur",
    "partNumber": 66,
    "partName": "HAMIRAPUR",
    "lat": 27.6846426,
    "lon": 76.3552224
  },
  {
    "partId": 73124,
    "stateCode": "S20",
    "stateName": "Rajasthan",
    "districtCode": "S2034",
    "districtName": "Kotputli-Behror",
    "acNumber": 63,
    "acName": "Bansur",
    "partNumber": 67,
    "partName": "HAMIRAPUR",
    "lat": 27.6846426,
    "lon": 76.3552224
  },
  {
    "partId": 73125,
    "stateCode": "S20",
    "stateName": "Rajasthan",
    "districtCode": "S2034",
    "districtName": "Kotputli-Behror",
    "acNumber": 63,
    "acName": "Bansur",
    "partNumber": 68,
    "partName": "JAISINGHPURA",
    "lat": 27.7740284,
    "lon": 76.1776103
  },
  {
    "partId": 73126,
    "stateCode": "S20",
    "stateName": "Rajasthan",
    "districtCode": "S2034",
    "districtName": "Kotputli-Behror",
    "acNumber": 63,
    "acName": "Bansur",
    "partNumber": 69,
    "partName": "DHAMODAR KA BAS  CHHIND",
    "lat": 27.6846426,
    "lon": 76.3552224
  },
  {
    "partId": 73127,
    "stateCode": "S20",
    "stateName": "Rajasthan",
    "districtCode": "S2034",
    "districtName": "Kotputli-Behror",
    "acNumber": 63,
    "acName": "Bansur",
    "partNumber": 70,
    "partName": "HAJIPUR",
    "lat": 27.6882688,
    "lon": 76.4492547
  },
  {
    "partId": 73128,
    "stateCode": "S20",
    "stateName": "Rajasthan",
    "districtCode": "S2034",
    "districtName": "Kotputli-Behror",
    "acNumber": 63,
    "acName": "Bansur",
    "partNumber": 71,
    "partName": "HAJIPUR",
    "lat": 27.6882688,
    "lon": 76.4492547
  },
  {
    "partId": 73129,
    "stateCode": "S20",
    "stateName": "Rajasthan",
    "districtCode": "S2034",
    "districtName": "Kotputli-Behror",
    "acNumber": 63,
    "acName": "Bansur",
    "partNumber": 72,
    "partName": "HAJIPUR",
    "lat": 27.6882688,
    "lon": 76.4492547
  },
  {
    "partId": 73304,
    "stateCode": "S20",
    "stateName": "Rajasthan",
    "districtCode": "S2034",
    "districtName": "Kotputli-Behror",
    "acNumber": 63,
    "acName": "Bansur",
    "partNumber": 73,
    "partName": "PAPARDA (HAJIPUR)",
    "lat": 27.6846426,
    "lon": 76.3552224
  },
  {
    "partId": 73130,
    "stateCode": "S20",
    "stateName": "Rajasthan",
    "districtCode": "S2034",
    "districtName": "Kotputli-Behror",
    "acNumber": 63,
    "acName": "Bansur",
    "partNumber": 74,
    "partName": "HAJIPUR",
    "lat": 27.6882688,
    "lon": 76.4492547
  },
  {
    "partId": 73131,
    "stateCode": "S20",
    "stateName": "Rajasthan",
    "districtCode": "S2034",
    "districtName": "Kotputli-Behror",
    "acNumber": 63,
    "acName": "Bansur",
    "partNumber": 75,
    "partName": "KANJI PURA",
    "lat": 27.6846426,
    "lon": 76.3552224
  },
  {
    "partId": 73132,
    "stateCode": "S20",
    "stateName": "Rajasthan",
    "districtCode": "S2034",
    "districtName": "Kotputli-Behror",
    "acNumber": 63,
    "acName": "Bansur",
    "partNumber": 76,
    "partName": "BHUPASEDA",
    "lat": 27.6846426,
    "lon": 76.3552224
  },
  {
    "partId": 73133,
    "stateCode": "S20",
    "stateName": "Rajasthan",
    "districtCode": "S2034",
    "districtName": "Kotputli-Behror",
    "acNumber": 63,
    "acName": "Bansur",
    "partNumber": 77,
    "partName": "BHUPASEDA",
    "lat": 27.6846426,
    "lon": 76.3552224
  },
  {
    "partId": 73134,
    "stateCode": "S20",
    "stateName": "Rajasthan",
    "districtCode": "S2034",
    "districtName": "Kotputli-Behror",
    "acNumber": 63,
    "acName": "Bansur",
    "partNumber": 78,
    "partName": "BHUPASEDA",
    "lat": 27.6846426,
    "lon": 76.3552224
  },
  {
    "partId": 73135,
    "stateCode": "S20",
    "stateName": "Rajasthan",
    "districtCode": "S2034",
    "districtName": "Kotputli-Behror",
    "acNumber": 63,
    "acName": "Bansur",
    "partNumber": 79,
    "partName": "CHULA",
    "lat": 27.6846426,
    "lon": 76.3552224
  },
  {
    "partId": 73136,
    "stateCode": "S20",
    "stateName": "Rajasthan",
    "districtCode": "S2034",
    "districtName": "Kotputli-Behror",
    "acNumber": 63,
    "acName": "Bansur",
    "partNumber": 80,
    "partName": "KALYAN NAGAR, MANDHA",
    "lat": 27.6846426,
    "lon": 76.3552224
  },
  {
    "partId": 73137,
    "stateCode": "S20",
    "stateName": "Rajasthan",
    "districtCode": "S2034",
    "districtName": "Kotputli-Behror",
    "acNumber": 63,
    "acName": "Bansur",
    "partNumber": 81,
    "partName": "PHATEHAPUR",
    "lat": 27.6846426,
    "lon": 76.3552224
  },
  {
    "partId": 73138,
    "stateCode": "S20",
    "stateName": "Rajasthan",
    "districtCode": "S2034",
    "districtName": "Kotputli-Behror",
    "acNumber": 63,
    "acName": "Bansur",
    "partNumber": 82,
    "partName": "PHATEHAPUR",
    "lat": 27.6846426,
    "lon": 76.3552224
  },
  {
    "partId": 73139,
    "stateCode": "S20",
    "stateName": "Rajasthan",
    "districtCode": "S2034",
    "districtName": "Kotputli-Behror",
    "acNumber": 63,
    "acName": "Bansur",
    "partNumber": 83,
    "partName": "MAJARA RAWAT",
    "lat": 27.6846426,
    "lon": 76.3552224
  },
  {
    "partId": 73140,
    "stateCode": "S20",
    "stateName": "Rajasthan",
    "districtCode": "S2034",
    "districtName": "Kotputli-Behror",
    "acNumber": 63,
    "acName": "Bansur",
    "partNumber": 84,
    "partName": "DABARIYA",
    "lat": 27.7105447,
    "lon": 76.3265276
  },
  {
    "partId": 73141,
    "stateCode": "S20",
    "stateName": "Rajasthan",
    "districtCode": "S2034",
    "districtName": "Kotputli-Behror",
    "acNumber": 63,
    "acName": "Bansur",
    "partNumber": 85,
    "partName": "SANTHALAPUR",
    "lat": 27.6846426,
    "lon": 76.3552224
  },
  {
    "partId": 73142,
    "stateCode": "S20",
    "stateName": "Rajasthan",
    "districtCode": "S2034",
    "districtName": "Kotputli-Behror",
    "acNumber": 63,
    "acName": "Bansur",
    "partNumber": 86,
    "partName": "SANTHALAPUR",
    "lat": 27.6846426,
    "lon": 76.3552224
  },
  {
    "partId": 73143,
    "stateCode": "S20",
    "stateName": "Rajasthan",
    "districtCode": "S2034",
    "districtName": "Kotputli-Behror",
    "acNumber": 63,
    "acName": "Bansur",
    "partNumber": 87,
    "partName": "KOTHAL",
    "lat": 27.6846426,
    "lon": 76.3552224
  },
  {
    "partId": 73144,
    "stateCode": "S20",
    "stateName": "Rajasthan",
    "districtCode": "S2034",
    "districtName": "Kotputli-Behror",
    "acNumber": 63,
    "acName": "Bansur",
    "partNumber": 88,
    "partName": "NANGALABHAVSINGH",
    "lat": 27.6846426,
    "lon": 76.3552224
  },
  {
    "partId": 73145,
    "stateCode": "S20",
    "stateName": "Rajasthan",
    "districtCode": "S2034",
    "districtName": "Kotputli-Behror",
    "acNumber": 63,
    "acName": "Bansur",
    "partNumber": 89,
    "partName": "NANGALABHAVSINGH",
    "lat": 27.6846426,
    "lon": 76.3552224
  },
  {
    "partId": 73146,
    "stateCode": "S20",
    "stateName": "Rajasthan",
    "districtCode": "S2034",
    "districtName": "Kotputli-Behror",
    "acNumber": 63,
    "acName": "Bansur",
    "partNumber": 90,
    "partName": "BUTERI",
    "lat": 27.7302994,
    "lon": 76.2588072
  },
  {
    "partId": 73147,
    "stateCode": "S20",
    "stateName": "Rajasthan",
    "districtCode": "S2034",
    "districtName": "Kotputli-Behror",
    "acNumber": 63,
    "acName": "Bansur",
    "partNumber": 91,
    "partName": "BUTERI",
    "lat": 27.7302994,
    "lon": 76.2588072
  },
  {
    "partId": 73148,
    "stateCode": "S20",
    "stateName": "Rajasthan",
    "districtCode": "S2034",
    "districtName": "Kotputli-Behror",
    "acNumber": 63,
    "acName": "Bansur",
    "partNumber": 92,
    "partName": "KANKARIYA",
    "lat": 27.6968852,
    "lon": 76.2810588
  },
  {
    "partId": 73149,
    "stateCode": "S20",
    "stateName": "Rajasthan",
    "districtCode": "S2034",
    "districtName": "Kotputli-Behror",
    "acNumber": 63,
    "acName": "Bansur",
    "partNumber": 93,
    "partName": "ALAMAPUR",
    "lat": 27.6846426,
    "lon": 76.3552224
  },
  {
    "partId": 73150,
    "stateCode": "S20",
    "stateName": "Rajasthan",
    "districtCode": "S2034",
    "districtName": "Kotputli-Behror",
    "acNumber": 63,
    "acName": "Bansur",
    "partNumber": 94,
    "partName": "KHARAKHADA",
    "lat": 27.8766575,
    "lon": 76.248765
  },
  {
    "partId": 73151,
    "stateCode": "S20",
    "stateName": "Rajasthan",
    "districtCode": "S2034",
    "districtName": "Kotputli-Behror",
    "acNumber": 63,
    "acName": "Bansur",
    "partNumber": 95,
    "partName": "KHEDA",
    "lat": 27.6846426,
    "lon": 76.3552224
  },
  {
    "partId": 73152,
    "stateCode": "S20",
    "stateName": "Rajasthan",
    "districtCode": "S2034",
    "districtName": "Kotputli-Behror",
    "acNumber": 63,
    "acName": "Bansur",
    "partNumber": 96,
    "partName": "JHAJHARAPUR (KHEDA)",
    "lat": 27.6846426,
    "lon": 76.3552224
  },
  {
    "partId": 73153,
    "stateCode": "S20",
    "stateName": "Rajasthan",
    "districtCode": "S2034",
    "districtName": "Kotputli-Behror",
    "acNumber": 63,
    "acName": "Bansur",
    "partNumber": 97,
    "partName": "KHEDA",
    "lat": 27.6846426,
    "lon": 76.3552224
  },
  {
    "partId": 73154,
    "stateCode": "S20",
    "stateName": "Rajasthan",
    "districtCode": "S2034",
    "districtName": "Kotputli-Behror",
    "acNumber": 63,
    "acName": "Bansur",
    "partNumber": 98,
    "partName": "DHANI DHOULATSINGH",
    "lat": 27.6846426,
    "lon": 76.3552224
  },
  {
    "partId": 73155,
    "stateCode": "S20",
    "stateName": "Rajasthan",
    "districtCode": "S2034",
    "districtName": "Kotputli-Behror",
    "acNumber": 63,
    "acName": "Bansur",
    "partNumber": 99,
    "partName": "BADHADHUNDHALA",
    "lat": 27.6846426,
    "lon": 76.3552224
  },
  {
    "partId": 73156,
    "stateCode": "S20",
    "stateName": "Rajasthan",
    "districtCode": "S2034",
    "districtName": "Kotputli-Behror",
    "acNumber": 63,
    "acName": "Bansur",
    "partNumber": 100,
    "partName": "BADHBHAVSINGH",
    "lat": 27.67829578277311,
    "lon": 76.34669342773108
  },
  {
    "partId": 73305,
    "stateCode": "S20",
    "stateName": "Rajasthan",
    "districtCode": "S2034",
    "districtName": "Kotputli-Behror",
    "acNumber": 63,
    "acName": "Bansur",
    "partNumber": 101,
    "partName": "BADH BHAVSINGH",
    "lat": 27.6846426,
    "lon": 76.3552224
  },
  {
    "partId": 73157,
    "stateCode": "S20",
    "stateName": "Rajasthan",
    "districtCode": "S2034",
    "districtName": "Kotputli-Behror",
    "acNumber": 63,
    "acName": "Bansur",
    "partNumber": 102,
    "partName": "BANSUR BADH THEGUWAS",
    "lat": 27.6846426,
    "lon": 76.3552224
  },
  {
    "partId": 73158,
    "stateCode": "S20",
    "stateName": "Rajasthan",
    "districtCode": "S2034",
    "districtName": "Kotputli-Behror",
    "acNumber": 63,
    "acName": "Bansur",
    "partNumber": 103,
    "partName": "BADH THEGUVAS",
    "lat": 27.6846426,
    "lon": 76.3552224
  },
  {
    "partId": 73159,
    "stateCode": "S20",
    "stateName": "Rajasthan",
    "districtCode": "S2034",
    "districtName": "Kotputli-Behror",
    "acNumber": 63,
    "acName": "Bansur",
    "partNumber": 104,
    "partName": "BANSUR",
    "lat": 27.6846426,
    "lon": 76.3552224
  },
  {
    "partId": 73160,
    "stateCode": "S20",
    "stateName": "Rajasthan",
    "districtCode": "S2034",
    "districtName": "Kotputli-Behror",
    "acNumber": 63,
    "acName": "Bansur",
    "partNumber": 105,
    "partName": "BANSUR",
    "lat": 27.6846426,
    "lon": 76.3552224
  },
  {
    "partId": 73161,
    "stateCode": "S20",
    "stateName": "Rajasthan",
    "districtCode": "S2034",
    "districtName": "Kotputli-Behror",
    "acNumber": 63,
    "acName": "Bansur",
    "partNumber": 106,
    "partName": "BANSUR",
    "lat": 27.6846426,
    "lon": 76.3552224
  },
  {
    "partId": 73162,
    "stateCode": "S20",
    "stateName": "Rajasthan",
    "districtCode": "S2034",
    "districtName": "Kotputli-Behror",
    "acNumber": 63,
    "acName": "Bansur",
    "partNumber": 107,
    "partName": "BANSUR SILLAR",
    "lat": 27.6846426,
    "lon": 76.3552224
  },
  {
    "partId": 73163,
    "stateCode": "S20",
    "stateName": "Rajasthan",
    "districtCode": "S2034",
    "districtName": "Kotputli-Behror",
    "acNumber": 63,
    "acName": "Bansur",
    "partNumber": 108,
    "partName": "BANSUR",
    "lat": 27.67829578277311,
    "lon": 76.34669342773108
  },
  {
    "partId": 73164,
    "stateCode": "S20",
    "stateName": "Rajasthan",
    "districtCode": "S2034",
    "districtName": "Kotputli-Behror",
    "acNumber": 63,
    "acName": "Bansur",
    "partNumber": 109,
    "partName": "BANSUR",
    "lat": 27.67829578277311,
    "lon": 76.34669342773108
  },
  {
    "partId": 73165,
    "stateCode": "S20",
    "stateName": "Rajasthan",
    "districtCode": "S2034",
    "districtName": "Kotputli-Behror",
    "acNumber": 63,
    "acName": "Bansur",
    "partNumber": 110,
    "partName": "BANSUR",
    "lat": 27.6846426,
    "lon": 76.3552224
  },
  {
    "partId": 73166,
    "stateCode": "S20",
    "stateName": "Rajasthan",
    "districtCode": "S2034",
    "districtName": "Kotputli-Behror",
    "acNumber": 63,
    "acName": "Bansur",
    "partNumber": 111,
    "partName": "BANSUR NONDAWALI",
    "lat": 27.6846426,
    "lon": 76.3552224
  },
  {
    "partId": 73167,
    "stateCode": "S20",
    "stateName": "Rajasthan",
    "districtCode": "S2034",
    "districtName": "Kotputli-Behror",
    "acNumber": 63,
    "acName": "Bansur",
    "partNumber": 112,
    "partName": "BANSUR NONDAWALI",
    "lat": 27.6846426,
    "lon": 76.3552224
  },
  {
    "partId": 73168,
    "stateCode": "S20",
    "stateName": "Rajasthan",
    "districtCode": "S2034",
    "districtName": "Kotputli-Behror",
    "acNumber": 63,
    "acName": "Bansur",
    "partNumber": 113,
    "partName": "BANSUR BADH BHAV SINGH",
    "lat": 27.6846426,
    "lon": 76.3552224
  },
  {
    "partId": 73169,
    "stateCode": "S20",
    "stateName": "Rajasthan",
    "districtCode": "S2034",
    "districtName": "Kotputli-Behror",
    "acNumber": 63,
    "acName": "Bansur",
    "partNumber": 114,
    "partName": "BADH THEGUWAS, BANSUR",
    "lat": 27.6846426,
    "lon": 76.3552224
  },
  {
    "partId": 73170,
    "stateCode": "S20",
    "stateName": "Rajasthan",
    "districtCode": "S2034",
    "districtName": "Kotputli-Behror",
    "acNumber": 63,
    "acName": "Bansur",
    "partNumber": 115,
    "partName": "UDHO KA BAS",
    "lat": 27.6698843,
    "lon": 76.3777041
  },
  {
    "partId": 73171,
    "stateCode": "S20",
    "stateName": "Rajasthan",
    "districtCode": "S2034",
    "districtName": "Kotputli-Behror",
    "acNumber": 63,
    "acName": "Bansur",
    "partNumber": 116,
    "partName": "BALAWAS",
    "lat": 27.6810579,
    "lon": 76.3825965
  },
  {
    "partId": 73172,
    "stateCode": "S20",
    "stateName": "Rajasthan",
    "districtCode": "S2034",
    "districtName": "Kotputli-Behror",
    "acNumber": 63,
    "acName": "Bansur",
    "partNumber": 117,
    "partName": "BALAWAS",
    "lat": 27.6810579,
    "lon": 76.3825965
  },
  {
    "partId": 73173,
    "stateCode": "S20",
    "stateName": "Rajasthan",
    "districtCode": "S2034",
    "districtName": "Kotputli-Behror",
    "acNumber": 63,
    "acName": "Bansur",
    "partNumber": 118,
    "partName": "RATANPURA",
    "lat": 27.6789677,
    "lon": 76.3951921
  },
  {
    "partId": 73174,
    "stateCode": "S20",
    "stateName": "Rajasthan",
    "districtCode": "S2034",
    "districtName": "Kotputli-Behror",
    "acNumber": 63,
    "acName": "Bansur",
    "partNumber": 119,
    "partName": "MUNDALI",
    "lat": 27.6846426,
    "lon": 76.3552224
  },
  {
    "partId": 73175,
    "stateCode": "S20",
    "stateName": "Rajasthan",
    "districtCode": "S2034",
    "districtName": "Kotputli-Behror",
    "acNumber": 63,
    "acName": "Bansur",
    "partNumber": 120,
    "partName": "MANGALWA",
    "lat": 27.6557826,
    "lon": 76.4136672
  },
  {
    "partId": 73176,
    "stateCode": "S20",
    "stateName": "Rajasthan",
    "districtCode": "S2034",
    "districtName": "Kotputli-Behror",
    "acNumber": 63,
    "acName": "Bansur",
    "partNumber": 121,
    "partName": "BALBA KA BAS",
    "lat": 27.6846426,
    "lon": 76.3552224
  },
  {
    "partId": 73177,
    "stateCode": "S20",
    "stateName": "Rajasthan",
    "districtCode": "S2034",
    "districtName": "Kotputli-Behror",
    "acNumber": 63,
    "acName": "Bansur",
    "partNumber": 122,
    "partName": "GHAT",
    "lat": 27.655564,
    "lon": 76.4011252
  },
  {
    "partId": 73178,
    "stateCode": "S20",
    "stateName": "Rajasthan",
    "districtCode": "S2034",
    "districtName": "Kotputli-Behror",
    "acNumber": 63,
    "acName": "Bansur",
    "partNumber": 123,
    "partName": "TODIYA KA BAS",
    "lat": 27.6557826,
    "lon": 76.3709664
  },
  {
    "partId": 73179,
    "stateCode": "S20",
    "stateName": "Rajasthan",
    "districtCode": "S2034",
    "districtName": "Kotputli-Behror",
    "acNumber": 63,
    "acName": "Bansur",
    "partNumber": 124,
    "partName": "GIRUDI",
    "lat": 27.6846426,
    "lon": 76.3552224
  },
  {
    "partId": 73180,
    "stateCode": "S20",
    "stateName": "Rajasthan",
    "districtCode": "S2034",
    "districtName": "Kotputli-Behror",
    "acNumber": 63,
    "acName": "Bansur",
    "partNumber": 125,
    "partName": "GIRUDI",
    "lat": 27.6846426,
    "lon": 76.3552224
  },
  {
    "partId": 73181,
    "stateCode": "S20",
    "stateName": "Rajasthan",
    "districtCode": "S2034",
    "districtName": "Kotputli-Behror",
    "acNumber": 63,
    "acName": "Bansur",
    "partNumber": 126,
    "partName": "GIRUDI",
    "lat": 27.6846426,
    "lon": 76.3552224
  },
  {
    "partId": 73182,
    "stateCode": "S20",
    "stateName": "Rajasthan",
    "districtCode": "S2034",
    "districtName": "Kotputli-Behror",
    "acNumber": 63,
    "acName": "Bansur",
    "partNumber": 127,
    "partName": "MANDIJA BASAI",
    "lat": 27.6846426,
    "lon": 76.3552224
  },
  {
    "partId": 73183,
    "stateCode": "S20",
    "stateName": "Rajasthan",
    "districtCode": "S2034",
    "districtName": "Kotputli-Behror",
    "acNumber": 63,
    "acName": "Bansur",
    "partNumber": 128,
    "partName": "SHYAMPURA",
    "lat": 27.6609712,
    "lon": 76.3061857
  },
  {
    "partId": 73184,
    "stateCode": "S20",
    "stateName": "Rajasthan",
    "districtCode": "S2034",
    "districtName": "Kotputli-Behror",
    "acNumber": 63,
    "acName": "Bansur",
    "partNumber": 129,
    "partName": "CHANDALI",
    "lat": 27.6846426,
    "lon": 76.3552224
  },
  {
    "partId": 73185,
    "stateCode": "S20",
    "stateName": "Rajasthan",
    "districtCode": "S2034",
    "districtName": "Kotputli-Behror",
    "acNumber": 63,
    "acName": "Bansur",
    "partNumber": 130,
    "partName": "SHYAMPURA",
    "lat": 27.6609712,
    "lon": 76.3061857
  },
  {
    "partId": 73306,
    "stateCode": "S20",
    "stateName": "Rajasthan",
    "districtCode": "S2034",
    "districtName": "Kotputli-Behror",
    "acNumber": 63,
    "acName": "Bansur",
    "partNumber": 131,
    "partName": "DHANI BHAGATSINGH WALI (SHYAMPURA)",
    "lat": 27.6846426,
    "lon": 76.3552224
  },
  {
    "partId": 73186,
    "stateCode": "S20",
    "stateName": "Rajasthan",
    "districtCode": "S2034",
    "districtName": "Kotputli-Behror",
    "acNumber": 63,
    "acName": "Bansur",
    "partNumber": 132,
    "partName": "NAVALPURA",
    "lat": 27.6846426,
    "lon": 76.3552224
  },
  {
    "partId": 73187,
    "stateCode": "S20",
    "stateName": "Rajasthan",
    "districtCode": "S2034",
    "districtName": "Kotputli-Behror",
    "acNumber": 63,
    "acName": "Bansur",
    "partNumber": 133,
    "partName": "RASANALI, MILAKAPUR",
    "lat": 27.6846426,
    "lon": 76.3552224
  },
  {
    "partId": 73188,
    "stateCode": "S20",
    "stateName": "Rajasthan",
    "districtCode": "S2034",
    "districtName": "Kotputli-Behror",
    "acNumber": 63,
    "acName": "Bansur",
    "partNumber": 134,
    "partName": "RASANALI, MILAKAPUR",
    "lat": 27.6846426,
    "lon": 76.3552224
  },
  {
    "partId": 73189,
    "stateCode": "S20",
    "stateName": "Rajasthan",
    "districtCode": "S2034",
    "districtName": "Kotputli-Behror",
    "acNumber": 63,
    "acName": "Bansur",
    "partNumber": 135,
    "partName": "KHIVAHEDI",
    "lat": 27.6846426,
    "lon": 76.3552224
  },
  {
    "partId": 73190,
    "stateCode": "S20",
    "stateName": "Rajasthan",
    "districtCode": "S2034",
    "districtName": "Kotputli-Behror",
    "acNumber": 63,
    "acName": "Bansur",
    "partNumber": 136,
    "partName": "BASADAYAL",
    "lat": 27.6846426,
    "lon": 76.3552224
  },
  {
    "partId": 73191,
    "stateCode": "S20",
    "stateName": "Rajasthan",
    "districtCode": "S2034",
    "districtName": "Kotputli-Behror",
    "acNumber": 63,
    "acName": "Bansur",
    "partNumber": 137,
    "partName": "BAS KARANAVAT",
    "lat": 27.6846426,
    "lon": 76.3552224
  },
  {
    "partId": 73192,
    "stateCode": "S20",
    "stateName": "Rajasthan",
    "districtCode": "S2034",
    "districtName": "Kotputli-Behror",
    "acNumber": 63,
    "acName": "Bansur",
    "partNumber": 138,
    "partName": "KHOHARI",
    "lat": 27.9141122,
    "lon": 76.2265777
  },
  {
    "partId": 73193,
    "stateCode": "S20",
    "stateName": "Rajasthan",
    "districtCode": "S2034",
    "districtName": "Kotputli-Behror",
    "acNumber": 63,
    "acName": "Bansur",
    "partNumber": 139,
    "partName": "KHOHARI",
    "lat": 27.9141122,
    "lon": 76.2265777
  },
  {
    "partId": 73194,
    "stateCode": "S20",
    "stateName": "Rajasthan",
    "districtCode": "S2034",
    "districtName": "Kotputli-Behror",
    "acNumber": 63,
    "acName": "Bansur",
    "partNumber": 140,
    "partName": "KHOHARI",
    "lat": 27.9141122,
    "lon": 76.2265777
  },
  {
    "partId": 73195,
    "stateCode": "S20",
    "stateName": "Rajasthan",
    "districtCode": "S2034",
    "districtName": "Kotputli-Behror",
    "acNumber": 63,
    "acName": "Bansur",
    "partNumber": 141,
    "partName": "INDRADA",
    "lat": 27.6318702,
    "lon": 76.3140392
  },
  {
    "partId": 73196,
    "stateCode": "S20",
    "stateName": "Rajasthan",
    "districtCode": "S2034",
    "districtName": "Kotputli-Behror",
    "acNumber": 63,
    "acName": "Bansur",
    "partNumber": 142,
    "partName": "GHASINAGAR",
    "lat": 27.6846426,
    "lon": 76.3552224
  },
  {
    "partId": 73197,
    "stateCode": "S20",
    "stateName": "Rajasthan",
    "districtCode": "S2034",
    "districtName": "Kotputli-Behror",
    "acNumber": 63,
    "acName": "Bansur",
    "partNumber": 143,
    "partName": "HOLAWAS",
    "lat": 27.6379724,
    "lon": 76.3418269
  },
  {
    "partId": 73198,
    "stateCode": "S20",
    "stateName": "Rajasthan",
    "districtCode": "S2034",
    "districtName": "Kotputli-Behror",
    "acNumber": 63,
    "acName": "Bansur",
    "partNumber": 144,
    "partName": "BASANA",
    "lat": 27.6192942,
    "lon": 76.3461292
  },
  {
    "partId": 73199,
    "stateCode": "S20",
    "stateName": "Rajasthan",
    "districtCode": "S2034",
    "districtName": "Kotputli-Behror",
    "acNumber": 63,
    "acName": "Bansur",
    "partNumber": 145,
    "partName": "BASANA",
    "lat": 27.6192942,
    "lon": 76.3461292
  },
  {
    "partId": 73200,
    "stateCode": "S20",
    "stateName": "Rajasthan",
    "districtCode": "S2034",
    "districtName": "Kotputli-Behror",
    "acNumber": 63,
    "acName": "Bansur",
    "partNumber": 146,
    "partName": "DHANI KANUGOWALI SWAMIYAN",
    "lat": 27.6846426,
    "lon": 76.3552224
  },
  {
    "partId": 73201,
    "stateCode": "S20",
    "stateName": "Rajasthan",
    "districtCode": "S2034",
    "districtName": "Kotputli-Behror",
    "acNumber": 63,
    "acName": "Bansur",
    "partNumber": 147,
    "partName": "DHANI KANUGOWALI SWAMIYAN",
    "lat": 27.6846426,
    "lon": 76.3552224
  },
  {
    "partId": 73202,
    "stateCode": "S20",
    "stateName": "Rajasthan",
    "districtCode": "S2034",
    "districtName": "Kotputli-Behror",
    "acNumber": 63,
    "acName": "Bansur",
    "partNumber": 148,
    "partName": "BISALU",
    "lat": 27.67829578277311,
    "lon": 76.34669342773108
  },
  {
    "partId": 73203,
    "stateCode": "S20",
    "stateName": "Rajasthan",
    "districtCode": "S2034",
    "districtName": "Kotputli-Behror",
    "acNumber": 63,
    "acName": "Bansur",
    "partNumber": 149,
    "partName": "ANATPURA",
    "lat": 27.67829578277311,
    "lon": 76.34669342773108
  },
  {
    "partId": 73204,
    "stateCode": "S20",
    "stateName": "Rajasthan",
    "districtCode": "S2034",
    "districtName": "Kotputli-Behror",
    "acNumber": 63,
    "acName": "Bansur",
    "partNumber": 150,
    "partName": "LEKADI",
    "lat": 27.6846426,
    "lon": 76.3552224
  },
  {
    "partId": 73205,
    "stateCode": "S20",
    "stateName": "Rajasthan",
    "districtCode": "S2034",
    "districtName": "Kotputli-Behror",
    "acNumber": 63,
    "acName": "Bansur",
    "partNumber": 151,
    "partName": "LEKADI",
    "lat": 27.6846426,
    "lon": 76.3552224
  },
  {
    "partId": 73206,
    "stateCode": "S20",
    "stateName": "Rajasthan",
    "districtCode": "S2034",
    "districtName": "Kotputli-Behror",
    "acNumber": 63,
    "acName": "Bansur",
    "partNumber": 152,
    "partName": "TIKALI KA BAS",
    "lat": 27.6846426,
    "lon": 76.3552224
  },
  {
    "partId": 73207,
    "stateCode": "S20",
    "stateName": "Rajasthan",
    "districtCode": "S2034",
    "districtName": "Kotputli-Behror",
    "acNumber": 63,
    "acName": "Bansur",
    "partNumber": 153,
    "partName": "BAHRAM KA BAS",
    "lat": 27.6591657,
    "lon": 76.4155125
  },
  {
    "partId": 73208,
    "stateCode": "S20",
    "stateName": "Rajasthan",
    "districtCode": "S2034",
    "districtName": "Kotputli-Behror",
    "acNumber": 63,
    "acName": "Bansur",
    "partNumber": 154,
    "partName": "KALI PAHADI",
    "lat": 27.6428386,
    "lon": 76.4348996
  },
  {
    "partId": 73209,
    "stateCode": "S20",
    "stateName": "Rajasthan",
    "districtCode": "S2034",
    "districtName": "Kotputli-Behror",
    "acNumber": 63,
    "acName": "Bansur",
    "partNumber": 155,
    "partName": "KALI PAHADI",
    "lat": 27.6428386,
    "lon": 76.4348996
  },
  {
    "partId": 73210,
    "stateCode": "S20",
    "stateName": "Rajasthan",
    "districtCode": "S2034",
    "districtName": "Kotputli-Behror",
    "acNumber": 63,
    "acName": "Bansur",
    "partNumber": 156,
    "partName": "RAMAPUR",
    "lat": 27.6846426,
    "lon": 76.3552224
  },
  {
    "partId": 73211,
    "stateCode": "S20",
    "stateName": "Rajasthan",
    "districtCode": "S2034",
    "districtName": "Kotputli-Behror",
    "acNumber": 63,
    "acName": "Bansur",
    "partNumber": 157,
    "partName": "RAMAPUR",
    "lat": 27.6846426,
    "lon": 76.3552224
  },
  {
    "partId": 73212,
    "stateCode": "S20",
    "stateName": "Rajasthan",
    "districtCode": "S2034",
    "districtName": "Kotputli-Behror",
    "acNumber": 63,
    "acName": "Bansur",
    "partNumber": 158,
    "partName": "RAMAPUR",
    "lat": 27.67829578277311,
    "lon": 76.34669342773108
  },
  {
    "partId": 73213,
    "stateCode": "S20",
    "stateName": "Rajasthan",
    "districtCode": "S2034",
    "districtName": "Kotputli-Behror",
    "acNumber": 63,
    "acName": "Bansur",
    "partNumber": 159,
    "partName": "RAMAPUR",
    "lat": 27.67829578277311,
    "lon": 76.34669342773108
  },
  {
    "partId": 73214,
    "stateCode": "S20",
    "stateName": "Rajasthan",
    "districtCode": "S2034",
    "districtName": "Kotputli-Behror",
    "acNumber": 63,
    "acName": "Bansur",
    "partNumber": 160,
    "partName": "PALSANIYO KI DHANI",
    "lat": 27.6846426,
    "lon": 76.3552224
  },
  {
    "partId": 73215,
    "stateCode": "S20",
    "stateName": "Rajasthan",
    "districtCode": "S2034",
    "districtName": "Kotputli-Behror",
    "acNumber": 63,
    "acName": "Bansur",
    "partNumber": 161,
    "partName": "BHANKHARAVALA",
    "lat": 27.6846426,
    "lon": 76.3552224
  },
  {
    "partId": 73216,
    "stateCode": "S20",
    "stateName": "Rajasthan",
    "districtCode": "S2034",
    "districtName": "Kotputli-Behror",
    "acNumber": 63,
    "acName": "Bansur",
    "partNumber": 162,
    "partName": "GUDHA",
    "lat": 27.6846426,
    "lon": 76.3552224
  },
  {
    "partId": 73217,
    "stateCode": "S20",
    "stateName": "Rajasthan",
    "districtCode": "S2034",
    "districtName": "Kotputli-Behror",
    "acNumber": 63,
    "acName": "Bansur",
    "partNumber": 163,
    "partName": "KALYANPURA",
    "lat": 27.620606,
    "lon": 76.4427638
  },
  {
    "partId": 73218,
    "stateCode": "S20",
    "stateName": "Rajasthan",
    "districtCode": "S2034",
    "districtName": "Kotputli-Behror",
    "acNumber": 63,
    "acName": "Bansur",
    "partNumber": 164,
    "partName": "NATHUSAR",
    "lat": 27.5517874,
    "lon": 76.4268087
  },
  {
    "partId": 73219,
    "stateCode": "S20",
    "stateName": "Rajasthan",
    "districtCode": "S2034",
    "districtName": "Kotputli-Behror",
    "acNumber": 63,
    "acName": "Bansur",
    "partNumber": 165,
    "partName": "KHARAKHADI KALAN",
    "lat": 27.5704686,
    "lon": 76.3623833
  },
  {
    "partId": 73220,
    "stateCode": "S20",
    "stateName": "Rajasthan",
    "districtCode": "S2034",
    "districtName": "Kotputli-Behror",
    "acNumber": 63,
    "acName": "Bansur",
    "partNumber": 166,
    "partName": "KHARAKHADI KALAN",
    "lat": 27.5704686,
    "lon": 76.3623833
  },
  {
    "partId": 73221,
    "stateCode": "S20",
    "stateName": "Rajasthan",
    "districtCode": "S2034",
    "districtName": "Kotputli-Behror",
    "acNumber": 63,
    "acName": "Bansur",
    "partNumber": 167,
    "partName": "BILATH",
    "lat": 27.6846426,
    "lon": 76.3552224
  },
  {
    "partId": 73222,
    "stateCode": "S20",
    "stateName": "Rajasthan",
    "districtCode": "S2034",
    "districtName": "Kotputli-Behror",
    "acNumber": 63,
    "acName": "Bansur",
    "partNumber": 168,
    "partName": "GADHI",
    "lat": 27.5562591,
    "lon": 76.3518905
  },
  {
    "partId": 73223,
    "stateCode": "S20",
    "stateName": "Rajasthan",
    "districtCode": "S2034",
    "districtName": "Kotputli-Behror",
    "acNumber": 63,
    "acName": "Bansur",
    "partNumber": 169,
    "partName": "GADHI",
    "lat": 27.5562591,
    "lon": 76.3518905
  },
  {
    "partId": 73224,
    "stateCode": "S20",
    "stateName": "Rajasthan",
    "districtCode": "S2034",
    "districtName": "Kotputli-Behror",
    "acNumber": 63,
    "acName": "Bansur",
    "partNumber": 170,
    "partName": "GADHI",
    "lat": 27.5562591,
    "lon": 76.3518905
  },
  {
    "partId": 73225,
    "stateCode": "S20",
    "stateName": "Rajasthan",
    "districtCode": "S2034",
    "districtName": "Kotputli-Behror",
    "acNumber": 63,
    "acName": "Bansur",
    "partNumber": 171,
    "partName": "CHATARPURA",
    "lat": 27.5599686,
    "lon": 76.2972808
  },
  {
    "partId": 73226,
    "stateCode": "S20",
    "stateName": "Rajasthan",
    "districtCode": "S2034",
    "districtName": "Kotputli-Behror",
    "acNumber": 63,
    "acName": "Bansur",
    "partNumber": 172,
    "partName": "CHATARPURA",
    "lat": 27.5599686,
    "lon": 76.2972808
  },
  {
    "partId": 73227,
    "stateCode": "S20",
    "stateName": "Rajasthan",
    "districtCode": "S2034",
    "districtName": "Kotputli-Behror",
    "acNumber": 63,
    "acName": "Bansur",
    "partNumber": 173,
    "partName": "CHATARPURA",
    "lat": 27.5599686,
    "lon": 76.2972808
  },
  {
    "partId": 73228,
    "stateCode": "S20",
    "stateName": "Rajasthan",
    "districtCode": "S2034",
    "districtName": "Kotputli-Behror",
    "acNumber": 63,
    "acName": "Bansur",
    "partNumber": 174,
    "partName": "PRITHVIPURA",
    "lat": 27.5610909,
    "lon": 76.3042331
  },
  {
    "partId": 73229,
    "stateCode": "S20",
    "stateName": "Rajasthan",
    "districtCode": "S2034",
    "districtName": "Kotputli-Behror",
    "acNumber": 63,
    "acName": "Bansur",
    "partNumber": 175,
    "partName": "PRITHVIPURA",
    "lat": 27.5610909,
    "lon": 76.3042331
  },
  {
    "partId": 73230,
    "stateCode": "S20",
    "stateName": "Rajasthan",
    "districtCode": "S2034",
    "districtName": "Kotputli-Behror",
    "acNumber": 63,
    "acName": "Bansur",
    "partNumber": 176,
    "partName": "NIMUCHANA",
    "lat": 27.600501,
    "lon": 76.2738434
  },
  {
    "partId": 73231,
    "stateCode": "S20",
    "stateName": "Rajasthan",
    "districtCode": "S2034",
    "districtName": "Kotputli-Behror",
    "acNumber": 63,
    "acName": "Bansur",
    "partNumber": 177,
    "partName": "NIMUCHANA",
    "lat": 27.6846426,
    "lon": 76.3552224
  },
  {
    "partId": 73232,
    "stateCode": "S20",
    "stateName": "Rajasthan",
    "districtCode": "S2034",
    "districtName": "Kotputli-Behror",
    "acNumber": 63,
    "acName": "Bansur",
    "partNumber": 178,
    "partName": "NIMUCHANA",
    "lat": 27.600501,
    "lon": 76.2738434
  },
  {
    "partId": 73233,
    "stateCode": "S20",
    "stateName": "Rajasthan",
    "districtCode": "S2034",
    "districtName": "Kotputli-Behror",
    "acNumber": 63,
    "acName": "Bansur",
    "partNumber": 179,
    "partName": "JHAGADETAKALAN",
    "lat": 27.6846426,
    "lon": 76.3552224
  },
  {
    "partId": 73234,
    "stateCode": "S20",
    "stateName": "Rajasthan",
    "districtCode": "S2034",
    "districtName": "Kotputli-Behror",
    "acNumber": 63,
    "acName": "Bansur",
    "partNumber": 180,
    "partName": "NARSINGH PURA",
    "lat": 27.6846426,
    "lon": 76.3552224
  },
  {
    "partId": 73235,
    "stateCode": "S20",
    "stateName": "Rajasthan",
    "districtCode": "S2034",
    "districtName": "Kotputli-Behror",
    "acNumber": 63,
    "acName": "Bansur",
    "partNumber": 181,
    "partName": "LALPURA",
    "lat": 27.5999092,
    "lon": 76.2156773
  },
  {
    "partId": 73236,
    "stateCode": "S20",
    "stateName": "Rajasthan",
    "districtCode": "S2034",
    "districtName": "Kotputli-Behror",
    "acNumber": 63,
    "acName": "Bansur",
    "partNumber": 182,
    "partName": "BAS SHEKHAVAT",
    "lat": 27.6846426,
    "lon": 76.3552224
  },
  {
    "partId": 73307,
    "stateCode": "S20",
    "stateName": "Rajasthan",
    "districtCode": "S2034",
    "districtName": "Kotputli-Behror",
    "acNumber": 63,
    "acName": "Bansur",
    "partNumber": 183,
    "partName": "NAYANAGAR (TURANA)",
    "lat": 27.6846426,
    "lon": 76.3552224
  },
  {
    "partId": 73237,
    "stateCode": "S20",
    "stateName": "Rajasthan",
    "districtCode": "S2034",
    "districtName": "Kotputli-Behror",
    "acNumber": 63,
    "acName": "Bansur",
    "partNumber": 184,
    "partName": "TURANA",
    "lat": 27.6846426,
    "lon": 76.3552224
  },
  {
    "partId": 73238,
    "stateCode": "S20",
    "stateName": "Rajasthan",
    "districtCode": "S2034",
    "districtName": "Kotputli-Behror",
    "acNumber": 63,
    "acName": "Bansur",
    "partNumber": 185,
    "partName": "CHAINPURA",
    "lat": 27.5807205,
    "lon": 76.2111282
  },
  {
    "partId": 73239,
    "stateCode": "S20",
    "stateName": "Rajasthan",
    "districtCode": "S2034",
    "districtName": "Kotputli-Behror",
    "acNumber": 63,
    "acName": "Bansur",
    "partNumber": 186,
    "partName": "NAYABAS",
    "lat": 27.5314687,
    "lon": 76.109848
  },
  {
    "partId": 73240,
    "stateCode": "S20",
    "stateName": "Rajasthan",
    "districtCode": "S2034",
    "districtName": "Kotputli-Behror",
    "acNumber": 63,
    "acName": "Bansur",
    "partNumber": 187,
    "partName": "NAYABAS",
    "lat": 27.5314687,
    "lon": 76.109848
  },
  {
    "partId": 73241,
    "stateCode": "S20",
    "stateName": "Rajasthan",
    "districtCode": "S2034",
    "districtName": "Kotputli-Behror",
    "acNumber": 63,
    "acName": "Bansur",
    "partNumber": 188,
    "partName": "BURJA",
    "lat": 27.5666073,
    "lon": 76.265459
  },
  {
    "partId": 73242,
    "stateCode": "S20",
    "stateName": "Rajasthan",
    "districtCode": "S2034",
    "districtName": "Kotputli-Behror",
    "acNumber": 63,
    "acName": "Bansur",
    "partNumber": 189,
    "partName": "RATANAPURA URPH KARANA",
    "lat": 27.6846426,
    "lon": 76.3552224
  },
  {
    "partId": 73243,
    "stateCode": "S20",
    "stateName": "Rajasthan",
    "districtCode": "S2034",
    "districtName": "Kotputli-Behror",
    "acNumber": 63,
    "acName": "Bansur",
    "partNumber": 190,
    "partName": "RATANAPURA URPH KARANA",
    "lat": 27.6846426,
    "lon": 76.3552224
  },
  {
    "partId": 73244,
    "stateCode": "S20",
    "stateName": "Rajasthan",
    "districtCode": "S2034",
    "districtName": "Kotputli-Behror",
    "acNumber": 63,
    "acName": "Bansur",
    "partNumber": 191,
    "partName": "RATANPURA URPH KARANA",
    "lat": 27.67829578277311,
    "lon": 76.34669342773108
  },
  {
    "partId": 73245,
    "stateCode": "S20",
    "stateName": "Rajasthan",
    "districtCode": "S2034",
    "districtName": "Kotputli-Behror",
    "acNumber": 63,
    "acName": "Bansur",
    "partNumber": 192,
    "partName": "RATANPURA URPH KARANA",
    "lat": 27.6846426,
    "lon": 76.3552224
  },
  {
    "partId": 73246,
    "stateCode": "S20",
    "stateName": "Rajasthan",
    "districtCode": "S2034",
    "districtName": "Kotputli-Behror",
    "acNumber": 63,
    "acName": "Bansur",
    "partNumber": 193,
    "partName": "BADAGANV",
    "lat": 27.6846426,
    "lon": 76.3552224
  },
  {
    "partId": 73247,
    "stateCode": "S20",
    "stateName": "Rajasthan",
    "districtCode": "S2034",
    "districtName": "Kotputli-Behror",
    "acNumber": 63,
    "acName": "Bansur",
    "partNumber": 194,
    "partName": "BADAGANV",
    "lat": 27.6846426,
    "lon": 76.3552224
  },
  {
    "partId": 73248,
    "stateCode": "S20",
    "stateName": "Rajasthan",
    "districtCode": "S2034",
    "districtName": "Kotputli-Behror",
    "acNumber": 63,
    "acName": "Bansur",
    "partNumber": 195,
    "partName": "BILALI",
    "lat": 27.5362255,
    "lon": 76.2357616
  },
  {
    "partId": 73249,
    "stateCode": "S20",
    "stateName": "Rajasthan",
    "districtCode": "S2034",
    "districtName": "Kotputli-Behror",
    "acNumber": 63,
    "acName": "Bansur",
    "partNumber": 196,
    "partName": "BILALI",
    "lat": 27.5362255,
    "lon": 76.2357616
  },
  {
    "partId": 73250,
    "stateCode": "S20",
    "stateName": "Rajasthan",
    "districtCode": "S2034",
    "districtName": "Kotputli-Behror",
    "acNumber": 63,
    "acName": "Bansur",
    "partNumber": 197,
    "partName": "BILALI",
    "lat": 27.5362255,
    "lon": 76.2357616
  },
  {
    "partId": 73251,
    "stateCode": "S20",
    "stateName": "Rajasthan",
    "districtCode": "S2034",
    "districtName": "Kotputli-Behror",
    "acNumber": 63,
    "acName": "Bansur",
    "partNumber": 198,
    "partName": "KHARAVA",
    "lat": 27.5483831,
    "lon": 76.259644
  },
  {
    "partId": 73252,
    "stateCode": "S20",
    "stateName": "Rajasthan",
    "districtCode": "S2034",
    "districtName": "Kotputli-Behror",
    "acNumber": 63,
    "acName": "Bansur",
    "partNumber": 199,
    "partName": "KHARAVA",
    "lat": 27.5483831,
    "lon": 76.259644
  },
  {
    "partId": 73253,
    "stateCode": "S20",
    "stateName": "Rajasthan",
    "districtCode": "S2034",
    "districtName": "Kotputli-Behror",
    "acNumber": 63,
    "acName": "Bansur",
    "partNumber": 200,
    "partName": "GYANPURA",
    "lat": 27.5429228,
    "lon": 76.272068
  },
  {
    "partId": 73254,
    "stateCode": "S20",
    "stateName": "Rajasthan",
    "districtCode": "S2034",
    "districtName": "Kotputli-Behror",
    "acNumber": 63,
    "acName": "Bansur",
    "partNumber": 201,
    "partName": "GYANPURA",
    "lat": 27.5429228,
    "lon": 76.272068
  },
  {
    "partId": 73255,
    "stateCode": "S20",
    "stateName": "Rajasthan",
    "districtCode": "S2034",
    "districtName": "Kotputli-Behror",
    "acNumber": 63,
    "acName": "Bansur",
    "partNumber": 202,
    "partName": "BANDHAKA (PRATHVIPURA)",
    "lat": 27.6846426,
    "lon": 76.3552224
  },
  {
    "partId": 73256,
    "stateCode": "S20",
    "stateName": "Rajasthan",
    "districtCode": "S2034",
    "districtName": "Kotputli-Behror",
    "acNumber": 63,
    "acName": "Bansur",
    "partNumber": 203,
    "partName": "BASANARABAD",
    "lat": 27.67829578277311,
    "lon": 76.34669342773108
  },
  {
    "partId": 73257,
    "stateCode": "S20",
    "stateName": "Rajasthan",
    "districtCode": "S2034",
    "districtName": "Kotputli-Behror",
    "acNumber": 63,
    "acName": "Bansur",
    "partNumber": 204,
    "partName": "CHANDPURI",
    "lat": 27.5570581,
    "lon": 76.3335228
  },
  {
    "partId": 73258,
    "stateCode": "S20",
    "stateName": "Rajasthan",
    "districtCode": "S2034",
    "districtName": "Kotputli-Behror",
    "acNumber": 63,
    "acName": "Bansur",
    "partNumber": 205,
    "partName": "CHANDPURI",
    "lat": 27.5570581,
    "lon": 76.3335228
  },
  {
    "partId": 73259,
    "stateCode": "S20",
    "stateName": "Rajasthan",
    "districtCode": "S2034",
    "districtName": "Kotputli-Behror",
    "acNumber": 63,
    "acName": "Bansur",
    "partNumber": 206,
    "partName": "KOTHIYA",
    "lat": 27.7659628,
    "lon": 76.2823247
  },
  {
    "partId": 73260,
    "stateCode": "S20",
    "stateName": "Rajasthan",
    "districtCode": "S2034",
    "districtName": "Kotputli-Behror",
    "acNumber": 63,
    "acName": "Bansur",
    "partNumber": 207,
    "partName": "LADUVAS",
    "lat": 27.6846426,
    "lon": 76.3552224
  },
  {
    "partId": 73261,
    "stateCode": "S20",
    "stateName": "Rajasthan",
    "districtCode": "S2034",
    "districtName": "Kotputli-Behror",
    "acNumber": 63,
    "acName": "Bansur",
    "partNumber": 208,
    "partName": "KANPURA LANJ",
    "lat": 27.6846426,
    "lon": 76.3552224
  },
  {
    "partId": 73262,
    "stateCode": "S20",
    "stateName": "Rajasthan",
    "districtCode": "S2034",
    "districtName": "Kotputli-Behror",
    "acNumber": 63,
    "acName": "Bansur",
    "partNumber": 209,
    "partName": "KANPURA LANJ",
    "lat": 27.67829578277311,
    "lon": 76.34669342773108
  },
  {
    "partId": 73263,
    "stateCode": "S20",
    "stateName": "Rajasthan",
    "districtCode": "S2034",
    "districtName": "Kotputli-Behror",
    "acNumber": 63,
    "acName": "Bansur",
    "partNumber": 210,
    "partName": "AJABPURA",
    "lat": 27.5372149,
    "lon": 76.3510322
  },
  {
    "partId": 73264,
    "stateCode": "S20",
    "stateName": "Rajasthan",
    "districtCode": "S2034",
    "districtName": "Kotputli-Behror",
    "acNumber": 63,
    "acName": "Bansur",
    "partNumber": 211,
    "partName": "AJABPURA",
    "lat": 27.5372149,
    "lon": 76.3510322
  },
  {
    "partId": 73265,
    "stateCode": "S20",
    "stateName": "Rajasthan",
    "districtCode": "S2034",
    "districtName": "Kotputli-Behror",
    "acNumber": 63,
    "acName": "Bansur",
    "partNumber": 212,
    "partName": "PREMPURA (AJABPURA)",
    "lat": 27.5403163,
    "lon": 76.3433075
  },
  {
    "partId": 73266,
    "stateCode": "S20",
    "stateName": "Rajasthan",
    "districtCode": "S2034",
    "districtName": "Kotputli-Behror",
    "acNumber": 63,
    "acName": "Bansur",
    "partNumber": 213,
    "partName": "KOLAHEDA",
    "lat": 27.6846426,
    "lon": 76.3552224
  },
  {
    "partId": 73267,
    "stateCode": "S20",
    "stateName": "Rajasthan",
    "districtCode": "S2034",
    "districtName": "Kotputli-Behror",
    "acNumber": 63,
    "acName": "Bansur",
    "partNumber": 214,
    "partName": "KRIPALBADI (KOLAHEDA)",
    "lat": 27.6846426,
    "lon": 76.3552224
  },
  {
    "partId": 73268,
    "stateCode": "S20",
    "stateName": "Rajasthan",
    "districtCode": "S2034",
    "districtName": "Kotputli-Behror",
    "acNumber": 63,
    "acName": "Bansur",
    "partNumber": 215,
    "partName": "KOLAHEDA",
    "lat": 27.6846426,
    "lon": 76.3552224
  },
  {
    "partId": 73269,
    "stateCode": "S20",
    "stateName": "Rajasthan",
    "districtCode": "S2034",
    "districtName": "Kotputli-Behror",
    "acNumber": 63,
    "acName": "Bansur",
    "partNumber": 216,
    "partName": "RAJAPURA SIKKH",
    "lat": 27.6846426,
    "lon": 76.3552224
  },
  {
    "partId": 73270,
    "stateCode": "S20",
    "stateName": "Rajasthan",
    "districtCode": "S2034",
    "districtName": "Kotputli-Behror",
    "acNumber": 63,
    "acName": "Bansur",
    "partNumber": 217,
    "partName": "RAJAPURA SIKKH",
    "lat": 27.6846426,
    "lon": 76.3552224
  },
  {
    "partId": 73271,
    "stateCode": "S20",
    "stateName": "Rajasthan",
    "districtCode": "S2034",
    "districtName": "Kotputli-Behror",
    "acNumber": 63,
    "acName": "Bansur",
    "partNumber": 218,
    "partName": "BASAGORADHAN",
    "lat": 27.6846426,
    "lon": 76.3552224
  },
  {
    "partId": 73272,
    "stateCode": "S20",
    "stateName": "Rajasthan",
    "districtCode": "S2034",
    "districtName": "Kotputli-Behror",
    "acNumber": 63,
    "acName": "Bansur",
    "partNumber": 219,
    "partName": "DHANI MORADI",
    "lat": 27.6846426,
    "lon": 76.3552224
  },
  {
    "partId": 73273,
    "stateCode": "S20",
    "stateName": "Rajasthan",
    "districtCode": "S2034",
    "districtName": "Kotputli-Behror",
    "acNumber": 63,
    "acName": "Bansur",
    "partNumber": 220,
    "partName": "NARAYANAPUR",
    "lat": 27.6846426,
    "lon": 76.3552224
  },
  {
    "partId": 73274,
    "stateCode": "S20",
    "stateName": "Rajasthan",
    "districtCode": "S2034",
    "districtName": "Kotputli-Behror",
    "acNumber": 63,
    "acName": "Bansur",
    "partNumber": 221,
    "partName": "NARAYANAPUR",
    "lat": 27.6846426,
    "lon": 76.3552224
  },
  {
    "partId": 73275,
    "stateCode": "S20",
    "stateName": "Rajasthan",
    "districtCode": "S2034",
    "districtName": "Kotputli-Behror",
    "acNumber": 63,
    "acName": "Bansur",
    "partNumber": 222,
    "partName": "NARAYANAPUR",
    "lat": 27.6846426,
    "lon": 76.3552224
  },
  {
    "partId": 73276,
    "stateCode": "S20",
    "stateName": "Rajasthan",
    "districtCode": "S2034",
    "districtName": "Kotputli-Behror",
    "acNumber": 63,
    "acName": "Bansur",
    "partNumber": 223,
    "partName": "NARAYANAPUR",
    "lat": 27.6846426,
    "lon": 76.3552224
  },
  {
    "partId": 73277,
    "stateCode": "S20",
    "stateName": "Rajasthan",
    "districtCode": "S2034",
    "districtName": "Kotputli-Behror",
    "acNumber": 63,
    "acName": "Bansur",
    "partNumber": 224,
    "partName": "NARAYANAPUR",
    "lat": 27.6846426,
    "lon": 76.3552224
  },
  {
    "partId": 73278,
    "stateCode": "S20",
    "stateName": "Rajasthan",
    "districtCode": "S2034",
    "districtName": "Kotputli-Behror",
    "acNumber": 63,
    "acName": "Bansur",
    "partNumber": 225,
    "partName": "NARAYANAPUR",
    "lat": 27.6846426,
    "lon": 76.3552224
  },
  {
    "partId": 73279,
    "stateCode": "S20",
    "stateName": "Rajasthan",
    "districtCode": "S2034",
    "districtName": "Kotputli-Behror",
    "acNumber": 63,
    "acName": "Bansur",
    "partNumber": 226,
    "partName": "NARAYANAPUR",
    "lat": 27.6846426,
    "lon": 76.3552224
  },
  {
    "partId": 73280,
    "stateCode": "S20",
    "stateName": "Rajasthan",
    "districtCode": "S2034",
    "districtName": "Kotputli-Behror",
    "acNumber": 63,
    "acName": "Bansur",
    "partNumber": 227,
    "partName": "NARAYANAPUR",
    "lat": 27.6846426,
    "lon": 76.3552224
  },
  {
    "partId": 73281,
    "stateCode": "S20",
    "stateName": "Rajasthan",
    "districtCode": "S2034",
    "districtName": "Kotputli-Behror",
    "acNumber": 63,
    "acName": "Bansur",
    "partNumber": 228,
    "partName": "NARAYANAPUR",
    "lat": 27.67829578277311,
    "lon": 76.34669342773108
  },
  {
    "partId": 73282,
    "stateCode": "S20",
    "stateName": "Rajasthan",
    "districtCode": "S2034",
    "districtName": "Kotputli-Behror",
    "acNumber": 63,
    "acName": "Bansur",
    "partNumber": 229,
    "partName": "NARAYANAPUR",
    "lat": 27.6846426,
    "lon": 76.3552224
  },
  {
    "partId": 73283,
    "stateCode": "S20",
    "stateName": "Rajasthan",
    "districtCode": "S2034",
    "districtName": "Kotputli-Behror",
    "acNumber": 63,
    "acName": "Bansur",
    "partNumber": 230,
    "partName": "NARAYANAPUR",
    "lat": 27.6846426,
    "lon": 76.3552224
  },
  {
    "partId": 73284,
    "stateCode": "S20",
    "stateName": "Rajasthan",
    "districtCode": "S2034",
    "districtName": "Kotputli-Behror",
    "acNumber": 63,
    "acName": "Bansur",
    "partNumber": 231,
    "partName": "NARAYANAPUR",
    "lat": 27.6846426,
    "lon": 76.3552224
  },
  {
    "partId": 73285,
    "stateCode": "S20",
    "stateName": "Rajasthan",
    "districtCode": "S2034",
    "districtName": "Kotputli-Behror",
    "acNumber": 63,
    "acName": "Bansur",
    "partNumber": 232,
    "partName": "VIJAY PURA",
    "lat": 27.6846426,
    "lon": 76.3552224
  },
  {
    "partId": 73286,
    "stateCode": "S20",
    "stateName": "Rajasthan",
    "districtCode": "S2034",
    "districtName": "Kotputli-Behror",
    "acNumber": 63,
    "acName": "Bansur",
    "partNumber": 233,
    "partName": "VIJAY PURA",
    "lat": 27.6846426,
    "lon": 76.3552224
  },
  {
    "partId": 73287,
    "stateCode": "S20",
    "stateName": "Rajasthan",
    "districtCode": "S2034",
    "districtName": "Kotputli-Behror",
    "acNumber": 63,
    "acName": "Bansur",
    "partNumber": 234,
    "partName": "TURKIYAVAS",
    "lat": 27.6846426,
    "lon": 76.3552224
  },
  {
    "partId": 73288,
    "stateCode": "S20",
    "stateName": "Rajasthan",
    "districtCode": "S2034",
    "districtName": "Kotputli-Behror",
    "acNumber": 63,
    "acName": "Bansur",
    "partNumber": 235,
    "partName": "JODH PURA",
    "lat": 27.6846426,
    "lon": 76.3552224
  },
  {
    "partId": 73289,
    "stateCode": "S20",
    "stateName": "Rajasthan",
    "districtCode": "S2034",
    "districtName": "Kotputli-Behror",
    "acNumber": 63,
    "acName": "Bansur",
    "partNumber": 236,
    "partName": "JODH PURA",
    "lat": 27.6846426,
    "lon": 76.3552224
  },
  {
    "partId": 73290,
    "stateCode": "S20",
    "stateName": "Rajasthan",
    "districtCode": "S2034",
    "districtName": "Kotputli-Behror",
    "acNumber": 63,
    "acName": "Bansur",
    "partNumber": 237,
    "partName": "LILAMANDHA",
    "lat": 27.6846426,
    "lon": 76.3552224
  },
  {
    "partId": 73291,
    "stateCode": "S20",
    "stateName": "Rajasthan",
    "districtCode": "S2034",
    "districtName": "Kotputli-Behror",
    "acNumber": 63,
    "acName": "Bansur",
    "partNumber": 238,
    "partName": "BHADHANON KI BAL",
    "lat": 27.6846426,
    "lon": 76.3552224
  },
  {
    "partId": 73292,
    "stateCode": "S20",
    "stateName": "Rajasthan",
    "districtCode": "S2034",
    "districtName": "Kotputli-Behror",
    "acNumber": 63,
    "acName": "Bansur",
    "partNumber": 239,
    "partName": "TOLAVAS",
    "lat": 27.6846426,
    "lon": 76.3552224
  },
  {
    "partId": 73293,
    "stateCode": "S20",
    "stateName": "Rajasthan",
    "districtCode": "S2034",
    "districtName": "Kotputli-Behror",
    "acNumber": 63,
    "acName": "Bansur",
    "partNumber": 240,
    "partName": "BAMANAVAS KANKAD",
    "lat": 27.6846426,
    "lon": 76.3552224
  },
  {
    "partId": 73294,
    "stateCode": "S20",
    "stateName": "Rajasthan",
    "districtCode": "S2034",
    "districtName": "Kotputli-Behror",
    "acNumber": 63,
    "acName": "Bansur",
    "partNumber": 241,
    "partName": "BAMANAVAS KANKAD",
    "lat": 27.6846426,
    "lon": 76.3552224
  },
  {
    "partId": 73308,
    "stateCode": "S20",
    "stateName": "Rajasthan",
    "districtCode": "S2034",
    "districtName": "Kotputli-Behror",
    "acNumber": 63,
    "acName": "Bansur",
    "partNumber": 242,
    "partName": "KHARIYA KI DHANI (BAMANWAS KANKAD)",
    "lat": 27.6846426,
    "lon": 76.3552224
  },
  {
    "partId": 73295,
    "stateCode": "S20",
    "stateName": "Rajasthan",
    "districtCode": "S2034",
    "districtName": "Kotputli-Behror",
    "acNumber": 63,
    "acName": "Bansur",
    "partNumber": 243,
    "partName": "MANAVAS",
    "lat": 27.6846426,
    "lon": 76.3552224
  },
  {
    "partId": 73296,
    "stateCode": "S20",
    "stateName": "Rajasthan",
    "districtCode": "S2034",
    "districtName": "Kotputli-Behror",
    "acNumber": 63,
    "acName": "Bansur",
    "partNumber": 244,
    "partName": "MUNDAVARA",
    "lat": 27.6846426,
    "lon": 76.3552224
  },
  {
    "partId": 73297,
    "stateCode": "S20",
    "stateName": "Rajasthan",
    "districtCode": "S2034",
    "districtName": "Kotputli-Behror",
    "acNumber": 63,
    "acName": "Bansur",
    "partNumber": 245,
    "partName": "MUNDAVARA",
    "lat": 27.6846426,
    "lon": 76.3552224
  },
  {
    "partId": 73298,
    "stateCode": "S20",
    "stateName": "Rajasthan",
    "districtCode": "S2034",
    "districtName": "Kotputli-Behror",
    "acNumber": 63,
    "acName": "Bansur",
    "partNumber": 246,
    "partName": "MUNDAVARA",
    "lat": 27.6846426,
    "lon": 76.3552224
  },
  {
    "partId": 73299,
    "stateCode": "S20",
    "stateName": "Rajasthan",
    "districtCode": "S2034",
    "districtName": "Kotputli-Behror",
    "acNumber": 63,
    "acName": "Bansur",
    "partNumber": 247,
    "partName": "MUNDAVARA",
    "lat": 27.6846426,
    "lon": 76.3552224
  },
  {
    "partId": 73300,
    "stateCode": "S20",
    "stateName": "Rajasthan",
    "districtCode": "S2034",
    "districtName": "Kotputli-Behror",
    "acNumber": 63,
    "acName": "Bansur",
    "partNumber": 248,
    "partName": "BERAVAS",
    "lat": 27.6846426,
    "lon": 76.3552224
  },
  {
    "partId": 73301,
    "stateCode": "S20",
    "stateName": "Rajasthan",
    "districtCode": "S2034",
    "districtName": "Kotputli-Behror",
    "acNumber": 63,
    "acName": "Bansur",
    "partNumber": 249,
    "partName": "NANGALAHEDI",
    "lat": 27.6846426,
    "lon": 76.3552224
  },
  {
    "partId": 72550,
    "stateCode": "S20",
    "stateName": "Rajasthan",
    "districtCode": "S2034",
    "districtName": "Kotputli-Behror",
    "acNumber": 62,
    "acName": "Behror",
    "partNumber": 1,
    "partName": "RAM CHANDRA PURA",
    "lat": 27.8900657,
    "lon": 76.2858227
  },
  {
    "partId": 72551,
    "stateCode": "S20",
    "stateName": "Rajasthan",
    "districtCode": "S2034",
    "districtName": "Kotputli-Behror",
    "acNumber": 62,
    "acName": "Behror",
    "partNumber": 2,
    "partName": "BEENJHPUR",
    "lat": 28.1591802,
    "lon": 76.3143396
  },
  {
    "partId": 72552,
    "stateCode": "S20",
    "stateName": "Rajasthan",
    "districtCode": "S2034",
    "districtName": "Kotputli-Behror",
    "acNumber": 62,
    "acName": "Behror",
    "partNumber": 3,
    "partName": "PARTAPUR",
    "lat": 28.1560208,
    "lon": 76.3139212
  },
  {
    "partId": 72553,
    "stateCode": "S20",
    "stateName": "Rajasthan",
    "districtCode": "S2034",
    "districtName": "Kotputli-Behror",
    "acNumber": 62,
    "acName": "Behror",
    "partNumber": 4,
    "partName": "JAITPUR",
    "lat": 27.5332383,
    "lon": 76.2420487
  },
  {
    "partId": 72554,
    "stateCode": "S20",
    "stateName": "Rajasthan",
    "districtCode": "S2034",
    "districtName": "Kotputli-Behror",
    "acNumber": 62,
    "acName": "Behror",
    "partNumber": 5,
    "partName": "HUDIYA KALAN",
    "lat": 28.1575249,
    "lon": 76.3375568
  },
  {
    "partId": 72555,
    "stateCode": "S20",
    "stateName": "Rajasthan",
    "districtCode": "S2034",
    "districtName": "Kotputli-Behror",
    "acNumber": 62,
    "acName": "Behror",
    "partNumber": 6,
    "partName": "HUDIYA KALAN",
    "lat": 28.1575249,
    "lon": 76.3375568
  },
  {
    "partId": 72556,
    "stateCode": "S20",
    "stateName": "Rajasthan",
    "districtCode": "S2034",
    "districtName": "Kotputli-Behror",
    "acNumber": 62,
    "acName": "Behror",
    "partNumber": 7,
    "partName": "HUDIYA KHURD",
    "lat": 28.1531168,
    "lon": 76.3496804
  },
  {
    "partId": 72557,
    "stateCode": "S20",
    "stateName": "Rajasthan",
    "districtCode": "S2034",
    "districtName": "Kotputli-Behror",
    "acNumber": 62,
    "acName": "Behror",
    "partNumber": 8,
    "partName": "HUDIYA KHURD",
    "lat": 28.1531168,
    "lon": 76.3496804
  },
  {
    "partId": 72558,
    "stateCode": "S20",
    "stateName": "Rajasthan",
    "districtCode": "S2034",
    "districtName": "Kotputli-Behror",
    "acNumber": 62,
    "acName": "Behror",
    "partNumber": 9,
    "partName": "KATHUVAS",
    "lat": 27.8900657,
    "lon": 76.2858227
  },
  {
    "partId": 72559,
    "stateCode": "S20",
    "stateName": "Rajasthan",
    "districtCode": "S2034",
    "districtName": "Kotputli-Behror",
    "acNumber": 62,
    "acName": "Behror",
    "partNumber": 10,
    "partName": "KATHUVAS",
    "lat": 27.8900657,
    "lon": 76.2858227
  },
  {
    "partId": 72560,
    "stateCode": "S20",
    "stateName": "Rajasthan",
    "districtCode": "S2034",
    "districtName": "Kotputli-Behror",
    "acNumber": 62,
    "acName": "Behror",
    "partNumber": 11,
    "partName": "MANDHAN",
    "lat": 28.1088183,
    "lon": 76.3779402
  },
  {
    "partId": 72561,
    "stateCode": "S20",
    "stateName": "Rajasthan",
    "districtCode": "S2034",
    "districtName": "Kotputli-Behror",
    "acNumber": 62,
    "acName": "Behror",
    "partNumber": 12,
    "partName": "MANDHAN",
    "lat": 28.1088183,
    "lon": 76.3779402
  },
  {
    "partId": 72562,
    "stateCode": "S20",
    "stateName": "Rajasthan",
    "districtCode": "S2034",
    "districtName": "Kotputli-Behror",
    "acNumber": 62,
    "acName": "Behror",
    "partNumber": 13,
    "partName": "MANDHAN",
    "lat": 28.1088183,
    "lon": 76.3779402
  },
  {
    "partId": 72563,
    "stateCode": "S20",
    "stateName": "Rajasthan",
    "districtCode": "S2034",
    "districtName": "Kotputli-Behror",
    "acNumber": 62,
    "acName": "Behror",
    "partNumber": 14,
    "partName": "MANGALPUR",
    "lat": 27.8900657,
    "lon": 76.2858227
  },
  {
    "partId": 72564,
    "stateCode": "S20",
    "stateName": "Rajasthan",
    "districtCode": "S2034",
    "districtName": "Kotputli-Behror",
    "acNumber": 62,
    "acName": "Behror",
    "partNumber": 15,
    "partName": "NANAGWAS",
    "lat": 28.1077963,
    "lon": 76.4074229
  },
  {
    "partId": 72565,
    "stateCode": "S20",
    "stateName": "Rajasthan",
    "districtCode": "S2034",
    "districtName": "Kotputli-Behror",
    "acNumber": 62,
    "acName": "Behror",
    "partNumber": 16,
    "partName": "NANAGWAS",
    "lat": 28.1077963,
    "lon": 76.4074229
  },
  {
    "partId": 72566,
    "stateCode": "S20",
    "stateName": "Rajasthan",
    "districtCode": "S2034",
    "districtName": "Kotputli-Behror",
    "acNumber": 62,
    "acName": "Behror",
    "partNumber": 17,
    "partName": "ADIND",
    "lat": 27.8900657,
    "lon": 76.2858227
  },
  {
    "partId": 72567,
    "stateCode": "S20",
    "stateName": "Rajasthan",
    "districtCode": "S2034",
    "districtName": "Kotputli-Behror",
    "acNumber": 62,
    "acName": "Behror",
    "partNumber": 18,
    "partName": "MEHTAWAS",
    "lat": 27.92456174651163,
    "lon": 76.29417816744187
  },
  {
    "partId": 72568,
    "stateCode": "S20",
    "stateName": "Rajasthan",
    "districtCode": "S2034",
    "districtName": "Kotputli-Behror",
    "acNumber": 62,
    "acName": "Behror",
    "partNumber": 19,
    "partName": "MEHTAWAS",
    "lat": 27.8900657,
    "lon": 76.2858227
  },
  {
    "partId": 72569,
    "stateCode": "S20",
    "stateName": "Rajasthan",
    "districtCode": "S2034",
    "districtName": "Kotputli-Behror",
    "acNumber": 62,
    "acName": "Behror",
    "partNumber": 20,
    "partName": "NANGALI BALAHIR",
    "lat": 27.8900657,
    "lon": 76.2858227
  },
  {
    "partId": 72570,
    "stateCode": "S20",
    "stateName": "Rajasthan",
    "districtCode": "S2034",
    "districtName": "Kotputli-Behror",
    "acNumber": 62,
    "acName": "Behror",
    "partNumber": 21,
    "partName": "NANGALI BALAHIR",
    "lat": 27.8900657,
    "lon": 76.2858227
  },
  {
    "partId": 72571,
    "stateCode": "S20",
    "stateName": "Rajasthan",
    "districtCode": "S2034",
    "districtName": "Kotputli-Behror",
    "acNumber": 62,
    "acName": "Behror",
    "partNumber": 22,
    "partName": "BALAHIR",
    "lat": 27.8900657,
    "lon": 76.2858227
  },
  {
    "partId": 72572,
    "stateCode": "S20",
    "stateName": "Rajasthan",
    "districtCode": "S2034",
    "districtName": "Kotputli-Behror",
    "acNumber": 62,
    "acName": "Behror",
    "partNumber": 23,
    "partName": "SANTO",
    "lat": 28.1210443,
    "lon": 76.4785337
  },
  {
    "partId": 72573,
    "stateCode": "S20",
    "stateName": "Rajasthan",
    "districtCode": "S2034",
    "districtName": "Kotputli-Behror",
    "acNumber": 62,
    "acName": "Behror",
    "partNumber": 24,
    "partName": "BIGHANA JAT",
    "lat": 27.9588131,
    "lon": 76.3097691
  },
  {
    "partId": 72574,
    "stateCode": "S20",
    "stateName": "Rajasthan",
    "districtCode": "S2034",
    "districtName": "Kotputli-Behror",
    "acNumber": 62,
    "acName": "Behror",
    "partNumber": 25,
    "partName": "RAYASARANA",
    "lat": 27.8900657,
    "lon": 76.2858227
  },
  {
    "partId": 72575,
    "stateCode": "S20",
    "stateName": "Rajasthan",
    "districtCode": "S2034",
    "districtName": "Kotputli-Behror",
    "acNumber": 62,
    "acName": "Behror",
    "partNumber": 26,
    "partName": "RAYASARANA",
    "lat": 27.8900657,
    "lon": 76.2858227
  },
  {
    "partId": 72576,
    "stateCode": "S20",
    "stateName": "Rajasthan",
    "districtCode": "S2034",
    "districtName": "Kotputli-Behror",
    "acNumber": 62,
    "acName": "Behror",
    "partNumber": 27,
    "partName": "PORULA",
    "lat": 28.1159629,
    "lon": 76.4422595
  },
  {
    "partId": 72577,
    "stateCode": "S20",
    "stateName": "Rajasthan",
    "districtCode": "S2034",
    "districtName": "Kotputli-Behror",
    "acNumber": 62,
    "acName": "Behror",
    "partNumber": 28,
    "partName": "GIGLANA",
    "lat": 27.92456174651163,
    "lon": 76.29417816744187
  },
  {
    "partId": 72578,
    "stateCode": "S20",
    "stateName": "Rajasthan",
    "districtCode": "S2034",
    "districtName": "Kotputli-Behror",
    "acNumber": 62,
    "acName": "Behror",
    "partNumber": 29,
    "partName": "GIGLANA",
    "lat": 28.1019121,
    "lon": 76.4295204
  },
  {
    "partId": 72579,
    "stateCode": "S20",
    "stateName": "Rajasthan",
    "districtCode": "S2034",
    "districtName": "Kotputli-Behror",
    "acNumber": 62,
    "acName": "Behror",
    "partNumber": 30,
    "partName": "GIGLANA",
    "lat": 28.1019121,
    "lon": 76.4295204
  },
  {
    "partId": 72580,
    "stateCode": "S20",
    "stateName": "Rajasthan",
    "districtCode": "S2034",
    "districtName": "Kotputli-Behror",
    "acNumber": 62,
    "acName": "Behror",
    "partNumber": 31,
    "partName": "CHAVANDI",
    "lat": 27.8900657,
    "lon": 76.2858227
  },
  {
    "partId": 72581,
    "stateCode": "S20",
    "stateName": "Rajasthan",
    "districtCode": "S2034",
    "districtName": "Kotputli-Behror",
    "acNumber": 62,
    "acName": "Behror",
    "partNumber": 32,
    "partName": "DABADWAS",
    "lat": 28.0786636,
    "lon": 76.3935828
  },
  {
    "partId": 72582,
    "stateCode": "S20",
    "stateName": "Rajasthan",
    "districtCode": "S2034",
    "districtName": "Kotputli-Behror",
    "acNumber": 62,
    "acName": "Behror",
    "partNumber": 33,
    "partName": "DABADWAS",
    "lat": 28.0786636,
    "lon": 76.3935828
  },
  {
    "partId": 72583,
    "stateCode": "S20",
    "stateName": "Rajasthan",
    "districtCode": "S2034",
    "districtName": "Kotputli-Behror",
    "acNumber": 62,
    "acName": "Behror",
    "partNumber": 34,
    "partName": "VEERANWAS",
    "lat": 27.8900657,
    "lon": 76.2858227
  },
  {
    "partId": 72584,
    "stateCode": "S20",
    "stateName": "Rajasthan",
    "districtCode": "S2034",
    "districtName": "Kotputli-Behror",
    "acNumber": 62,
    "acName": "Behror",
    "partNumber": 35,
    "partName": "VEERANWAS",
    "lat": 27.8900657,
    "lon": 76.2858227
  },
  {
    "partId": 72585,
    "stateCode": "S20",
    "stateName": "Rajasthan",
    "districtCode": "S2034",
    "districtName": "Kotputli-Behror",
    "acNumber": 62,
    "acName": "Behror",
    "partNumber": 36,
    "partName": "ANANDPUR",
    "lat": 27.92456174651163,
    "lon": 76.29417816744187
  },
  {
    "partId": 72586,
    "stateCode": "S20",
    "stateName": "Rajasthan",
    "districtCode": "S2034",
    "districtName": "Kotputli-Behror",
    "acNumber": 62,
    "acName": "Behror",
    "partNumber": 37,
    "partName": "VIJAYNAGAR",
    "lat": 27.8900657,
    "lon": 76.2858227
  },
  {
    "partId": 72587,
    "stateCode": "S20",
    "stateName": "Rajasthan",
    "districtCode": "S2034",
    "districtName": "Kotputli-Behror",
    "acNumber": 62,
    "acName": "Behror",
    "partNumber": 38,
    "partName": "KHUNDROTH",
    "lat": 28.0950008,
    "lon": 76.3333726
  },
  {
    "partId": 72588,
    "stateCode": "S20",
    "stateName": "Rajasthan",
    "districtCode": "S2034",
    "districtName": "Kotputli-Behror",
    "acNumber": 62,
    "acName": "Behror",
    "partNumber": 39,
    "partName": "KHUNDROTH",
    "lat": 28.0950008,
    "lon": 76.3333726
  },
  {
    "partId": 72589,
    "stateCode": "S20",
    "stateName": "Rajasthan",
    "districtCode": "S2034",
    "districtName": "Kotputli-Behror",
    "acNumber": 62,
    "acName": "Behror",
    "partNumber": 40,
    "partName": "DHEEKWAD",
    "lat": 27.8900657,
    "lon": 76.2858227
  },
  {
    "partId": 72590,
    "stateCode": "S20",
    "stateName": "Rajasthan",
    "districtCode": "S2034",
    "districtName": "Kotputli-Behror",
    "acNumber": 62,
    "acName": "Behror",
    "partNumber": 41,
    "partName": "DHEEKWAD",
    "lat": 27.8900657,
    "lon": 76.2858227
  },
  {
    "partId": 72591,
    "stateCode": "S20",
    "stateName": "Rajasthan",
    "districtCode": "S2034",
    "districtName": "Kotputli-Behror",
    "acNumber": 62,
    "acName": "Behror",
    "partNumber": 42,
    "partName": "KANHAWAS",
    "lat": 28.0506215,
    "lon": 76.3669967
  },
  {
    "partId": 72592,
    "stateCode": "S20",
    "stateName": "Rajasthan",
    "districtCode": "S2034",
    "districtName": "Kotputli-Behror",
    "acNumber": 62,
    "acName": "Behror",
    "partNumber": 43,
    "partName": "KANHAWAS",
    "lat": 28.0506215,
    "lon": 76.3669967
  },
  {
    "partId": 72593,
    "stateCode": "S20",
    "stateName": "Rajasthan",
    "districtCode": "S2034",
    "districtName": "Kotputli-Behror",
    "acNumber": 62,
    "acName": "Behror",
    "partNumber": 44,
    "partName": "NANGAL MEHTA",
    "lat": 27.8900657,
    "lon": 76.2858227
  },
  {
    "partId": 72594,
    "stateCode": "S20",
    "stateName": "Rajasthan",
    "districtCode": "S2034",
    "districtName": "Kotputli-Behror",
    "acNumber": 62,
    "acName": "Behror",
    "partNumber": 45,
    "partName": "BASAI BHOPALSINGH",
    "lat": 27.92456174651163,
    "lon": 76.29417816744187
  },
  {
    "partId": 72595,
    "stateCode": "S20",
    "stateName": "Rajasthan",
    "districtCode": "S2034",
    "districtName": "Kotputli-Behror",
    "acNumber": 62,
    "acName": "Behror",
    "partNumber": 46,
    "partName": "BASAI BHOPALSINGH",
    "lat": 28.0460125,
    "lon": 76.3747849
  },
  {
    "partId": 72596,
    "stateCode": "S20",
    "stateName": "Rajasthan",
    "districtCode": "S2034",
    "districtName": "Kotputli-Behror",
    "acNumber": 62,
    "acName": "Behror",
    "partNumber": 47,
    "partName": "MAJRA",
    "lat": 28.0346752,
    "lon": 76.358242
  },
  {
    "partId": 72597,
    "stateCode": "S20",
    "stateName": "Rajasthan",
    "districtCode": "S2034",
    "districtName": "Kotputli-Behror",
    "acNumber": 62,
    "acName": "Behror",
    "partNumber": 48,
    "partName": "MAJRA",
    "lat": 28.0346752,
    "lon": 76.358242
  },
  {
    "partId": 72598,
    "stateCode": "S20",
    "stateName": "Rajasthan",
    "districtCode": "S2034",
    "districtName": "Kotputli-Behror",
    "acNumber": 62,
    "acName": "Behror",
    "partNumber": 49,
    "partName": "BHEEMSINGH PURA",
    "lat": 27.8900657,
    "lon": 76.2858227
  },
  {
    "partId": 72599,
    "stateCode": "S20",
    "stateName": "Rajasthan",
    "districtCode": "S2034",
    "districtName": "Kotputli-Behror",
    "acNumber": 62,
    "acName": "Behror",
    "partNumber": 50,
    "partName": "RODWAL",
    "lat": 27.92456174651163,
    "lon": 76.29417816744187
  },
  {
    "partId": 72600,
    "stateCode": "S20",
    "stateName": "Rajasthan",
    "districtCode": "S2034",
    "districtName": "Kotputli-Behror",
    "acNumber": 62,
    "acName": "Behror",
    "partNumber": 51,
    "partName": "RODWAL",
    "lat": 28.0098232,
    "lon": 76.3539075
  },
  {
    "partId": 72601,
    "stateCode": "S20",
    "stateName": "Rajasthan",
    "districtCode": "S2034",
    "districtName": "Kotputli-Behror",
    "acNumber": 62,
    "acName": "Behror",
    "partNumber": 52,
    "partName": "MAJRI KHURD",
    "lat": 27.8900657,
    "lon": 76.2858227
  },
  {
    "partId": 72602,
    "stateCode": "S20",
    "stateName": "Rajasthan",
    "districtCode": "S2034",
    "districtName": "Kotputli-Behror",
    "acNumber": 62,
    "acName": "Behror",
    "partNumber": 53,
    "partName": "MAJRI KHURD",
    "lat": 27.8900657,
    "lon": 76.2858227
  },
  {
    "partId": 72603,
    "stateCode": "S20",
    "stateName": "Rajasthan",
    "districtCode": "S2034",
    "districtName": "Kotputli-Behror",
    "acNumber": 62,
    "acName": "Behror",
    "partNumber": 54,
    "partName": "DOSOD",
    "lat": 27.8900657,
    "lon": 76.2858227
  },
  {
    "partId": 72604,
    "stateCode": "S20",
    "stateName": "Rajasthan",
    "districtCode": "S2034",
    "districtName": "Kotputli-Behror",
    "acNumber": 62,
    "acName": "Behror",
    "partNumber": 55,
    "partName": "DOSOD",
    "lat": 27.8900657,
    "lon": 76.2858227
  },
  {
    "partId": 72605,
    "stateCode": "S20",
    "stateName": "Rajasthan",
    "districtCode": "S2034",
    "districtName": "Kotputli-Behror",
    "acNumber": 62,
    "acName": "Behror",
    "partNumber": 56,
    "partName": "RAIWANA",
    "lat": 28.033463,
    "lon": 76.275115
  },
  {
    "partId": 72606,
    "stateCode": "S20",
    "stateName": "Rajasthan",
    "districtCode": "S2034",
    "districtName": "Kotputli-Behror",
    "acNumber": 62,
    "acName": "Behror",
    "partNumber": 57,
    "partName": "RAIWANA",
    "lat": 28.033463,
    "lon": 76.275115
  },
  {
    "partId": 72607,
    "stateCode": "S20",
    "stateName": "Rajasthan",
    "districtCode": "S2034",
    "districtName": "Kotputli-Behror",
    "acNumber": 62,
    "acName": "Behror",
    "partNumber": 58,
    "partName": "TALWANA",
    "lat": 28.0425161,
    "lon": 76.2809943
  },
  {
    "partId": 72608,
    "stateCode": "S20",
    "stateName": "Rajasthan",
    "districtCode": "S2034",
    "districtName": "Kotputli-Behror",
    "acNumber": 62,
    "acName": "Behror",
    "partNumber": 59,
    "partName": "TALWANA",
    "lat": 28.0425161,
    "lon": 76.2809943
  },
  {
    "partId": 72609,
    "stateCode": "S20",
    "stateName": "Rajasthan",
    "districtCode": "S2034",
    "districtName": "Kotputli-Behror",
    "acNumber": 62,
    "acName": "Behror",
    "partNumber": 60,
    "partName": "KAYSA",
    "lat": 27.8900657,
    "lon": 76.2858227
  },
  {
    "partId": 72610,
    "stateCode": "S20",
    "stateName": "Rajasthan",
    "districtCode": "S2034",
    "districtName": "Kotputli-Behror",
    "acNumber": 62,
    "acName": "Behror",
    "partNumber": 61,
    "partName": "KAYSA",
    "lat": 27.8900657,
    "lon": 76.2858227
  },
  {
    "partId": 72611,
    "stateCode": "S20",
    "stateName": "Rajasthan",
    "districtCode": "S2034",
    "districtName": "Kotputli-Behror",
    "acNumber": 62,
    "acName": "Behror",
    "partNumber": 62,
    "partName": "KAYSA",
    "lat": 27.8900657,
    "lon": 76.2858227
  },
  {
    "partId": 72612,
    "stateCode": "S20",
    "stateName": "Rajasthan",
    "districtCode": "S2034",
    "districtName": "Kotputli-Behror",
    "acNumber": 62,
    "acName": "Behror",
    "partNumber": 63,
    "partName": "DOOMROLI",
    "lat": 27.92456174651163,
    "lon": 76.29417816744187
  },
  {
    "partId": 72613,
    "stateCode": "S20",
    "stateName": "Rajasthan",
    "districtCode": "S2034",
    "districtName": "Kotputli-Behror",
    "acNumber": 62,
    "acName": "Behror",
    "partNumber": 64,
    "partName": "DOOMROLI",
    "lat": 28.0402055,
    "lon": 76.2232303
  },
  {
    "partId": 72614,
    "stateCode": "S20",
    "stateName": "Rajasthan",
    "districtCode": "S2034",
    "districtName": "Kotputli-Behror",
    "acNumber": 62,
    "acName": "Behror",
    "partNumber": 65,
    "partName": "DOOMROLI",
    "lat": 28.0402055,
    "lon": 76.2232303
  },
  {
    "partId": 72615,
    "stateCode": "S20",
    "stateName": "Rajasthan",
    "districtCode": "S2034",
    "districtName": "Kotputli-Behror",
    "acNumber": 62,
    "acName": "Behror",
    "partNumber": 66,
    "partName": "AKLIMPUR",
    "lat": 27.8900657,
    "lon": 76.2858227
  },
  {
    "partId": 72616,
    "stateCode": "S20",
    "stateName": "Rajasthan",
    "districtCode": "S2034",
    "districtName": "Kotputli-Behror",
    "acNumber": 62,
    "acName": "Behror",
    "partNumber": 67,
    "partName": "NIHALPURA",
    "lat": 28.0440311,
    "lon": 76.1834049
  },
  {
    "partId": 72617,
    "stateCode": "S20",
    "stateName": "Rajasthan",
    "districtCode": "S2034",
    "districtName": "Kotputli-Behror",
    "acNumber": 62,
    "acName": "Behror",
    "partNumber": 68,
    "partName": "NAREDA KHURD",
    "lat": 28.0429706,
    "lon": 76.1955928
  },
  {
    "partId": 72618,
    "stateCode": "S20",
    "stateName": "Rajasthan",
    "districtCode": "S2034",
    "districtName": "Kotputli-Behror",
    "acNumber": 62,
    "acName": "Behror",
    "partNumber": 69,
    "partName": "NAYASRANA",
    "lat": 27.8900657,
    "lon": 76.2858227
  },
  {
    "partId": 72619,
    "stateCode": "S20",
    "stateName": "Rajasthan",
    "districtCode": "S2034",
    "districtName": "Kotputli-Behror",
    "acNumber": 62,
    "acName": "Behror",
    "partNumber": 70,
    "partName": "NAYASRANA",
    "lat": 27.8900657,
    "lon": 76.2858227
  },
  {
    "partId": 72620,
    "stateCode": "S20",
    "stateName": "Rajasthan",
    "districtCode": "S2034",
    "districtName": "Kotputli-Behror",
    "acNumber": 62,
    "acName": "Behror",
    "partNumber": 71,
    "partName": "JATGAWADA",
    "lat": 27.8900657,
    "lon": 76.2858227
  },
  {
    "partId": 72621,
    "stateCode": "S20",
    "stateName": "Rajasthan",
    "districtCode": "S2034",
    "districtName": "Kotputli-Behror",
    "acNumber": 62,
    "acName": "Behror",
    "partNumber": 72,
    "partName": "JATGAWADA",
    "lat": 27.8900657,
    "lon": 76.2858227
  },
  {
    "partId": 72622,
    "stateCode": "S20",
    "stateName": "Rajasthan",
    "districtCode": "S2034",
    "districtName": "Kotputli-Behror",
    "acNumber": 62,
    "acName": "Behror",
    "partNumber": 73,
    "partName": "GUWANA",
    "lat": 28.009217,
    "lon": 76.1782121
  },
  {
    "partId": 72623,
    "stateCode": "S20",
    "stateName": "Rajasthan",
    "districtCode": "S2034",
    "districtName": "Kotputli-Behror",
    "acNumber": 62,
    "acName": "Behror",
    "partNumber": 74,
    "partName": "GUWANA",
    "lat": 28.009217,
    "lon": 76.1782121
  },
  {
    "partId": 72624,
    "stateCode": "S20",
    "stateName": "Rajasthan",
    "districtCode": "S2034",
    "districtName": "Kotputli-Behror",
    "acNumber": 62,
    "acName": "Behror",
    "partNumber": 75,
    "partName": "BHAGWADIKALAN",
    "lat": 27.8900657,
    "lon": 76.2858227
  },
  {
    "partId": 72625,
    "stateCode": "S20",
    "stateName": "Rajasthan",
    "districtCode": "S2034",
    "districtName": "Kotputli-Behror",
    "acNumber": 62,
    "acName": "Behror",
    "partNumber": 76,
    "partName": "BHAGWADI KHURD",
    "lat": 27.8900657,
    "lon": 76.2858227
  },
  {
    "partId": 72626,
    "stateCode": "S20",
    "stateName": "Rajasthan",
    "districtCode": "S2034",
    "districtName": "Kotputli-Behror",
    "acNumber": 62,
    "acName": "Behror",
    "partNumber": 77,
    "partName": "KURELI",
    "lat": 27.9738041,
    "lon": 76.1718392
  },
  {
    "partId": 72627,
    "stateCode": "S20",
    "stateName": "Rajasthan",
    "districtCode": "S2034",
    "districtName": "Kotputli-Behror",
    "acNumber": 62,
    "acName": "Behror",
    "partNumber": 78,
    "partName": "BALPURA",
    "lat": 27.9787974,
    "lon": 76.1717105
  },
  {
    "partId": 72628,
    "stateCode": "S20",
    "stateName": "Rajasthan",
    "districtCode": "S2034",
    "districtName": "Kotputli-Behror",
    "acNumber": 62,
    "acName": "Behror",
    "partNumber": 79,
    "partName": "JAKHRANA KALAN",
    "lat": 27.996206,
    "lon": 76.1772111
  },
  {
    "partId": 72629,
    "stateCode": "S20",
    "stateName": "Rajasthan",
    "districtCode": "S2034",
    "districtName": "Kotputli-Behror",
    "acNumber": 62,
    "acName": "Behror",
    "partNumber": 80,
    "partName": "JAKHRANA KALAN",
    "lat": 27.996206,
    "lon": 76.1772111
  },
  {
    "partId": 72630,
    "stateCode": "S20",
    "stateName": "Rajasthan",
    "districtCode": "S2034",
    "districtName": "Kotputli-Behror",
    "acNumber": 62,
    "acName": "Behror",
    "partNumber": 81,
    "partName": "JAKHRANA KALAN",
    "lat": 27.996206,
    "lon": 76.1772111
  },
  {
    "partId": 72631,
    "stateCode": "S20",
    "stateName": "Rajasthan",
    "districtCode": "S2034",
    "districtName": "Kotputli-Behror",
    "acNumber": 62,
    "acName": "Behror",
    "partNumber": 82,
    "partName": "JAKHRANA KALAN",
    "lat": 27.996206,
    "lon": 76.1772111
  },
  {
    "partId": 72632,
    "stateCode": "S20",
    "stateName": "Rajasthan",
    "districtCode": "S2034",
    "districtName": "Kotputli-Behror",
    "acNumber": 62,
    "acName": "Behror",
    "partNumber": 83,
    "partName": "SHIVDANSINGHPURA",
    "lat": 27.92456174651163,
    "lon": 76.29417816744187
  },
  {
    "partId": 72633,
    "stateCode": "S20",
    "stateName": "Rajasthan",
    "districtCode": "S2034",
    "districtName": "Kotputli-Behror",
    "acNumber": 62,
    "acName": "Behror",
    "partNumber": 84,
    "partName": "BANTHALA",
    "lat": 28.0093849,
    "lon": 76.2684718
  },
  {
    "partId": 72634,
    "stateCode": "S20",
    "stateName": "Rajasthan",
    "districtCode": "S2034",
    "districtName": "Kotputli-Behror",
    "acNumber": 62,
    "acName": "Behror",
    "partNumber": 85,
    "partName": "KHOHAR",
    "lat": 27.9939088,
    "lon": 76.2555885
  },
  {
    "partId": 72635,
    "stateCode": "S20",
    "stateName": "Rajasthan",
    "districtCode": "S2034",
    "districtName": "Kotputli-Behror",
    "acNumber": 62,
    "acName": "Behror",
    "partNumber": 86,
    "partName": "KHOHAR",
    "lat": 27.9939088,
    "lon": 76.2555885
  },
  {
    "partId": 72776,
    "stateCode": "S20",
    "stateName": "Rajasthan",
    "districtCode": "S2034",
    "districtName": "Kotputli-Behror",
    "acNumber": 62,
    "acName": "Behror",
    "partNumber": 87,
    "partName": "KHOHAR",
    "lat": 27.9939088,
    "lon": 76.2555885
  },
  {
    "partId": 72636,
    "stateCode": "S20",
    "stateName": "Rajasthan",
    "districtCode": "S2034",
    "districtName": "Kotputli-Behror",
    "acNumber": 62,
    "acName": "Behror",
    "partNumber": 88,
    "partName": "KHOHAR BASAI",
    "lat": 27.8900657,
    "lon": 76.2858227
  },
  {
    "partId": 72637,
    "stateCode": "S20",
    "stateName": "Rajasthan",
    "districtCode": "S2034",
    "districtName": "Kotputli-Behror",
    "acNumber": 62,
    "acName": "Behror",
    "partNumber": 89,
    "partName": "KHOHAR BASAI",
    "lat": 27.8900657,
    "lon": 76.2858227
  },
  {
    "partId": 72638,
    "stateCode": "S20",
    "stateName": "Rajasthan",
    "districtCode": "S2034",
    "districtName": "Kotputli-Behror",
    "acNumber": 62,
    "acName": "Behror",
    "partNumber": 90,
    "partName": "DAWANI",
    "lat": 27.9745053,
    "lon": 76.2779903
  },
  {
    "partId": 72639,
    "stateCode": "S20",
    "stateName": "Rajasthan",
    "districtCode": "S2034",
    "districtName": "Kotputli-Behror",
    "acNumber": 62,
    "acName": "Behror",
    "partNumber": 91,
    "partName": "GANDALA",
    "lat": 27.9705019,
    "lon": 76.302554
  },