[
  {
    "partId": 90321,
    "stateCode": "S20",
    "stateName": "Rajasthan",
    "districtCode": "S2039",
    "districtName": "PHALODI",
    "acNumber": 123,
    "acName": "Lohawat",
    "partNumber": 1,
    "partName": "Dediya",
    "lat": 26.8503781,
    "lon": 72.1195578
  },
  {
    "partId": 90322,
    "stateCode": "S20",
    "stateName": "Rajasthan",
    "districtCode": "S2039",
    "districtName": "PHALODI",
    "acNumber": 123,
    "acName": "Lohawat",
    "partNumber": 2,
    "partName": "Kheda Bagodiya",
    "lat": 26.9829712,
    "lon": 72.5914155
  },
  {
    "partId": 90323,
    "stateCode": "S20",
    "stateName": "Rajasthan",
    "districtCode": "S2039",
    "districtName": "PHALODI",
    "acNumber": 123,
    "acName": "Lohawat",
    "partNumber": 3,
    "partName": "Ramnagar",
    "lat": 27.0874034,
    "lon": 72.9862761
  },
  {
    "partId": 90324,
    "stateCode": "S20",
    "stateName": "Rajasthan",
    "districtCode": "S2039",
    "districtName": "PHALODI",
    "acNumber": 123,
    "acName": "Lohawat",
    "partNumber": 4,
    "partName": "Ramnagar",
    "lat": 27.0874034,
    "lon": 72.9862761
  },
  {
    "partId": 90325,
    "stateCode": "S20",
    "stateName": "Rajasthan",
    "districtCode": "S2039",
    "districtName": "PHALODI",
    "acNumber": 123,
    "acName": "Lohawat",
    "partNumber": 5,
    "partName": "Mandla Kalan",
    "lat": 26.9829712,
    "lon": 72.5914155
  },
  {
    "partId": 90326,
    "stateCode": "S20",
    "stateName": "Rajasthan",
    "districtCode": "S2039",
    "districtName": "PHALODI",
    "acNumber": 123,
    "acName": "Lohawat",
    "partNumber": 6,
    "partName": "Mandla Kalan",
    "lat": 26.9829712,
    "lon": 72.5914155
  },
  {
    "partId": 90327,
    "stateCode": "S20",
    "stateName": "Rajasthan",
    "districtCode": "S2039",
    "districtName": "PHALODI",
    "acNumber": 123,
    "acName": "Lohawat",
    "partNumber": 7,
    "partName": "Mandla Kalan",
    "lat": 26.9829712,
    "lon": 72.5914155
  },
  {
    "partId": 90328,
    "stateCode": "S20",
    "stateName": "Rajasthan",
    "districtCode": "S2039",
    "districtName": "PHALODI",
    "acNumber": 123,
    "acName": "Lohawat",
    "partNumber": 8,
    "partName": "Mandla Khurd",
    "lat": 26.8285898,
    "lon": 72.2869706
  },
  {
    "partId": 90329,
    "stateCode": "S20",
    "stateName": "Rajasthan",
    "districtCode": "S2039",
    "districtName": "PHALODI",
    "acNumber": 123,
    "acName": "Lohawat",
    "partNumber": 9,
    "partName": "Mandla Khurd",
    "lat": 26.8285898,
    "lon": 72.2869706
  },
  {
    "partId": 90330,
    "stateCode": "S20",
    "stateName": "Rajasthan",
    "districtCode": "S2039",
    "districtName": "PHALODI",
    "acNumber": 123,
    "acName": "Lohawat",
    "partNumber": 10,
    "partName": "Sagara",
    "lat": 26.7887742,
    "lon": 72.2893524
  },
  {
    "partId": 90331,
    "stateCode": "S20",
    "stateName": "Rajasthan",
    "districtCode": "S2039",
    "districtName": "PHALODI",
    "acNumber": 123,
    "acName": "Lohawat",
    "partNumber": 11,
    "partName": "Ramadevanagar",
    "lat": 26.9829712,
    "lon": 72.5914155
  },
  {
    "partId": 90332,
    "stateCode": "S20",
    "stateName": "Rajasthan",
    "districtCode": "S2039",
    "districtName": "PHALODI",
    "acNumber": 123,
    "acName": "Lohawat",
    "partNumber": 12,
    "partName": "Maheshdasnagar",
    "lat": 26.9829712,
    "lon": 72.5914155
  },
  {
    "partId": 90333,
    "stateCode": "S20",
    "stateName": "Rajasthan",
    "districtCode": "S2039",
    "districtName": "PHALODI",
    "acNumber": 123,
    "acName": "Lohawat",
    "partNumber": 13,
    "partName": "Shivpura",
    "lat": 27.062336,
    "lon": 72.0885944
  },
  {
    "partId": 90334,
    "stateCode": "S20",
    "stateName": "Rajasthan",
    "districtCode": "S2039",
    "districtName": "PHALODI",
    "acNumber": 123,
    "acName": "Lohawat",
    "partNumber": 14,
    "partName": "Anandpura",
    "lat": 26.9829712,
    "lon": 72.5914155
  },
  {
    "partId": 90335,
    "stateCode": "S20",
    "stateName": "Rajasthan",
    "districtCode": "S2039",
    "districtName": "PHALODI",
    "acNumber": 123,
    "acName": "Lohawat",
    "partNumber": 15,
    "partName": "Chandasama",
    "lat": 26.9829712,
    "lon": 72.5914155
  },
  {
    "partId": 90336,
    "stateCode": "S20",
    "stateName": "Rajasthan",
    "districtCode": "S2039",
    "districtName": "PHALODI",
    "acNumber": 123,
    "acName": "Lohawat",
    "partNumber": 16,
    "partName": "Rawatgarh Lalpura",
    "lat": 26.9829712,
    "lon": 72.5914155
  },
  {
    "partId": 90337,
    "stateCode": "S20",
    "stateName": "Rajasthan",
    "districtCode": "S2039",
    "districtName": "PHALODI",
    "acNumber": 123,
    "acName": "Lohawat",
    "partNumber": 17,
    "partName": "Govindpura",
    "lat": 26.9829712,
    "lon": 72.5914155
  },
  {
    "partId": 90338,
    "stateCode": "S20",
    "stateName": "Rajasthan",
    "districtCode": "S2039",
    "districtName": "PHALODI",
    "acNumber": 123,
    "acName": "Lohawat",
    "partNumber": 18,
    "partName": "Jawaharpura",
    "lat": 26.9829712,
    "lon": 72.5914155
  },
  {
    "partId": 90339,
    "stateCode": "S20",
    "stateName": "Rajasthan",
    "districtCode": "S2039",
    "districtName": "PHALODI",
    "acNumber": 123,
    "acName": "Lohawat",
    "partNumber": 19,
    "partName": "Sadulpura",
    "lat": 26.9829712,
    "lon": 72.5914155
  },
  {
    "partId": 90340,
    "stateCode": "S20",
    "stateName": "Rajasthan",
    "districtCode": "S2039",
    "districtName": "PHALODI",
    "acNumber": 123,
    "acName": "Lohawat",
    "partNumber": 20,
    "partName": "Lalpura",
    "lat": 26.766677,
    "lon": 72.0652699
  },
  {
    "partId": 90341,
    "stateCode": "S20",
    "stateName": "Rajasthan",
    "districtCode": "S2039",
    "districtName": "PHALODI",
    "acNumber": 123,
    "acName": "Lohawat",
    "partNumber": 21,
    "partName": "Jalpuri",
    "lat": 26.9829712,
    "lon": 72.5914155
  },
  {
    "partId": 90342,
    "stateCode": "S20",
    "stateName": "Rajasthan",
    "districtCode": "S2039",
    "districtName": "PHALODI",
    "acNumber": 123,
    "acName": "Lohawat",
    "partNumber": 22,
    "partName": "Kalau",
    "lat": 26.6620526,
    "lon": 72.1041727
  },
  {
    "partId": 90343,
    "stateCode": "S20",
    "stateName": "Rajasthan",
    "districtCode": "S2039",
    "districtName": "PHALODI",
    "acNumber": 123,
    "acName": "Lohawat",
    "partNumber": 23,
    "partName": "Nayasara",
    "lat": 26.9829712,
    "lon": 72.5914155
  },
  {
    "partId": 90344,
    "stateCode": "S20",
    "stateName": "Rajasthan",
    "districtCode": "S2039",
    "districtName": "PHALODI",
    "acNumber": 123,
    "acName": "Lohawat",
    "partNumber": 24,
    "partName": "Ramsar",
    "lat": 26.9829712,
    "lon": 72.5914155
  },
  {
    "partId": 90345,
    "stateCode": "S20",
    "stateName": "Rajasthan",
    "districtCode": "S2039",
    "districtName": "PHALODI",
    "acNumber": 123,
    "acName": "Lohawat",
    "partNumber": 25,
    "partName": "Bhivasagar",
    "lat": 26.9829712,
    "lon": 72.5914155
  },
  {
    "partId": 90346,
    "stateCode": "S20",
    "stateName": "Rajasthan",
    "districtCode": "S2039",
    "districtName": "PHALODI",
    "acNumber": 123,
    "acName": "Lohawat",
    "partNumber": 26,
    "partName": "Rupnagar",
    "lat": 26.9829712,
    "lon": 72.5914155
  },
  {
    "partId": 90347,
    "stateCode": "S20",
    "stateName": "Rajasthan",
    "districtCode": "S2039",
    "districtName": "PHALODI",
    "acNumber": 123,
    "acName": "Lohawat",
    "partNumber": 27,
    "partName": "Kanodiya Maha Singh",
    "lat": 26.9829712,
    "lon": 72.5914155
  },
  {
    "partId": 90348,
    "stateCode": "S20",
    "stateName": "Rajasthan",
    "districtCode": "S2039",
    "districtName": "PHALODI",
    "acNumber": 123,
    "acName": "Lohawat",
    "partNumber": 28,
    "partName": "Laxmangarh",
    "lat": 26.9829712,
    "lon": 72.5914155
  },
  {
    "partId": 90349,
    "stateCode": "S20",
    "stateName": "Rajasthan",
    "districtCode": "S2039",
    "districtName": "PHALODI",
    "acNumber": 123,
    "acName": "Lohawat",
    "partNumber": 29,
    "partName": "Budakiya",
    "lat": 26.9829712,
    "lon": 72.5914155
  },
  {
    "partId": 90350,
    "stateCode": "S20",
    "stateName": "Rajasthan",
    "districtCode": "S2039",
    "districtName": "PHALODI",
    "acNumber": 123,
    "acName": "Lohawat",
    "partNumber": 30,
    "partName": "Dholasar",
    "lat": 27.1855016,
    "lon": 72.5134471
  },
  {
    "partId": 90351,
    "stateCode": "S20",
    "stateName": "Rajasthan",
    "districtCode": "S2039",
    "districtName": "PHALODI",
    "acNumber": 123,
    "acName": "Lohawat",
    "partNumber": 31,
    "partName": "Bakasar",
    "lat": 26.701721,
    "lon": 72.1555638
  },
  {
    "partId": 90352,
    "stateCode": "S20",
    "stateName": "Rajasthan",
    "districtCode": "S2039",
    "districtName": "PHALODI",
    "acNumber": 123,
    "acName": "Lohawat",
    "partNumber": 32,
    "partName": "Untavaliya",
    "lat": 26.9829712,
    "lon": 72.5914155
  },
  {
    "partId": 90353,
    "stateCode": "S20",
    "stateName": "Rajasthan",
    "districtCode": "S2039",
    "districtName": "PHALODI",
    "acNumber": 123,
    "acName": "Lohawat",
    "partNumber": 33,
    "partName": "Untavaliya",
    "lat": 26.9829712,
    "lon": 72.5914155
  },
  {
    "partId": 90354,
    "stateCode": "S20",
    "stateName": "Rajasthan",
    "districtCode": "S2039",
    "districtName": "PHALODI",
    "acNumber": 123,
    "acName": "Lohawat",
    "partNumber": 34,
    "partName": "Lakshman nagar",
    "lat": 26.9829712,
    "lon": 72.5914155
  },
  {
    "partId": 90355,
    "stateCode": "S20",
    "stateName": "Rajasthan",
    "districtCode": "S2039",
    "districtName": "PHALODI",
    "acNumber": 123,
    "acName": "Lohawat",
    "partNumber": 35,
    "partName": "Pabusar",
    "lat": 26.8824594,
    "lon": 72.3848605
  },
  {
    "partId": 90356,
    "stateCode": "S20",
    "stateName": "Rajasthan",
    "districtCode": "S2039",
    "districtName": "PHALODI",
    "acNumber": 123,
    "acName": "Lohawat",
    "partNumber": 36,
    "partName": "Asarlai",
    "lat": 26.7067241,
    "lon": 72.2663283
  },
  {
    "partId": 90357,
    "stateCode": "S20",
    "stateName": "Rajasthan",
    "districtCode": "S2039",
    "districtName": "PHALODI",
    "acNumber": 123,
    "acName": "Lohawat",
    "partNumber": 37,
    "partName": "Asarlai",
    "lat": 26.7067241,
    "lon": 72.2663283
  },
  {
    "partId": 90358,
    "stateCode": "S20",
    "stateName": "Rajasthan",
    "districtCode": "S2039",
    "districtName": "PHALODI",
    "acNumber": 123,
    "acName": "Lohawat",
    "partNumber": 38,
    "partName": "Jethaniya",
    "lat": 26.6274154,
    "lon": 72.1900463
  },
  {
    "partId": 90359,
    "stateCode": "S20",
    "stateName": "Rajasthan",
    "districtCode": "S2039",
    "districtName": "PHALODI",
    "acNumber": 123,
    "acName": "Lohawat",
    "partNumber": 39,
    "partName": "Jethaniya",
    "lat": 26.6274154,
    "lon": 72.1900463
  },
  {
    "partId": 90360,
    "stateCode": "S20",
    "stateName": "Rajasthan",
    "districtCode": "S2039",
    "districtName": "PHALODI",
    "acNumber": 123,
    "acName": "Lohawat",
    "partNumber": 40,
    "partName": "Shivasagar",
    "lat": 26.9829712,
    "lon": 72.5914155
  },
  {
    "partId": 90361,
    "stateCode": "S20",
    "stateName": "Rajasthan",
    "districtCode": "S2039",
    "districtName": "PHALODI",
    "acNumber": 123,
    "acName": "Lohawat",
    "partNumber": 41,
    "partName": "Khetasagar",
    "lat": 26.9829712,
    "lon": 72.5914155
  },
  {
    "partId": 90362,
    "stateCode": "S20",
    "stateName": "Rajasthan",
    "districtCode": "S2039",
    "districtName": "PHALODI",
    "acNumber": 123,
    "acName": "Lohawat",
    "partNumber": 42,
    "partName": "Jaitasar",
    "lat": 26.9829712,
    "lon": 72.5914155
  },
  {
    "partId": 90363,
    "stateCode": "S20",
    "stateName": "Rajasthan",
    "districtCode": "S2039",
    "districtName": "PHALODI",
    "acNumber": 123,
    "acName": "Lohawat",
    "partNumber": 43,
    "partName": "Premser",
    "lat": 26.9829712,
    "lon": 72.5914155
  },
  {
    "partId": 90364,
    "stateCode": "S20",
    "stateName": "Rajasthan",
    "districtCode": "S2039",
    "districtName": "PHALODI",
    "acNumber": 123,
    "acName": "Lohawat",
    "partNumber": 44,
    "partName": "Chandasar",
    "lat": 26.9829712,
    "lon": 72.5914155
  },
  {
    "partId": 90365,
    "stateCode": "S20",
    "stateName": "Rajasthan",
    "districtCode": "S2039",
    "districtName": "PHALODI",
    "acNumber": 123,
    "acName": "Lohawat",
    "partNumber": 45,
    "partName": "Badarasar",
    "lat": 26.9829712,
    "lon": 72.5914155
  },
  {
    "partId": 90366,
    "stateCode": "S20",
    "stateName": "Rajasthan",
    "districtCode": "S2039",
    "districtName": "PHALODI",
    "acNumber": 123,
    "acName": "Lohawat",
    "partNumber": 46,
    "partName": "Setarava",
    "lat": 26.9829712,
    "lon": 72.5914155
  },
  {
    "partId": 90367,
    "stateCode": "S20",
    "stateName": "Rajasthan",
    "districtCode": "S2039",
    "districtName": "PHALODI",
    "acNumber": 123,
    "acName": "Lohawat",
    "partNumber": 47,
    "partName": "Setarava",
    "lat": 26.9829712,
    "lon": 72.5914155
  },
  {
    "partId": 90368,
    "stateCode": "S20",
    "stateName": "Rajasthan",
    "districtCode": "S2039",
    "districtName": "PHALODI",
    "acNumber": 123,
    "acName": "Lohawat",
    "partNumber": 48,
    "partName": "Pratap Garh",
    "lat": 26.9829712,
    "lon": 72.5914155
  },
  {
    "partId": 90369,
    "stateCode": "S20",
    "stateName": "Rajasthan",
    "districtCode": "S2039",
    "districtName": "PHALODI",
    "acNumber": 123,
    "acName": "Lohawat",
    "partNumber": 49,
    "partName": "Viramdevgarh",
    "lat": 26.9829712,
    "lon": 72.5914155
  },
  {
    "partId": 90370,
    "stateCode": "S20",
    "stateName": "Rajasthan",
    "districtCode": "S2039",
    "districtName": "PHALODI",
    "acNumber": 123,
    "acName": "Lohawat",
    "partNumber": 50,
    "partName": "Abhaygarh",
    "lat": 26.5778579,
    "lon": 72.2721004
  },
  {
    "partId": 90371,
    "stateCode": "S20",
    "stateName": "Rajasthan",
    "districtCode": "S2039",
    "districtName": "PHALODI",
    "acNumber": 123,
    "acName": "Lohawat",
    "partNumber": 51,
    "partName": "Khanodi",
    "lat": 26.9829712,
    "lon": 72.5914155
  },
  {
    "partId": 90441,
    "stateCode": "S20",
    "stateName": "Rajasthan",
    "districtCode": "S2039",
    "districtName": "PHALODI",
    "acNumber": 123,
    "acName": "Lohawat",
    "partNumber": 52,
    "partName": "BHUJIYA BHAKHARI KHETNAGAR",
    "lat": 26.9829712,
    "lon": 72.5914155
  },
  {
    "partId": 90372,
    "stateCode": "S20",
    "stateName": "Rajasthan",
    "districtCode": "S2039",
    "districtName": "PHALODI",
    "acNumber": 123,
    "acName": "Lohawat",
    "partNumber": 53,
    "partName": "Choradiya",
    "lat": 26.9829712,
    "lon": 72.5914155
  },
  {
    "partId": 90373,
    "stateCode": "S20",
    "stateName": "Rajasthan",
    "districtCode": "S2039",
    "districtName": "PHALODI",
    "acNumber": 123,
    "acName": "Lohawat",
    "partNumber": 54,
    "partName": "Choradiya",
    "lat": 26.9829712,
    "lon": 72.5914155
  },
  {
    "partId": 90374,
    "stateCode": "S20",
    "stateName": "Rajasthan",
    "districtCode": "S2039",
    "districtName": "PHALODI",
    "acNumber": 123,
    "acName": "Lohawat",
    "partNumber": 55,
    "partName": "Khiyasariya",
    "lat": 26.6597323,
    "lon": 72.3187065
  },
  {
    "partId": 90375,
    "stateCode": "S20",
    "stateName": "Rajasthan",
    "districtCode": "S2039",
    "districtName": "PHALODI",
    "acNumber": 123,
    "acName": "Lohawat",
    "partNumber": 56,
    "partName": "Khiyasariya",
    "lat": 26.6597323,
    "lon": 72.3187065
  },
  {
    "partId": 90376,
    "stateCode": "S20",
    "stateName": "Rajasthan",
    "districtCode": "S2039",
    "districtName": "PHALODI",
    "acNumber": 123,
    "acName": "Lohawat",
    "partNumber": 57,
    "partName": "Nayabera",
    "lat": 26.9829712,
    "lon": 72.5914155
  },
  {
    "partId": 90377,
    "stateCode": "S20",
    "stateName": "Rajasthan",
    "districtCode": "S2039",
    "districtName": "PHALODI",
    "acNumber": 123,
    "acName": "Lohawat",
    "partNumber": 58,
    "partName": "Dechu",
    "lat": 26.7709863,
    "lon": 72.32699
  },
  {
    "partId": 90378,
    "stateCode": "S20",
    "stateName": "Rajasthan",
    "districtCode": "S2039",
    "districtName": "PHALODI",
    "acNumber": 123,
    "acName": "Lohawat",
    "partNumber": 59,
    "partName": "Dechu",
    "lat": 26.7709863,
    "lon": 72.32699
  },
  {
    "partId": 90379,
    "stateCode": "S20",
    "stateName": "Rajasthan",
    "districtCode": "S2039",
    "districtName": "PHALODI",
    "acNumber": 123,
    "acName": "Lohawat",
    "partNumber": 60,
    "partName": "Dechu",
    "lat": 26.7709863,
    "lon": 72.32699
  },
  {
    "partId": 90380,
    "stateCode": "S20",
    "stateName": "Rajasthan",
    "districtCode": "S2039",
    "districtName": "PHALODI",
    "acNumber": 123,
    "acName": "Lohawat",
    "partNumber": 61,
    "partName": "Dechu",
    "lat": 26.7709863,
    "lon": 72.32699
  },
  {
    "partId": 90381,
    "stateCode": "S20",
    "stateName": "Rajasthan",
    "districtCode": "S2039",
    "districtName": "PHALODI",
    "acNumber": 123,
    "acName": "Lohawat",
    "partNumber": 62,
    "partName": "Fatehgarh",
    "lat": 26.9829712,
    "lon": 72.5914155
  },
  {
    "partId": 90382,
    "stateCode": "S20",
    "stateName": "Rajasthan",
    "districtCode": "S2039",
    "districtName": "PHALODI",
    "acNumber": 123,
    "acName": "Lohawat",
    "partNumber": 63,
    "partName": "Guman Pura",
    "lat": 26.9829712,
    "lon": 72.5914155
  },
  {
    "partId": 90383,
    "stateCode": "S20",
    "stateName": "Rajasthan",
    "districtCode": "S2039",
    "districtName": "PHALODI",
    "acNumber": 123,
    "acName": "Lohawat",
    "partNumber": 64,
    "partName": "Guman Pura",
    "lat": 26.9829712,
    "lon": 72.5914155
  },
  {
    "partId": 90384,
    "stateCode": "S20",
    "stateName": "Rajasthan",
    "districtCode": "S2039",
    "districtName": "PHALODI",
    "acNumber": 123,
    "acName": "Lohawat",
    "partNumber": 65,
    "partName": "Anadanagar",
    "lat": 26.9829712,
    "lon": 72.5914155
  },
  {
    "partId": 90385,
    "stateCode": "S20",
    "stateName": "Rajasthan",
    "districtCode": "S2039",
    "districtName": "PHALODI",
    "acNumber": 123,
    "acName": "Lohawat",
    "partNumber": 66,
    "partName": "Lalasar",
    "lat": 26.9829712,
    "lon": 72.5914155
  },
  {
    "partId": 90386,
    "stateCode": "S20",
    "stateName": "Rajasthan",
    "districtCode": "S2039",
    "districtName": "PHALODI",
    "acNumber": 123,
    "acName": "Lohawat",
    "partNumber": 67,
    "partName": "Deramanagar",
    "lat": 26.9829712,
    "lon": 72.5914155
  },
  {
    "partId": 90387,
    "stateCode": "S20",
    "stateName": "Rajasthan",
    "districtCode": "S2039",
    "districtName": "PHALODI",
    "acNumber": 123,
    "acName": "Lohawat",
    "partNumber": 68,
    "partName": "Ramadevanagar",
    "lat": 26.9829712,
    "lon": 72.5914155
  },
  {
    "partId": 90388,
    "stateCode": "S20",
    "stateName": "Rajasthan",
    "districtCode": "S2039",
    "districtName": "PHALODI",
    "acNumber": 123,
    "acName": "Lohawat",
    "partNumber": 69,
    "partName": "Bhojakor",
    "lat": 26.9829712,
    "lon": 72.5914155
  },
  {
    "partId": 90389,
    "stateCode": "S20",
    "stateName": "Rajasthan",
    "districtCode": "S2039",
    "districtName": "PHALODI",
    "acNumber": 123,
    "acName": "Lohawat",
    "partNumber": 70,
    "partName": "Ridmalnagar",
    "lat": 26.9829712,
    "lon": 72.5914155
  },
  {
    "partId": 90390,
    "stateCode": "S20",
    "stateName": "Rajasthan",
    "districtCode": "S2039",
    "districtName": "PHALODI",
    "acNumber": 123,
    "acName": "Lohawat",
    "partNumber": 71,
    "partName": "Devnagar Bhojakor",
    "lat": 26.9829712,
    "lon": 72.5914155
  },
  {
    "partId": 90391,
    "stateCode": "S20",
    "stateName": "Rajasthan",
    "districtCode": "S2039",
    "districtName": "PHALODI",
    "acNumber": 123,
    "acName": "Lohawat",
    "partNumber": 72,
    "partName": "Kushalava",
    "lat": 26.9829712,
    "lon": 72.5914155
  },
  {
    "partId": 90392,
    "stateCode": "S20",
    "stateName": "Rajasthan",
    "districtCode": "S2039",
    "districtName": "PHALODI",
    "acNumber": 123,
    "acName": "Lohawat",
    "partNumber": 73,
    "partName": "Kushalava",
    "lat": 26.9829712,
    "lon": 72.5914155
  },
  {
    "partId": 90393,
    "stateCode": "S20",
    "stateName": "Rajasthan",
    "districtCode": "S2039",
    "districtName": "PHALODI",
    "acNumber": 123,
    "acName": "Lohawat",
    "partNumber": 74,
    "partName": "Kushalava",
    "lat": 26.9829712,
    "lon": 72.5914155
  },
  {
    "partId": 90394,
    "stateCode": "S20",
    "stateName": "Rajasthan",
    "districtCode": "S2039",
    "districtName": "PHALODI",
    "acNumber": 123,
    "acName": "Lohawat",
    "partNumber": 75,
    "partName": "Satasar",
    "lat": 26.9829712,
    "lon": 72.5914155
  },
  {
    "partId": 90395,
    "stateCode": "S20",
    "stateName": "Rajasthan",
    "districtCode": "S2039",
    "districtName": "PHALODI",
    "acNumber": 123,
    "acName": "Lohawat",
    "partNumber": 76,
    "partName": "Krishan Nagar",
    "lat": 26.9829712,
    "lon": 72.5914155
  },
  {
    "partId": 90396,
    "stateCode": "S20",
    "stateName": "Rajasthan",
    "districtCode": "S2039",
    "districtName": "PHALODI",
    "acNumber": 123,
    "acName": "Lohawat",
    "partNumber": 77,
    "partName": "Kolu Rathouda",
    "lat": 26.9829712,
    "lon": 72.5914155
  },
  {
    "partId": 90397,
    "stateCode": "S20",
    "stateName": "Rajasthan",
    "districtCode": "S2039",
    "districtName": "PHALODI",
    "acNumber": 123,
    "acName": "Lohawat",
    "partNumber": 78,
    "partName": "Kolu Nimbayat",
    "lat": 26.9829712,
    "lon": 72.5914155
  },
  {
    "partId": 90398,
    "stateCode": "S20",
    "stateName": "Rajasthan",
    "districtCode": "S2039",
    "districtName": "PHALODI",
    "acNumber": 123,
    "acName": "Lohawat",
    "partNumber": 79,
    "partName": "Kolu Rathodayat",
    "lat": 26.9829712,
    "lon": 72.5914155
  },
  {
    "partId": 90399,
    "stateCode": "S20",
    "stateName": "Rajasthan",
    "districtCode": "S2039",
    "districtName": "PHALODI",
    "acNumber": 123,
    "acName": "Lohawat",
    "partNumber": 80,
    "partName": "Pabu Chhanwara",
    "lat": 26.9829712,
    "lon": 72.5914155
  },
  {
    "partId": 90400,
    "stateCode": "S20",
    "stateName": "Rajasthan",
    "districtCode": "S2039",
    "districtName": "PHALODI",
    "acNumber": 123,
    "acName": "Lohawat",
    "partNumber": 81,
    "partName": "Kolu Pabuji",
    "lat": 26.916929850000002,
    "lon": 72.31259015
  },
  {
    "partId": 90401,
    "stateCode": "S20",
    "stateName": "Rajasthan",
    "districtCode": "S2039",
    "districtName": "PHALODI",
    "acNumber": 123,
    "acName": "Lohawat",
    "partNumber": 82,
    "partName": "Dhaneshvar Nagar Purohitan",
    "lat": 26.9829712,
    "lon": 72.5914155
  },
  {
    "partId": 90402,
    "stateCode": "S20",
    "stateName": "Rajasthan",
    "districtCode": "S2039",
    "districtName": "PHALODI",
    "acNumber": 123,
    "acName": "Lohawat",
    "partNumber": 83,
    "partName": "Khanpura",
    "lat": 26.9829712,
    "lon": 72.5914155
  },
  {
    "partId": 90403,
    "stateCode": "S20",
    "stateName": "Rajasthan",
    "districtCode": "S2039",
    "districtName": "PHALODI",
    "acNumber": 123,
    "acName": "Lohawat",
    "partNumber": 84,
    "partName": "Jharadeji Ki Bhakhari",
    "lat": 26.9829712,
    "lon": 72.5914155
  },
  {
    "partId": 90404,
    "stateCode": "S20",
    "stateName": "Rajasthan",
    "districtCode": "S2039",
    "districtName": "PHALODI",
    "acNumber": 123,
    "acName": "Lohawat",
    "partNumber": 85,
    "partName": "Bhaiyo Ki Dhani",
    "lat": 26.9829712,
    "lon": 72.5914155
  },
  {
    "partId": 90405,
    "stateCode": "S20",
    "stateName": "Rajasthan",
    "districtCode": "S2039",
    "districtName": "PHALODI",
    "acNumber": 123,
    "acName": "Lohawat",
    "partNumber": 86,
    "partName": "Dharabagapuran",
    "lat": 26.9829712,
    "lon": 72.5914155
  },
  {
    "partId": 90406,
    "stateCode": "S20",
    "stateName": "Rajasthan",
    "districtCode": "S2039",
    "districtName": "PHALODI",
    "acNumber": 123,
    "acName": "Lohawat",
    "partNumber": 87,
    "partName": "Masjid Ki Dhani",
    "lat": 26.9829712,
    "lon": 72.5914155
  },
  {
    "partId": 90407,
    "stateCode": "S20",
    "stateName": "Rajasthan",
    "districtCode": "S2039",
    "districtName": "PHALODI",
    "acNumber": 123,
    "acName": "Lohawat",
    "partNumber": 88,
    "partName": "Pilava",
    "lat": 26.8484637,
    "lon": 72.4374532
  },
  {
    "partId": 90408,
    "stateCode": "S20",
    "stateName": "Rajasthan",
    "districtCode": "S2039",
    "districtName": "PHALODI",
    "acNumber": 123,
    "acName": "Lohawat",
    "partNumber": 89,
    "partName": "Pilava",
    "lat": 26.8484637,
    "lon": 72.4374532
  },
  {
    "partId": 90409,
    "stateCode": "S20",
    "stateName": "Rajasthan",
    "districtCode": "S2039",
    "districtName": "PHALODI",
    "acNumber": 123,
    "acName": "Lohawat",
    "partNumber": 90,
    "partName": "Ravatanagar",
    "lat": 26.9829712,
    "lon": 72.5914155
  },
  {
    "partId": 90410,
    "stateCode": "S20",
    "stateName": "Rajasthan",
    "districtCode": "S2039",
    "districtName": "PHALODI",
    "acNumber": 123,
    "acName": "Lohawat",
    "partNumber": 91,
    "partName": "Ram Sagar",
    "lat": 26.9829712,
    "lon": 72.5914155
  },
  {
    "partId": 90411,
    "stateCode": "S20",
    "stateName": "Rajasthan",
    "districtCode": "S2039",
    "districtName": "PHALODI",
    "acNumber": 123,
    "acName": "Lohawat",
    "partNumber": 92,
    "partName": "Pilava",
    "lat": 26.8484637,
    "lon": 72.4374532
  },
  {
    "partId": 90412,
    "stateCode": "S20",
    "stateName": "Rajasthan",
    "districtCode": "S2039",
    "districtName": "PHALODI",
    "acNumber": 123,
    "acName": "Lohawat",
    "partNumber": 93,
    "partName": "Himmatnagar",
    "lat": 26.9829712,
    "lon": 72.5914155
  },
  {
    "partId": 90413,
    "stateCode": "S20",
    "stateName": "Rajasthan",
    "districtCode": "S2039",
    "districtName": "PHALODI",
    "acNumber": 123,
    "acName": "Lohawat",
    "partNumber": 94,
    "partName": "Indolai Nadi",
    "lat": 26.9829712,
    "lon": 72.5914155
  },
  {
    "partId": 90414,
    "stateCode": "S20",
    "stateName": "Rajasthan",
    "districtCode": "S2039",
    "districtName": "PHALODI",
    "acNumber": 123,
    "acName": "Lohawat",
    "partNumber": 95,
    "partName": "Fatehasagar",
    "lat": 26.980898808536583,
    "lon": 72.59612617619737
  },
  {
    "partId": 90415,
    "stateCode": "S20",
    "stateName": "Rajasthan",
    "districtCode": "S2039",
    "districtName": "PHALODI",
    "acNumber": 123,
    "acName": "Lohawat",
    "partNumber": 96,
    "partName": "Deepawat Nagar",
    "lat": 26.9829712,
    "lon": 72.5914155
  },
  {
    "partId": 90416,
    "stateCode": "S20",
    "stateName": "Rajasthan",
    "districtCode": "S2039",
    "districtName": "PHALODI",
    "acNumber": 123,
    "acName": "Lohawat",
    "partNumber": 97,
    "partName": "Fatehasagar",
    "lat": 26.9829712,
    "lon": 72.5914155
  },
  {
    "partId": 90417,
    "stateCode": "S20",
    "stateName": "Rajasthan",
    "districtCode": "S2039",
    "districtName": "PHALODI",
    "acNumber": 123,
    "acName": "Lohawat",
    "partNumber": 98,
    "partName": "Fatehasagar",
    "lat": 26.980898808536583,
    "lon": 72.59612617619737
  },
  {
    "partId": 90418,
    "stateCode": "S20",
    "stateName": "Rajasthan",
    "districtCode": "S2039",
    "districtName": "PHALODI",
    "acNumber": 123,
    "acName": "Lohawat",
    "partNumber": 99,
    "partName": "Chatalanagar",
    "lat": 27.07993345,
    "lon": 72.5804849079002
  },
  {
    "partId": 90419,
    "stateCode": "S20",
    "stateName": "Rajasthan",
    "districtCode": "S2039",
    "districtName": "PHALODI",
    "acNumber": 123,
    "acName": "Lohawat",
    "partNumber": 100,
    "partName": "Himmatanagar",
    "lat": 26.980898808536583,
    "lon": 72.59612617619737
  },
  {
    "partId": 90420,
    "stateCode": "S20",
    "stateName": "Rajasthan",
    "districtCode": "S2039",
    "districtName": "PHALODI",
    "acNumber": 123,
    "acName": "Lohawat",
    "partNumber": 101,
    "partName": "Dayakor",
    "lat": 26.9829712,
    "lon": 72.5914155
  },
  {
    "partId": 90421,
    "stateCode": "S20",
    "stateName": "Rajasthan",
    "districtCode": "S2039",
    "districtName": "PHALODI",
    "acNumber": 123,
    "acName": "Lohawat",
    "partNumber": 102,
    "partName": "Dayakor",
    "lat": 26.9829712,
    "lon": 72.5914155
  },
  {
    "partId": 90442,
    "stateCode": "S20",
    "stateName": "Rajasthan",
    "districtCode": "S2039",
    "districtName": "PHALODI",
    "acNumber": 123,
    "acName": "Lohawat",
    "partNumber": 103,
    "partName": "MADRUPNAGAR",
    "lat": 26.8862106,
    "lon": 72.4333763
  },
  {
    "partId": 90422,
    "stateCode": "S20",
    "stateName": "Rajasthan",
    "districtCode": "S2039",
    "districtName": "PHALODI",
    "acNumber": 123,
    "acName": "Lohawat",
    "partNumber": 104,
    "partName": "Sudanagar",
    "lat": 26.9829712,
    "lon": 72.5914155
  },
  {
    "partId": 90423,
    "stateCode": "S20",
    "stateName": "Rajasthan",
    "districtCode": "S2039",
    "districtName": "PHALODI",
    "acNumber": 123,
    "acName": "Lohawat",
    "partNumber": 105,
    "partName": "Jaloda",
    "lat": 26.9943854,
    "lon": 72.4095797
  },
  {
    "partId": 90424,
    "stateCode": "S20",
    "stateName": "Rajasthan",
    "districtCode": "S2039",
    "districtName": "PHALODI",
    "acNumber": 123,
    "acName": "Lohawat",
    "partNumber": 106,
    "partName": "Jaloda",
    "lat": 26.9943854,
    "lon": 72.4095797
  },
  {
    "partId": 90425,
    "stateCode": "S20",
    "stateName": "Rajasthan",
    "districtCode": "S2039",
    "districtName": "PHALODI",
    "acNumber": 123,
    "acName": "Lohawat",
    "partNumber": 107,
    "partName": "Vishnunagar",
    "lat": 26.9829712,
    "lon": 72.5914155
  },
  {
    "partId": 90426,
    "stateCode": "S20",
    "stateName": "Rajasthan",
    "districtCode": "S2039",
    "districtName": "PHALODI",
    "acNumber": 123,
    "acName": "Lohawat",
    "partNumber": 108,
    "partName": "Deriyon Ki Dhani",
    "lat": 26.9829712,
    "lon": 72.5914155
  },
  {
    "partId": 90427,
    "stateCode": "S20",
    "stateName": "Rajasthan",
    "districtCode": "S2039",
    "districtName": "PHALODI",
    "acNumber": 123,
    "acName": "Lohawat",
    "partNumber": 109,
    "partName": "Chikani Nadi",
    "lat": 26.9829712,
    "lon": 72.5914155
  },
  {
    "partId": 90428,
    "stateCode": "S20",
    "stateName": "Rajasthan",
    "districtCode": "S2039",
    "districtName": "PHALODI",
    "acNumber": 123,
    "acName": "Lohawat",
    "partNumber": 110,
    "partName": "Rajala Nada",
    "lat": 26.9829712,
    "lon": 72.5914155
  },
  {
    "partId": 90429,
    "stateCode": "S20",
    "stateName": "Rajasthan",
    "districtCode": "S2039",
    "districtName": "PHALODI",
    "acNumber": 123,
    "acName": "Lohawat",
    "partNumber": 111,
    "partName": "Rajala Nada",
    "lat": 26.9829712,
    "lon": 72.5914155
  },
  {
    "partId": 90443,
    "stateCode": "S20",
    "stateName": "Rajasthan",
    "districtCode": "S2039",
    "districtName": "PHALODI",
    "acNumber": 123,
    "acName": "Lohawat",
    "partNumber": 112,
    "partName": "SHAHEED GOPAL NAGAR",
    "lat": 26.9829712,
    "lon": 72.5914155
  },
  {
    "partId": 90430,
    "stateCode": "S20",
    "stateName": "Rajasthan",
    "districtCode": "S2039",
    "districtName": "PHALODI",
    "acNumber": 123,
    "acName": "Lohawat",
    "partNumber": 113,
    "partName": "Sadari",
    "lat": 26.9829712,
    "lon": 72.5914155
  },
  {
    "partId": 90444,
    "stateCode": "S20",
    "stateName": "Rajasthan",
    "districtCode": "S2039",
    "districtName": "PHALODI",
    "acNumber": 123,
    "acName": "Lohawat",
    "partNumber": 114,
    "partName": "UDAYNAGAR SADARI",
    "lat": 26.9829712,
    "lon": 72.5914155
  },
  {
    "partId": 90431,
    "stateCode": "S20",
    "stateName": "Rajasthan",
    "districtCode": "S2039",
    "districtName": "PHALODI",
    "acNumber": 123,
    "acName": "Lohawat",
    "partNumber": 115,
    "partName": "Dhelana",
    "lat": 26.9410666,
    "lon": 72.5904035
  },
  {
    "partId": 90432,
    "stateCode": "S20",
    "stateName": "Rajasthan",
    "districtCode": "S2039",
    "districtName": "PHALODI",
    "acNumber": 123,
    "acName": "Lohawat",
    "partNumber": 116,
    "partName": "Dhelana",
    "lat": 26.9410666,
    "lon": 72.5904035
  },
  {
    "partId": 90433,
    "stateCode": "S20",
    "stateName": "Rajasthan",
    "districtCode": "S2039",
    "districtName": "PHALODI",
    "acNumber": 123,
    "acName": "Lohawat",
    "partNumber": 117,
    "partName": "Dhelana",
    "lat": 26.9410666,
    "lon": 72.5904035
  },
  {
    "partId": 90434,
    "stateCode": "S20",
    "stateName": "Rajasthan",
    "districtCode": "S2039",
    "districtName": "PHALODI",
    "acNumber": 123,
    "acName": "Lohawat",
    "partNumber": 118,
    "partName": "Lohavat Jatabas",
    "lat": 26.9829712,
    "lon": 72.5914155
  },
  {
    "partId": 90435,
    "stateCode": "S20",
    "stateName": "Rajasthan",
    "districtCode": "S2039",
    "districtName": "PHALODI",
    "acNumber": 123,
    "acName": "Lohawat",
    "partNumber": 119,
    "partName": "Lohavat Jatabas",
    "lat": 26.9829712,
    "lon": 72.5914155
  },
  {
    "partId": 90436,
    "stateCode": "S20",
    "stateName": "Rajasthan",
    "districtCode": "S2039",
    "districtName": "PHALODI",
    "acNumber": 123,
    "acName": "Lohawat",
    "partNumber": 120,
    "partName": "Lohavat Jatavas",
    "lat": 26.9829712,
    "lon": 72.5914155
  },
  {
    "partId": 90437,
    "stateCode": "S20",
    "stateName": "Rajasthan",
    "districtCode": "S2039",
    "districtName": "PHALODI",
    "acNumber": 123,
    "acName": "Lohawat",
    "partNumber": 121,
    "partName": "Magra",
    "lat": 26.9829712,
    "lon": 72.5914155
  },
  {
    "partId": 90438,
    "stateCode": "S20",
    "stateName": "Rajasthan",
    "districtCode": "S2039",
    "districtName": "PHALODI",
    "acNumber": 123,
    "acName": "Lohawat",
    "partNumber": 122,
    "partName": "Rupana Jaitana",
    "lat": 26.9829712,
    "lon": 72.5914155
  },
  {
    "partId": 90439,
    "stateCode": "S20",
    "stateName": "Rajasthan",
    "districtCode": "S2039",
    "districtName": "PHALODI",
    "acNumber": 123,
    "acName": "Lohawat",
    "partNumber": 123,
    "partName": "Tejanagar",
    "lat": 27.07993345,
    "lon": 72.5804849079002
  },
  {
    "partId": 90166,
    "stateCode": "S20",
    "stateName": "Rajasthan",
    "districtCode": "S2039",
    "districtName": "PHALODI",
    "acNumber": 123,
    "acName": "Lohawat",
    "partNumber": 124,
    "partName": "Rupana Jaitana",
    "lat": 27.07993345,
    "lon": 72.5804849079002
  },
  {
    "partId": 90167,
    "stateCode": "S20",
    "stateName": "Rajasthan",
    "districtCode": "S2039",
    "districtName": "PHALODI",
    "acNumber": 123,
    "acName": "Lohawat",
    "partNumber": 125,
    "partName": "Rupana Jaitana",
    "lat": 27.07993345,
    "lon": 72.5804849079002
  },
  {
    "partId": 90168,
    "stateCode": "S20",
    "stateName": "Rajasthan",
    "districtCode": "S2039",
    "districtName": "PHALODI",
    "acNumber": 123,
    "acName": "Lohawat",
    "partNumber": 126,
    "partName": "Chhila",
    "lat": 26.9829712,
    "lon": 72.5914155
  },
  {
    "partId": 90169,
    "stateCode": "S20",
    "stateName": "Rajasthan",
    "districtCode": "S2039",
    "districtName": "PHALODI",
    "acNumber": 123,
    "acName": "Lohawat",
    "partNumber": 127,
    "partName": "Chhila",
    "lat": 26.9829712,
    "lon": 72.5914155
  },
  {
    "partId": 90170,
    "stateCode": "S20",
    "stateName": "Rajasthan",
    "districtCode": "S2039",
    "districtName": "PHALODI",
    "acNumber": 123,
    "acName": "Lohawat",
    "partNumber": 128,
    "partName": "Kalimali",
    "lat": 26.9829712,
    "lon": 72.5914155
  },
  {
    "partId": 90171,
    "stateCode": "S20",
    "stateName": "Rajasthan",
    "districtCode": "S2039",
    "districtName": "PHALODI",
    "acNumber": 123,
    "acName": "Lohawat",
    "partNumber": 129,
    "partName": "Amala",
    "lat": 27.1247646,
    "lon": 72.4838018
  },
  {
    "partId": 90172,
    "stateCode": "S20",
    "stateName": "Rajasthan",
    "districtCode": "S2039",
    "districtName": "PHALODI",
    "acNumber": 123,
    "acName": "Lohawat",
    "partNumber": 130,
    "partName": "Ramadevanagar",
    "lat": 26.9829712,
    "lon": 72.5914155
  },
  {
    "partId": 90173,
    "stateCode": "S20",
    "stateName": "Rajasthan",
    "districtCode": "S2039",
    "districtName": "PHALODI",
    "acNumber": 123,
    "acName": "Lohawat",
    "partNumber": 131,
    "partName": "Ramadevanagar",
    "lat": 26.9829712,
    "lon": 72.5914155
  },
  {
    "partId": 90174,
    "stateCode": "S20",
    "stateName": "Rajasthan",
    "districtCode": "S2039",
    "districtName": "PHALODI",
    "acNumber": 123,
    "acName": "Lohawat",
    "partNumber": 132,
    "partName": "Shaitanasingh Nagar",
    "lat": 26.9829712,
    "lon": 72.5914155
  },
  {
    "partId": 90175,
    "stateCode": "S20",
    "stateName": "Rajasthan",
    "districtCode": "S2039",
    "districtName": "PHALODI",
    "acNumber": 123,
    "acName": "Lohawat",
    "partNumber": 133,
    "partName": "Shaitanasingh Nagar",
    "lat": 26.9829712,
    "lon": 72.5914155
  },
  {
    "partId": 90176,
    "stateCode": "S20",
    "stateName": "Rajasthan",
    "districtCode": "S2039",
    "districtName": "PHALODI",
    "acNumber": 123,
    "acName": "Lohawat",
    "partNumber": 134,
    "partName": "Shaitanasingh Nagar",
    "lat": 26.9829712,
    "lon": 72.5914155
  },
  {
    "partId": 90177,
    "stateCode": "S20",
    "stateName": "Rajasthan",
    "districtCode": "S2039",
    "districtName": "PHALODI",
    "acNumber": 123,
    "acName": "Lohawat",
    "partNumber": 135,
    "partName": "Maharishi Goutamanagar",
    "lat": 26.9829712,
    "lon": 72.5914155
  },
  {
    "partId": 90178,
    "stateCode": "S20",
    "stateName": "Rajasthan",
    "districtCode": "S2039",
    "districtName": "PHALODI",
    "acNumber": 123,
    "acName": "Lohawat",
    "partNumber": 136,
    "partName": "Laxman pura",
    "lat": 26.9829712,
    "lon": 72.5914155
  },
  {
    "partId": 90179,
    "stateCode": "S20",
    "stateName": "Rajasthan",
    "districtCode": "S2039",
    "districtName": "PHALODI",
    "acNumber": 123,
    "acName": "Lohawat",
    "partNumber": 137,
    "partName": "Dholasar",
    "lat": 27.1855016,
    "lon": 72.5134471
  },
  {
    "partId": 90180,
    "stateCode": "S20",
    "stateName": "Rajasthan",
    "districtCode": "S2039",
    "districtName": "PHALODI",
    "acNumber": 123,
    "acName": "Lohawat",
    "partNumber": 138,
    "partName": "Palina",
    "lat": 27.168859,
    "lon": 72.5919162
  },
  {
    "partId": 90181,
    "stateCode": "S20",
    "stateName": "Rajasthan",
    "districtCode": "S2039",
    "districtName": "PHALODI",
    "acNumber": 123,
    "acName": "Lohawat",
    "partNumber": 139,
    "partName": "Palina",
    "lat": 27.168859,
    "lon": 72.5919162
  },
  {
    "partId": 90182,
    "stateCode": "S20",
    "stateName": "Rajasthan",
    "districtCode": "S2039",
    "districtName": "PHALODI",
    "acNumber": 123,
    "acName": "Lohawat",
    "partNumber": 140,
    "partName": "Palina",
    "lat": 27.168859,
    "lon": 72.5919162
  },
  {
    "partId": 90183,
    "stateCode": "S20",
    "stateName": "Rajasthan",
    "districtCode": "S2039",
    "districtName": "PHALODI",
    "acNumber": 123,
    "acName": "Lohawat",
    "partNumber": 141,
    "partName": "Devado ki Dhani (Palina)",
    "lat": 26.9829712,
    "lon": 72.5914155
  },
  {
    "partId": 90184,
    "stateCode": "S20",
    "stateName": "Rajasthan",
    "districtCode": "S2039",
    "districtName": "PHALODI",
    "acNumber": 123,
    "acName": "Lohawat",
    "partNumber": 142,
    "partName": "Chheno Ki Dhani",
    "lat": 26.9829712,
    "lon": 72.5914155
  },
  {
    "partId": 90185,
    "stateCode": "S20",
    "stateName": "Rajasthan",
    "districtCode": "S2039",
    "districtName": "PHALODI",
    "acNumber": 123,
    "acName": "Lohawat",
    "partNumber": 143,
    "partName": "Chain Pura",
    "lat": 26.9829712,
    "lon": 72.5914155
  },
  {
    "partId": 90186,
    "stateCode": "S20",
    "stateName": "Rajasthan",
    "districtCode": "S2039",
    "districtName": "PHALODI",
    "acNumber": 123,
    "acName": "Lohawat",
    "partNumber": 144,
    "partName": "Chain Pura",
    "lat": 26.9829712,
    "lon": 72.5914155
  },
  {
    "partId": 90187,
    "stateCode": "S20",
    "stateName": "Rajasthan",
    "districtCode": "S2039",
    "districtName": "PHALODI",
    "acNumber": 123,
    "acName": "Lohawat",
    "partNumber": 145,
    "partName": "Swami Ji Ki Dhani",
    "lat": 26.9829712,
    "lon": 72.5914155
  },
  {
    "partId": 90188,
    "stateCode": "S20",
    "stateName": "Rajasthan",
    "districtCode": "S2039",
    "districtName": "PHALODI",
    "acNumber": 123,
    "acName": "Lohawat",
    "partNumber": 146,
    "partName": "Moriya",
    "lat": 27.1355898,
    "lon": 72.6314837
  },
  {
    "partId": 90189,
    "stateCode": "S20",
    "stateName": "Rajasthan",
    "districtCode": "S2039",
    "districtName": "PHALODI",
    "acNumber": 123,
    "acName": "Lohawat",
    "partNumber": 147,
    "partName": "Moriya",
    "lat": 27.1355898,
    "lon": 72.6314837
  },
  {
    "partId": 90190,
    "stateCode": "S20",
    "stateName": "Rajasthan",
    "districtCode": "S2039",
    "districtName": "PHALODI",
    "acNumber": 123,
    "acName": "Lohawat",
    "partNumber": 148,
    "partName": "Moriya",
    "lat": 27.1355898,
    "lon": 72.6314837
  },
  {
    "partId": 90191,
    "stateCode": "S20",
    "stateName": "Rajasthan",
    "districtCode": "S2039",
    "districtName": "PHALODI",
    "acNumber": 123,
    "acName": "Lohawat",
    "partNumber": 149,
    "partName": "Munjasar",
    "lat": 26.9829712,
    "lon": 72.5914155
  },
  {
    "partId": 90192,
    "stateCode": "S20",
    "stateName": "Rajasthan",
    "districtCode": "S2039",
    "districtName": "PHALODI",
    "acNumber": 123,
    "acName": "Lohawat",
    "partNumber": 150,
    "partName": "Naya Bera",
    "lat": 26.9829712,
    "lon": 72.5914155
  },
  {
    "partId": 90193,
    "stateCode": "S20",
    "stateName": "Rajasthan",
    "districtCode": "S2039",
    "districtName": "PHALODI",
    "acNumber": 123,
    "acName": "Lohawat",
    "partNumber": 151,
    "partName": "Naya Bera",
    "lat": 26.9829712,
    "lon": 72.5914155
  },
  {
    "partId": 90194,
    "stateCode": "S20",
    "stateName": "Rajasthan",
    "districtCode": "S2039",
    "districtName": "PHALODI",
    "acNumber": 123,
    "acName": "Lohawat",
    "partNumber": 152,
    "partName": "Sarnada",
    "lat": 26.9829712,
    "lon": 72.5914155
  },
  {
    "partId": 90195,
    "stateCode": "S20",
    "stateName": "Rajasthan",
    "districtCode": "S2039",
    "districtName": "PHALODI",
    "acNumber": 123,
    "acName": "Lohawat",
    "partNumber": 153,
    "partName": "Vishnunagar",
    "lat": 26.9829712,
    "lon": 72.5914155
  },
  {
    "partId": 90445,
    "stateCode": "S20",
    "stateName": "Rajasthan",
    "districtCode": "S2039",
    "districtName": "PHALODI",
    "acNumber": 123,
    "acName": "Lohawat",
    "partNumber": 154,
    "partName": "SABALSAR",
    "lat": 26.9829712,
    "lon": 72.5914155
  },
  {
    "partId": 90196,
    "stateCode": "S20",
    "stateName": "Rajasthan",
    "districtCode": "S2039",
    "districtName": "PHALODI",
    "acNumber": 123,
    "acName": "Lohawat",
    "partNumber": 155,
    "partName": "Lohavat Vishnavas",
    "lat": 26.9829712,
    "lon": 72.5914155
  },
  {
    "partId": 90197,
    "stateCode": "S20",
    "stateName": "Rajasthan",
    "districtCode": "S2039",
    "districtName": "PHALODI",
    "acNumber": 123,
    "acName": "Lohawat",
    "partNumber": 156,
    "partName": "Lohavat Vishnavas",
    "lat": 26.9829712,
    "lon": 72.5914155
  },
  {
    "partId": 90198,
    "stateCode": "S20",
    "stateName": "Rajasthan",
    "districtCode": "S2039",
    "districtName": "PHALODI",
    "acNumber": 123,
    "acName": "Lohawat",
    "partNumber": 157,
    "partName": "Shiv Puri",
    "lat": 26.9829712,
    "lon": 72.5914155
  },
  {
    "partId": 90199,
    "stateCode": "S20",
    "stateName": "Rajasthan",
    "districtCode": "S2039",
    "districtName": "PHALODI",
    "acNumber": 123,
    "acName": "Lohawat",
    "partNumber": 158,
    "partName": "Jambheshvar Nagar",
    "lat": 26.9829712,
    "lon": 72.5914155
  },
  {
    "partId": 90200,
    "stateCode": "S20",
    "stateName": "Rajasthan",
    "districtCode": "S2039",
    "districtName": "PHALODI",
    "acNumber": 123,
    "acName": "Lohawat",
    "partNumber": 159,
    "partName": "Chandranagar",
    "lat": 26.9829712,
    "lon": 72.5914155
  },
  {
    "partId": 90201,
    "stateCode": "S20",
    "stateName": "Rajasthan",
    "districtCode": "S2039",
    "districtName": "PHALODI",
    "acNumber": 123,
    "acName": "Lohawat",
    "partNumber": 160,
    "partName": "Chandranagar",
    "lat": 26.9829712,
    "lon": 72.5914155
  },
  {
    "partId": 90202,
    "stateCode": "S20",
    "stateName": "Rajasthan",
    "districtCode": "S2039",
    "districtName": "PHALODI",
    "acNumber": 123,
    "acName": "Lohawat",
    "partNumber": 161,
    "partName": "Sigadasar",
    "lat": 26.9829712,
    "lon": 72.5914155
  },
  {
    "partId": 90203,
    "stateCode": "S20",
    "stateName": "Rajasthan",
    "districtCode": "S2039",
    "districtName": "PHALODI",
    "acNumber": 123,
    "acName": "Lohawat",
    "partNumber": 162,
    "partName": "Bhajan Nagar",
    "lat": 26.9829712,
    "lon": 72.5914155
  },
  {
    "partId": 90204,
    "stateCode": "S20",
    "stateName": "Rajasthan",
    "districtCode": "S2039",
    "districtName": "PHALODI",
    "acNumber": 123,
    "acName": "Lohawat",
    "partNumber": 163,
    "partName": "Hansadesh",
    "lat": 26.9829712,
    "lon": 72.5914155
  },
  {
    "partId": 90205,
    "stateCode": "S20",
    "stateName": "Rajasthan",
    "districtCode": "S2039",
    "districtName": "PHALODI",
    "acNumber": 123,
    "acName": "Lohawat",
    "partNumber": 164,
    "partName": "Hansadesh",
    "lat": 26.9829712,
    "lon": 72.5914155
  },
  {
    "partId": 90206,
    "stateCode": "S20",
    "stateName": "Rajasthan",
    "districtCode": "S2039",
    "districtName": "PHALODI",
    "acNumber": 123,
    "acName": "Lohawat",
    "partNumber": 165,
    "partName": "Uttaridhani, Mularaj",
    "lat": 26.9829712,
    "lon": 72.5914155
  },
  {
    "partId": 90207,
    "stateCode": "S20",
    "stateName": "Rajasthan",
    "districtCode": "S2039",
    "districtName": "PHALODI",
    "acNumber": 123,
    "acName": "Lohawat",
    "partNumber": 166,
    "partName": "Uttaridhani, Mularaj",
    "lat": 26.9829712,
    "lon": 72.5914155
  },
  {
    "partId": 90208,
    "stateCode": "S20",
    "stateName": "Rajasthan",
    "districtCode": "S2039",
    "districtName": "PHALODI",
    "acNumber": 123,
    "acName": "Lohawat",
    "partNumber": 167,
    "partName": "Indon Ka Bas",
    "lat": 27.0802964,
    "lon": 72.7293205
  },
  {
    "partId": 90209,
    "stateCode": "S20",
    "stateName": "Rajasthan",
    "districtCode": "S2039",
    "districtName": "PHALODI",
    "acNumber": 123,
    "acName": "Lohawat",
    "partNumber": 168,
    "partName": "Indon Ka Bas",
    "lat": 27.0802964,
    "lon": 72.7293205
  },
  {
    "partId": 90210,
    "stateCode": "S20",
    "stateName": "Rajasthan",
    "districtCode": "S2039",
    "districtName": "PHALODI",
    "acNumber": 123,
    "acName": "Lohawat",
    "partNumber": 169,
    "partName": "Udayanagar",
    "lat": 27.07993345,
    "lon": 72.5804849079002
  },
  {
    "partId": 90211,
    "stateCode": "S20",
    "stateName": "Rajasthan",
    "districtCode": "S2039",
    "districtName": "PHALODI",
    "acNumber": 123,
    "acName": "Lohawat",
    "partNumber": 170,
    "partName": "Udayanagar",
    "lat": 26.9829712,
    "lon": 72.5914155
  },
  {
    "partId": 90212,
    "stateCode": "S20",
    "stateName": "Rajasthan",
    "districtCode": "S2039",
    "districtName": "PHALODI",
    "acNumber": 123,
    "acName": "Lohawat",
    "partNumber": 171,
    "partName": "Denok",
    "lat": 27.1475298,
    "lon": 72.7189684
  },
  {
    "partId": 90213,
    "stateCode": "S20",
    "stateName": "Rajasthan",
    "districtCode": "S2039",
    "districtName": "PHALODI",
    "acNumber": 123,
    "acName": "Lohawat",
    "partNumber": 172,
    "partName": "Denok",
    "lat": 27.1475298,
    "lon": 72.7189684
  },
  {
    "partId": 90214,
    "stateCode": "S20",
    "stateName": "Rajasthan",
    "districtCode": "S2039",
    "districtName": "PHALODI",
    "acNumber": 123,
    "acName": "Lohawat",
    "partNumber": 173,
    "partName": "Denok",
    "lat": 27.1475298,
    "lon": 72.7189684
  },
  {
    "partId": 90215,
    "stateCode": "S20",
    "stateName": "Rajasthan",
    "districtCode": "S2039",
    "districtName": "PHALODI",
    "acNumber": 123,
    "acName": "Lohawat",
    "partNumber": 174,
    "partName": "Barasingon Ka Bas",
    "lat": 26.9829712,
    "lon": 72.5914155
  },
  {
    "partId": 90216,
    "stateCode": "S20",
    "stateName": "Rajasthan",
    "districtCode": "S2039",
    "districtName": "PHALODI",
    "acNumber": 123,
    "acName": "Lohawat",
    "partNumber": 175,
    "partName": "Barasingon Ka Bas",
    "lat": 26.9829712,
    "lon": 72.5914155
  },
  {
    "partId": 90451,
    "stateCode": "S20",
    "stateName": "Rajasthan",
    "districtCode": "S2039",
    "districtName": "PHALODI",
    "acNumber": 123,
    "acName": "Lohawat",
    "partNumber": 176,
    "partName": "JATISARA",
    "lat": 27.116072850000002,
    "lon": 72.77897350014493
  },
  {
    "partId": 90217,
    "stateCode": "S20",
    "stateName": "Rajasthan",
    "districtCode": "S2039",
    "districtName": "PHALODI",
    "acNumber": 123,
    "acName": "Lohawat",
    "partNumber": 177,
    "partName": "Jeriya",
    "lat": 27.07993345,
    "lon": 72.5804849079002
  },
  {
    "partId": 90452,
    "stateCode": "S20",
    "stateName": "Rajasthan",
    "districtCode": "S2039",
    "districtName": "PHALODI",
    "acNumber": 123,
    "acName": "Lohawat",
    "partNumber": 178,
    "partName": "CHAINSAGAR",
    "lat": 26.9829712,
    "lon": 72.5914155
  },
  {
    "partId": 90218,
    "stateCode": "S20",
    "stateName": "Rajasthan",
    "districtCode": "S2039",
    "districtName": "PHALODI",
    "acNumber": 123,
    "acName": "Lohawat",
    "partNumber": 179,
    "partName": "Palli Pratham",
    "lat": 26.9829712,
    "lon": 72.5914155
  },
  {
    "partId": 90219,
    "stateCode": "S20",
    "stateName": "Rajasthan",
    "districtCode": "S2039",
    "districtName": "PHALODI",
    "acNumber": 123,
    "acName": "Lohawat",
    "partNumber": 180,
    "partName": "Palli Pratham",
    "lat": 26.9829712,
    "lon": 72.5914155
  },
  {
    "partId": 90220,
    "stateCode": "S20",
    "stateName": "Rajasthan",
    "districtCode": "S2039",
    "districtName": "PHALODI",
    "acNumber": 123,
    "acName": "Lohawat",
    "partNumber": 181,
    "partName": "Palli",
    "lat": 26.9829712,
    "lon": 72.5914155
  },
  {
    "partId": 90221,
    "stateCode": "S20",
    "stateName": "Rajasthan",
    "districtCode": "S2039",
    "districtName": "PHALODI",
    "acNumber": 123,
    "acName": "Lohawat",
    "partNumber": 182,
    "partName": "Palli",
    "lat": 26.9549437,
    "lon": 72.7183342
  },
  {
    "partId": 90222,
    "stateCode": "S20",
    "stateName": "Rajasthan",
    "districtCode": "S2039",
    "districtName": "PHALODI",
    "acNumber": 123,
    "acName": "Lohawat",
    "partNumber": 183,
    "partName": "JERIYA",
    "lat": 27.0281652,
    "lon": 72.7242136
  },
  {
    "partId": 90440,
    "stateCode": "S20",
    "stateName": "Rajasthan",
    "districtCode": "S2039",
    "districtName": "PHALODI",
    "acNumber": 123,
    "acName": "Lohawat",
    "partNumber": 184,
    "partName": "MEGHANIYAN MAGRA PALLI",
    "lat": 26.9829712,
    "lon": 72.5914155
  },
  {
    "partId": 90223,
    "stateCode": "S20",
    "stateName": "Rajasthan",
    "districtCode": "S2039",
    "districtName": "PHALODI",
    "acNumber": 123,
    "acName": "Lohawat",
    "partNumber": 185,
    "partName": "Palli-Second",
    "lat": 26.9829712,
    "lon": 72.5914155
  },
  {
    "partId": 90224,
    "stateCode": "S20",
    "stateName": "Rajasthan",
    "districtCode": "S2039",
    "districtName": "PHALODI",
    "acNumber": 123,
    "acName": "Lohawat",
    "partNumber": 186,
    "partName": "Palli",
    "lat": 26.9549437,
    "lon": 72.7183342
  },
  {
    "partId": 90225,
    "stateCode": "S20",
    "stateName": "Rajasthan",
    "districtCode": "S2039",
    "districtName": "PHALODI",
    "acNumber": 123,
    "acName": "Lohawat",
    "partNumber": 187,
    "partName": "Palli Second",
    "lat": 26.9829712,
    "lon": 72.5914155
  },
  {
    "partId": 90226,
    "stateCode": "S20",
    "stateName": "Rajasthan",
    "districtCode": "S2039",
    "districtName": "PHALODI",
    "acNumber": 123,
    "acName": "Lohawat",
    "partNumber": 188,
    "partName": "Nimbon Ka Talab",
    "lat": 26.9829712,
    "lon": 72.5914155
  },
  {
    "partId": 90227,
    "stateCode": "S20",
    "stateName": "Rajasthan",
    "districtCode": "S2039",
    "districtName": "PHALODI",
    "acNumber": 123,
    "acName": "Lohawat",
    "partNumber": 189,
    "partName": "Nimbon Ka Talab",
    "lat": 26.9829712,
    "lon": 72.5914155
  },
  {
    "partId": 90228,
    "stateCode": "S20",
    "stateName": "Rajasthan",
    "districtCode": "S2039",
    "districtName": "PHALODI",
    "acNumber": 123,
    "acName": "Lohawat",
    "partNumber": 190,
    "partName": "Unavada",
    "lat": 27.07993345,
    "lon": 72.5804849079002
  },
  {
    "partId": 90229,
    "stateCode": "S20",
    "stateName": "Rajasthan",
    "districtCode": "S2039",
    "districtName": "PHALODI",
    "acNumber": 123,
    "acName": "Lohawat",
    "partNumber": 191,
    "partName": "Karananagar",
    "lat": 26.9829712,
    "lon": 72.5914155
  },
  {
    "partId": 90230,
    "stateCode": "S20",
    "stateName": "Rajasthan",
    "districtCode": "S2039",
    "districtName": "PHALODI",
    "acNumber": 123,
    "acName": "Lohawat",
    "partNumber": 192,
    "partName": "Mira Nimbadi Bedu Kalla",
    "lat": 26.9829712,
    "lon": 72.5914155
  },
  {
    "partId": 90231,
    "stateCode": "S20",
    "stateName": "Rajasthan",
    "districtCode": "S2039",
    "districtName": "PHALODI",
    "acNumber": 123,
    "acName": "Lohawat",
    "partNumber": 193,
    "partName": "Mira Nimbadi Bedu Kalla",
    "lat": 26.9829712,
    "lon": 72.5914155
  },
  {
    "partId": 90232,
    "stateCode": "S20",
    "stateName": "Rajasthan",
    "districtCode": "S2039",
    "districtName": "PHALODI",
    "acNumber": 123,
    "acName": "Lohawat",
    "partNumber": 194,
    "partName": "Kerala",
    "lat": 26.9829712,
    "lon": 72.5914155
  },
  {
    "partId": 90233,
    "stateCode": "S20",
    "stateName": "Rajasthan",
    "districtCode": "S2039",
    "districtName": "PHALODI",
    "acNumber": 123,
    "acName": "Lohawat",
    "partNumber": 195,
    "partName": "Suvap",
    "lat": 26.9829712,
    "lon": 72.5914155
  },
  {
    "partId": 90234,
    "stateCode": "S20",
    "stateName": "Rajasthan",
    "districtCode": "S2039",
    "districtName": "PHALODI",
    "acNumber": 123,
    "acName": "Lohawat",
    "partNumber": 196,
    "partName": "Fatehnagar",
    "lat": 26.9829712,
    "lon": 72.5914155
  },
  {
    "partId": 90235,
    "stateCode": "S20",
    "stateName": "Rajasthan",
    "districtCode": "S2039",
    "districtName": "PHALODI",
    "acNumber": 123,
    "acName": "Lohawat",
    "partNumber": 197,
    "partName": "Santoknagar",
    "lat": 27.1166383,
    "lon": 72.8978491
  },
  {
    "partId": 90236,
    "stateCode": "S20",
    "stateName": "Rajasthan",
    "districtCode": "S2039",
    "districtName": "PHALODI",
    "acNumber": 123,
    "acName": "Lohawat",
    "partNumber": 198,
    "partName": "Isharu",
    "lat": 26.9829712,
    "lon": 72.5914155
  },
  {
    "partId": 90237,
    "stateCode": "S20",
    "stateName": "Rajasthan",
    "districtCode": "S2039",
    "districtName": "PHALODI",
    "acNumber": 123,
    "acName": "Lohawat",
    "partNumber": 199,
    "partName": "Isharu",
    "lat": 26.9829712,
    "lon": 72.5914155
  },
  {
    "partId": 90238,
    "stateCode": "S20",
    "stateName": "Rajasthan",
    "districtCode": "S2039",
    "districtName": "PHALODI",
    "acNumber": 123,
    "acName": "Lohawat",
    "partNumber": 200,
    "partName": "Gorchiyon ka Bera",
    "lat": 26.9829712,
    "lon": 72.5914155
  },
  {
    "partId": 90239,
    "stateCode": "S20",
    "stateName": "Rajasthan",
    "districtCode": "S2039",
    "districtName": "PHALODI",
    "acNumber": 123,
    "acName": "Lohawat",
    "partNumber": 201,
    "partName": "Aau",
    "lat": 27.1997407,
    "lon": 72.8497253
  },
  {
    "partId": 90240,
    "stateCode": "S20",
    "stateName": "Rajasthan",
    "districtCode": "S2039",
    "districtName": "PHALODI",
    "acNumber": 123,
    "acName": "Lohawat",
    "partNumber": 202,
    "partName": "Aau",
    "lat": 27.1997407,
    "lon": 72.8497253
  },
  {
    "partId": 90241,
    "stateCode": "S20",
    "stateName": "Rajasthan",
    "districtCode": "S2039",
    "districtName": "PHALODI",
    "acNumber": 123,
    "acName": "Lohawat",
    "partNumber": 203,
    "partName": "Aau",
    "lat": 27.1997407,
    "lon": 72.8497253
  },
  {
    "partId": 90242,
    "stateCode": "S20",
    "stateName": "Rajasthan",
    "districtCode": "S2039",
    "districtName": "PHALODI",
    "acNumber": 123,
    "acName": "Lohawat",
    "partNumber": 204,
    "partName": "Dudi Nagar",
    "lat": 26.9829712,
    "lon": 72.5914155
  },
  {
    "partId": 90243,
    "stateCode": "S20",
    "stateName": "Rajasthan",
    "districtCode": "S2039",
    "districtName": "PHALODI",
    "acNumber": 123,
    "acName": "Lohawat",
    "partNumber": 205,
    "partName": "Hajisagar",
    "lat": 26.9829712,
    "lon": 72.5914155
  },
  {
    "partId": 90244,
    "stateCode": "S20",
    "stateName": "Rajasthan",
    "districtCode": "S2039",
    "districtName": "PHALODI",
    "acNumber": 123,
    "acName": "Lohawat",
    "partNumber": 206,
    "partName": "Hajisagar",
    "lat": 26.9829712,
    "lon": 72.5914155
  },
  {
    "partId": 90245,
    "stateCode": "S20",
    "stateName": "Rajasthan",
    "districtCode": "S2039",
    "districtName": "PHALODI",
    "acNumber": 123,
    "acName": "Lohawat",
    "partNumber": 207,
    "partName": "Saran Pura",
    "lat": 26.9829712,
    "lon": 72.5914155
  },
  {
    "partId": 90246,
    "stateCode": "S20",
    "stateName": "Rajasthan",
    "districtCode": "S2039",
    "districtName": "PHALODI",
    "acNumber": 123,
    "acName": "Lohawat",
    "partNumber": 208,
    "partName": "Tenanadi",
    "lat": 26.9829712,
    "lon": 72.5914155
  },
  {
    "partId": 90247,
    "stateCode": "S20",
    "stateName": "Rajasthan",
    "districtCode": "S2039",
    "districtName": "PHALODI",
    "acNumber": 123,
    "acName": "Lohawat",
    "partNumber": 209,
    "partName": "Shriramdev Nagar  Hajisagar",
    "lat": 26.9829712,
    "lon": 72.5914155
  },
  {
    "partId": 90248,
    "stateCode": "S20",
    "stateName": "Rajasthan",
    "districtCode": "S2039",
    "districtName": "PHALODI",
    "acNumber": 123,
    "acName": "Lohawat",
    "partNumber": 210,
    "partName": "Shrikrishan Nagar",
    "lat": 26.9829712,
    "lon": 72.5914155
  },
  {
    "partId": 90249,
    "stateCode": "S20",
    "stateName": "Rajasthan",
    "districtCode": "S2039",
    "districtName": "PHALODI",
    "acNumber": 123,
    "acName": "Lohawat",
    "partNumber": 211,
    "partName": "Shrikrishan Nagar",
    "lat": 26.9829712,
    "lon": 72.5914155
  },
  {
    "partId": 90250,
    "stateCode": "S20",
    "stateName": "Rajasthan",
    "districtCode": "S2039",
    "districtName": "PHALODI",
    "acNumber": 123,
    "acName": "Lohawat",
    "partNumber": 212,
    "partName": "Shrikrishan Nagar",
    "lat": 26.9829712,
    "lon": 72.5914155
  },
  {
    "partId": 90251,
    "stateCode": "S20",
    "stateName": "Rajasthan",
    "districtCode": "S2039",
    "districtName": "PHALODI",
    "acNumber": 123,
    "acName": "Lohawat",
    "partNumber": 213,
    "partName": "Shrikrishan Nagar",
    "lat": 26.9829712,
    "lon": 72.5914155
  },
  {
    "partId": 90252,
    "stateCode": "S20",
    "stateName": "Rajasthan",
    "districtCode": "S2039",
    "districtName": "PHALODI",
    "acNumber": 123,
    "acName": "Lohawat",
    "partNumber": 214,
    "partName": "Shrilakshman Nagar",
    "lat": 26.9829712,
    "lon": 72.5914155
  },
  {
    "partId": 90253,
    "stateCode": "S20",
    "stateName": "Rajasthan",
    "districtCode": "S2039",
    "districtName": "PHALODI",
    "acNumber": 123,
    "acName": "Lohawat",
    "partNumber": 215,
    "partName": "Shrilakshmannagar",
    "lat": 27.07993345,
    "lon": 72.5804849079002
  },
  {
    "partId": 90254,
    "stateCode": "S20",
    "stateName": "Rajasthan",
    "districtCode": "S2039",
    "districtName": "PHALODI",
    "acNumber": 123,
    "acName": "Lohawat",
    "partNumber": 216,
    "partName": "Shrilakshmannagar",
    "lat": 26.9829712,
    "lon": 72.5914155
  },
  {
    "partId": 90255,
    "stateCode": "S20",
    "stateName": "Rajasthan",
    "districtCode": "S2039",
    "districtName": "PHALODI",
    "acNumber": 123,
    "acName": "Lohawat",
    "partNumber": 217,
    "partName": "Siyolnagar",
    "lat": 26.9829712,
    "lon": 72.5914155
  },
  {
    "partId": 90256,
    "stateCode": "S20",
    "stateName": "Rajasthan",
    "districtCode": "S2039",
    "districtName": "PHALODI",
    "acNumber": 123,
    "acName": "Lohawat",
    "partNumber": 218,
    "partName": "Siyolnagar",
    "lat": 26.9829712,
    "lon": 72.5914155
  },
  {
    "partId": 90453,
    "stateCode": "S20",
    "stateName": "Rajasthan",
    "districtCode": "S2039",
    "districtName": "PHALODI",
    "acNumber": 123,
    "acName": "Lohawat",
    "partNumber": 219,
    "partName": "DEVI NAGAR",
    "lat": 26.9829712,
    "lon": 72.5914155
  },
  {
    "partId": 90257,
    "stateCode": "S20",
    "stateName": "Rajasthan",
    "districtCode": "S2039",
    "districtName": "PHALODI",
    "acNumber": 123,
    "acName": "Lohawat",
    "partNumber": 220,
    "partName": "Ridamalsar",
    "lat": 27.07993345,
    "lon": 72.5804849079002
  },
  {
    "partId": 90258,
    "stateCode": "S20",
    "stateName": "Rajasthan",
    "districtCode": "S2039",
    "districtName": "PHALODI",
    "acNumber": 123,
    "acName": "Lohawat",
    "partNumber": 221,
    "partName": "Ridamalsar",
    "lat": 26.9829712,
    "lon": 72.5914155
  },
  {
    "partId": 90259,
    "stateCode": "S20",
    "stateName": "Rajasthan",
    "districtCode": "S2039",
    "districtName": "PHALODI",
    "acNumber": 123,
    "acName": "Lohawat",
    "partNumber": 222,
    "partName": "Ridamalsar",
    "lat": 26.9829712,
    "lon": 72.5914155
  },
  {
    "partId": 90447,
    "stateCode": "S20",
    "stateName": "Rajasthan",
    "districtCode": "S2039",
    "districtName": "PHALODI",
    "acNumber": 123,
    "acName": "Lohawat",
    "partNumber": 223,
    "partName": "CHOUHANON KA BERA",
    "lat": 27.07993345,
    "lon": 72.5804849079002
  },
  {
    "partId": 90448,
    "stateCode": "S20",
    "stateName": "Rajasthan",
    "districtCode": "S2039",
    "districtName": "PHALODI",
    "acNumber": 123,
    "acName": "Lohawat",
    "partNumber": 224,
    "partName": "KESHAV NAGAR",
    "lat": 26.9829712,
    "lon": 72.5914155
  },
  {
    "partId": 90260,
    "stateCode": "S20",
    "stateName": "Rajasthan",
    "districtCode": "S2039",
    "districtName": "PHALODI",
    "acNumber": 123,
    "acName": "Lohawat",
    "partNumber": 225,
    "partName": "Govindnagar",
    "lat": 26.9829712,
    "lon": 72.5914155
  },
  {
    "partId": 90261,
    "stateCode": "S20",
    "stateName": "Rajasthan",
    "districtCode": "S2039",
    "districtName": "PHALODI",
    "acNumber": 123,
    "acName": "Lohawat",
    "partNumber": 226,
    "partName": "MANASAR",
    "lat": 26.9829712,
    "lon": 72.5914155
  },
  {
    "partId": 90262,
    "stateCode": "S20",
    "stateName": "Rajasthan",
    "districtCode": "S2039",
    "districtName": "PHALODI",
    "acNumber": 123,
    "acName": "Lohawat",
    "partNumber": 227,
    "partName": "Khariya",
    "lat": 27.3489557,
    "lon": 72.7927709
  },
  {
    "partId": 90263,
    "stateCode": "S20",
    "stateName": "Rajasthan",
    "districtCode": "S2039",
    "districtName": "PHALODI",
    "acNumber": 123,
    "acName": "Lohawat",
    "partNumber": 228,
    "partName": "Shriram Nagar",
    "lat": 26.9829712,
    "lon": 72.5914155
  },
  {
    "partId": 90264,
    "stateCode": "S20",
    "stateName": "Rajasthan",
    "districtCode": "S2039",
    "districtName": "PHALODI",
    "acNumber": 123,
    "acName": "Lohawat",
    "partNumber": 229,
    "partName": "Chadi",
    "lat": 27.1420752,
    "lon": 73.0553231
  },
  {
    "partId": 90265,
    "stateCode": "S20",
    "stateName": "Rajasthan",
    "districtCode": "S2039",
    "districtName": "PHALODI",
    "acNumber": 123,
    "acName": "Lohawat",
    "partNumber": 230,
    "partName": "Chadi",
    "lat": 27.1420752,
    "lon": 73.0553231
  },
  {
    "partId": 90266,
    "stateCode": "S20",
    "stateName": "Rajasthan",
    "districtCode": "S2039",
    "districtName": "PHALODI",
    "acNumber": 123,
    "acName": "Lohawat",
    "partNumber": 231,
    "partName": "Chadi",
    "lat": 27.07993345,
    "lon": 72.5804849079002
  },
  {
    "partId": 90267,
    "stateCode": "S20",
    "stateName": "Rajasthan",
    "districtCode": "S2039",
    "districtName": "PHALODI",
    "acNumber": 123,
    "acName": "Lohawat",
    "partNumber": 232,
    "partName": "Punasar Khurd",
    "lat": 26.9829712,
    "lon": 72.5914155
  },
  {
    "partId": 90268,
    "stateCode": "S20",
    "stateName": "Rajasthan",
    "districtCode": "S2039",
    "districtName": "PHALODI",
    "acNumber": 123,
    "acName": "Lohawat",
    "partNumber": 233,
    "partName": "Punasar Khurd",
    "lat": 26.9829712,
    "lon": 72.5914155
  },
  {
    "partId": 90455,
    "stateCode": "S20",
    "stateName": "Rajasthan",
    "districtCode": "S2039",
    "districtName": "PHALODI",
    "acNumber": 123,
    "acName": "Lohawat",
    "partNumber": 234,
    "partName": "VISHWAKARMA NAGAR",
    "lat": 26.9829712,
    "lon": 72.5914155
  },
  {
    "partId": 90269,
    "stateCode": "S20",
    "stateName": "Rajasthan",
    "districtCode": "S2039",
    "districtName": "PHALODI",
    "acNumber": 123,
    "acName": "Lohawat",
    "partNumber": 235,
    "partName": "Punasar",
    "lat": 26.9829712,
    "lon": 72.5914155
  },
  {
    "partId": 90270,
    "stateCode": "S20",
    "stateName": "Rajasthan",
    "districtCode": "S2039",
    "districtName": "PHALODI",
    "acNumber": 123,
    "acName": "Lohawat",
    "partNumber": 236,
    "partName": "Punasar",
    "lat": 27.07993345,
    "lon": 72.5804849079002
  },
  {
    "partId": 90271,
    "stateCode": "S20",
    "stateName": "Rajasthan",
    "districtCode": "S2039",
    "districtName": "PHALODI",
    "acNumber": 123,
    "acName": "Lohawat",
    "partNumber": 237,
    "partName": "Punasar",
    "lat": 26.9829712,
    "lon": 72.5914155
  },
  {
    "partId": 90449,
    "stateCode": "S20",
    "stateName": "Rajasthan",
    "districtCode": "S2039",
    "districtName": "PHALODI",
    "acNumber": 123,
    "acName": "Lohawat",
    "partNumber": 238,
    "partName": "PEETHASAR",
    "lat": 26.9829712,
    "lon": 72.5914155
  },
  {
    "partId": 90450,
    "stateCode": "S20",
    "stateName": "Rajasthan",
    "districtCode": "S2039",
    "districtName": "PHALODI",
    "acNumber": 123,
    "acName": "Lohawat",
    "partNumber": 239,
    "partName": "MUKNASAR",
    "lat": 26.9829712,
    "lon": 72.5914155
  },
  {
    "partId": 90272,
    "stateCode": "S20",
    "stateName": "Rajasthan",
    "districtCode": "S2039",
    "districtName": "PHALODI",
    "acNumber": 123,
    "acName": "Lohawat",
    "partNumber": 240,
    "partName": "JAKHAN",
    "lat": 27.0143544,
    "lon": 73.0960536
  },
  {
    "partId": 90273,
    "stateCode": "S20",
    "stateName": "Rajasthan",
    "districtCode": "S2039",
    "districtName": "PHALODI",
    "acNumber": 123,
    "acName": "Lohawat",
    "partNumber": 241,
    "partName": "Bolnada Jakhan",
    "lat": 26.9829712,
    "lon": 72.5914155
  },
  {
    "partId": 90274,
    "stateCode": "S20",
    "stateName": "Rajasthan",
    "districtCode": "S2039",
    "districtName": "PHALODI",
    "acNumber": 123,
    "acName": "Lohawat",
    "partNumber": 242,
    "partName": "Jakhan",
    "lat": 27.0143544,
    "lon": 73.0960536
  },
  {
    "partId": 90275,
    "stateCode": "S20",
    "stateName": "Rajasthan",
    "districtCode": "S2039",
    "districtName": "PHALODI",
    "acNumber": 123,
    "acName": "Lohawat",
    "partNumber": 243,
    "partName": "Jakhan",
    "lat": 27.0143544,
    "lon": 73.0960536
  },
  {
    "partId": 90276,
    "stateCode": "S20",
    "stateName": "Rajasthan",
    "districtCode": "S2039",
    "districtName": "PHALODI",
    "acNumber": 123,
    "acName": "Lohawat",
    "partNumber": 244,
    "partName": "Ompura",
    "lat": 26.9829712,
    "lon": 72.5914155
  },
  {
    "partId": 90277,
    "stateCode": "S20",
    "stateName": "Rajasthan",
    "districtCode": "S2039",
    "districtName": "PHALODI",
    "acNumber": 123,
    "acName": "Lohawat",
    "partNumber": 245,
    "partName": "Ompura",
    "lat": 26.9829712,
    "lon": 72.5914155
  },
  {
    "partId": 90278,
    "stateCode": "S20",
    "stateName": "Rajasthan",
    "districtCode": "S2039",
    "districtName": "PHALODI",
    "acNumber": 123,
    "acName": "Lohawat",
    "partNumber": 246,
    "partName": "Ompura",
    "lat": 26.9829712,
    "lon": 72.5914155
  },
  {
    "partId": 90279,
    "stateCode": "S20",
    "stateName": "Rajasthan",
    "districtCode": "S2039",
    "districtName": "PHALODI",
    "acNumber": 123,
    "acName": "Lohawat",
    "partNumber": 247,
    "partName": "Kapuriya",
    "lat": 26.9829712,
    "lon": 72.5914155
  },
  {
    "partId": 90280,
    "stateCode": "S20",
    "stateName": "Rajasthan",
    "districtCode": "S2039",
    "districtName": "PHALODI",
    "acNumber": 123,
    "acName": "Lohawat",
    "partNumber": 248,
    "partName": "Kapuriya",
    "lat": 26.9829712,
    "lon": 72.5914155
  },
  {
    "partId": 90281,
    "stateCode": "S20",
    "stateName": "Rajasthan",
    "districtCode": "S2039",
    "districtName": "PHALODI",
    "acNumber": 123,
    "acName": "Lohawat",
    "partNumber": 249,
    "partName": "Rayamalvada",
    "lat": 26.9829712,
    "lon": 72.5914155
  },
  {
    "partId": 90282,
    "stateCode": "S20",
    "stateName": "Rajasthan",
    "districtCode": "S2039",
    "districtName": "PHALODI",
    "acNumber": 123,
    "acName": "Lohawat",
    "partNumber": 250,
    "partName": "Raymalvada",
    "lat": 26.9829712,
    "lon": 72.5914155
  },
  {
    "partId": 90283,
    "stateCode": "S20",
    "stateName": "Rajasthan",
    "districtCode": "S2039",
    "districtName": "PHALODI",
    "acNumber": 123,
    "acName": "Lohawat",
    "partNumber": 251,
    "partName": "Raymalvada",
    "lat": 26.9829712,
    "lon": 72.5914155
  },
  {
    "partId": 90284,
    "stateCode": "S20",
    "stateName": "Rajasthan",
    "districtCode": "S2039",
    "districtName": "PHALODI",
    "acNumber": 123,
    "acName": "Lohawat",
    "partNumber": 252,
    "partName": "Raymalvada",
    "lat": 26.9829712,
    "lon": 72.5914155
  },
  {
    "partId": 90285,
    "stateCode": "S20",
    "stateName": "Rajasthan",
    "districtCode": "S2039",
    "districtName": "PHALODI",
    "acNumber": 123,
    "acName": "Lohawat",
    "partNumber": 253,
    "partName": "Bapini",
    "lat": 26.9954896,
    "lon": 72.9863191
  },
  {
    "partId": 90286,
    "stateCode": "S20",
    "stateName": "Rajasthan",
    "districtCode": "S2039",
    "districtName": "PHALODI",
    "acNumber": 123,
    "acName": "Lohawat",
    "partNumber": 254,
    "partName": "Bapini",
    "lat": 26.9954896,
    "lon": 72.9863191
  },
  {
    "partId": 90287,
    "stateCode": "S20",
    "stateName": "Rajasthan",
    "districtCode": "S2039",
    "districtName": "PHALODI",
    "acNumber": 123,
    "acName": "Lohawat",
    "partNumber": 255,
    "partName": "Bapini",
    "lat": 26.9954896,
    "lon": 72.9863191
  },
  {
    "partId": 90288,
    "stateCode": "S20",
    "stateName": "Rajasthan",
    "districtCode": "S2039",
    "districtName": "PHALODI",
    "acNumber": 123,
    "acName": "Lohawat",
    "partNumber": 256,
    "partName": "Bapini Khurd",
    "lat": 26.9829712,
    "lon": 72.5914155
  },
  {
    "partId": 90289,
    "stateCode": "S20",
    "stateName": "Rajasthan",
    "districtCode": "S2039",
    "districtName": "PHALODI",
    "acNumber": 123,
    "acName": "Lohawat",
    "partNumber": 257,
    "partName": "Bedu",
    "lat": 27.07993345,
    "lon": 72.5804849079002
  },
  {
    "partId": 90290,
    "stateCode": "S20",
    "stateName": "Rajasthan",
    "districtCode": "S2039",
    "districtName": "PHALODI",
    "acNumber": 123,
    "acName": "Lohawat",
    "partNumber": 258,
    "partName": "Bedu",
    "lat": 26.9829712,
    "lon": 72.5914155
  },
  {
    "partId": 90291,
    "stateCode": "S20",
    "stateName": "Rajasthan",
    "districtCode": "S2039",
    "districtName": "PHALODI",
    "acNumber": 123,
    "acName": "Lohawat",
    "partNumber": 259,
    "partName": "Bagji ki dhani kadava",
    "lat": 26.9829712,
    "lon": 72.5914155
  },
  {
    "partId": 90292,
    "stateCode": "S20",
    "stateName": "Rajasthan",
    "districtCode": "S2039",
    "districtName": "PHALODI",
    "acNumber": 123,
    "acName": "Lohawat",
    "partNumber": 260,
    "partName": "kadava",
    "lat": 27.013972,
    "lon": 72.9256046
  },
  {
    "partId": 90293,
    "stateCode": "S20",
    "stateName": "Rajasthan",
    "districtCode": "S2039",
    "districtName": "PHALODI",
    "acNumber": 123,
    "acName": "Lohawat",
    "partNumber": 261,
    "partName": "Bhada",
    "lat": 27.0231763,
    "lon": 72.8888261
  },
  {
    "partId": 90294,
    "stateCode": "S20",
    "stateName": "Rajasthan",
    "districtCode": "S2039",
    "districtName": "PHALODI",
    "acNumber": 123,
    "acName": "Lohawat",
    "partNumber": 262,
    "partName": "Lakheta",
    "lat": 26.9829712,
    "lon": 72.5914155
  },
  {
    "partId": 90295,
    "stateCode": "S20",
    "stateName": "Rajasthan",
    "districtCode": "S2039",
    "districtName": "PHALODI",
    "acNumber": 123,
    "acName": "Lohawat",
    "partNumber": 263,
    "partName": "Kankrala Nada",
    "lat": 26.9829712,
    "lon": 72.5914155
  },
  {
    "partId": 90296,
    "stateCode": "S20",
    "stateName": "Rajasthan",
    "districtCode": "S2039",
    "districtName": "PHALODI",
    "acNumber": 123,
    "acName": "Lohawat",
    "partNumber": 264,
    "partName": "Matoda",
    "lat": 26.9618961,
    "lon": 72.8753185
  },
  {
    "partId": 90297,
    "stateCode": "S20",
    "stateName": "Rajasthan",
    "districtCode": "S2039",
    "districtName": "PHALODI",
    "acNumber": 123,
    "acName": "Lohawat",
    "partNumber": 265,
    "partName": "Matoda",
    "lat": 26.9618961,
    "lon": 72.8753185
  },
  {
    "partId": 90298,
    "stateCode": "S20",
    "stateName": "Rajasthan",
    "districtCode": "S2039",
    "districtName": "PHALODI",
    "acNumber": 123,
    "acName": "Lohawat",
    "partNumber": 266,
    "partName": "Sanvata",
    "lat": 26.9829712,
    "lon": 72.5914155
  },
  {
    "partId": 90299,
    "stateCode": "S20",
    "stateName": "Rajasthan",
    "districtCode": "S2039",
    "districtName": "PHALODI",
    "acNumber": 123,
    "acName": "Lohawat",
    "partNumber": 267,
    "partName": "Jato Ki Dhani Hanuman Sagar",
    "lat": 26.9829712,
    "lon": 72.5914155
  },
  {
    "partId": 90300,
    "stateCode": "S20",
    "stateName": "Rajasthan",
    "districtCode": "S2039",
    "districtName": "PHALODI",
    "acNumber": 123,
    "acName": "Lohawat",
    "partNumber": 268,
    "partName": "Bhakharalee Nadi",
    "lat": 26.9829712,
    "lon": 72.5914155
  },
  {
    "partId": 90301,
    "stateCode": "S20",
    "stateName": "Rajasthan",
    "districtCode": "S2039",
    "districtName": "PHALODI",
    "acNumber": 123,
    "acName": "Lohawat",
    "partNumber": 269,
    "partName": "Nousar",
    "lat": 26.9829712,
    "lon": 72.5914155
  },
  {
    "partId": 90302,
    "stateCode": "S20",
    "stateName": "Rajasthan",
    "districtCode": "S2039",
    "districtName": "PHALODI",
    "acNumber": 123,
    "acName": "Lohawat",
    "partNumber": 270,
    "partName": "Nousar",
    "lat": 26.9829712,
    "lon": 72.5914155
  },
  {
    "partId": 90303,
    "stateCode": "S20",
    "stateName": "Rajasthan",
    "districtCode": "S2039",
    "districtName": "PHALODI",
    "acNumber": 123,
    "acName": "Lohawat",
    "partNumber": 271,
    "partName": "Nousar",
    "lat": 26.9829712,
    "lon": 72.5914155
  },
  {
    "partId": 90304,
    "stateCode": "S20",
    "stateName": "Rajasthan",
    "districtCode": "S2039",
    "districtName": "PHALODI",
    "acNumber": 123,
    "acName": "Lohawat",
    "partNumber": 272,
    "partName": "Radiya Bera",
    "lat": 26.9829712,
    "lon": 72.5914155
  },
  {
    "partId": 90305,
    "stateCode": "S20",
    "stateName": "Rajasthan",
    "districtCode": "S2039",
    "districtName": "PHALODI",
    "acNumber": 123,
    "acName": "Lohawat",
    "partNumber": 273,
    "partName": "Bedon Ka Bera",
    "lat": 26.9829712,
    "lon": 72.5914155
  },
  {
    "partId": 90306,
    "stateCode": "S20",
    "stateName": "Rajasthan",
    "districtCode": "S2039",
    "districtName": "PHALODI",
    "acNumber": 123,
    "acName": "Lohawat",
    "partNumber": 274,
    "partName": "Bedon Ka Bera",
    "lat": 26.9829712,
    "lon": 72.5914155
  },
  {
    "partId": 90307,
    "stateCode": "S20",
    "stateName": "Rajasthan",
    "districtCode": "S2039",
    "districtName": "PHALODI",
    "acNumber": 123,
    "acName": "Lohawat",
    "partNumber": 275,
    "partName": "Padasala",
    "lat": 26.883957,
    "lon": 72.8902852
  },
  {
    "partId": 90308,
    "stateCode": "S20",
    "stateName": "Rajasthan",
    "districtCode": "S2039",
    "districtName": "PHALODI",
    "acNumber": 123,
    "acName": "Lohawat",
    "partNumber": 276,
    "partName": "Padasala",
    "lat": 26.883957,
    "lon": 72.8902852
  },
  {
    "partId": 90309,
    "stateCode": "S20",
    "stateName": "Rajasthan",
    "districtCode": "S2039",
    "districtName": "PHALODI",
    "acNumber": 123,
    "acName": "Lohawat",
    "partNumber": 277,
    "partName": "Padasala",
    "lat": 26.883957,
    "lon": 72.8902852
  },
  {
    "partId": 90310,
    "stateCode": "S20",
    "stateName": "Rajasthan",
    "districtCode": "S2039",
    "districtName": "PHALODI",
    "acNumber": 123,
    "acName": "Lohawat",
    "partNumber": 278,
    "partName": "Siyolo Ki Dhani",
    "lat": 26.9829712,
    "lon": 72.5914155
  },
  {
    "partId": 90311,
    "stateCode": "S20",
    "stateName": "Rajasthan",
    "districtCode": "S2039",
    "districtName": "PHALODI",
    "acNumber": 123,
    "acName": "Lohawat",
    "partNumber": 279,
    "partName": "Bhinyadiya",
    "lat": 26.9829712,
    "lon": 72.5914155
  },
  {
    "partId": 90312,
    "stateCode": "S20",
    "stateName": "Rajasthan",
    "districtCode": "S2039",
    "districtName": "PHALODI",
    "acNumber": 123,
    "acName": "Lohawat",
    "partNumber": 280,
    "partName": "Bhikamkor",
    "lat": 26.8057603,
    "lon": 72.7884392
  },
  {
    "partId": 90313,
    "stateCode": "S20",
    "stateName": "Rajasthan",
    "districtCode": "S2039",
    "districtName": "PHALODI",
    "acNumber": 123,
    "acName": "Lohawat",
    "partNumber": 281,
    "partName": "Bhikamkor",
    "lat": 26.8057603,
    "lon": 72.7884392
  },
  {
    "partId": 90314,
    "stateCode": "S20",
    "stateName": "Rajasthan",
    "districtCode": "S2039",
    "districtName": "PHALODI",
    "acNumber": 123,
    "acName": "Lohawat",
    "partNumber": 282,
    "partName": "KERLANADA",
    "lat": 26.9829712,
    "lon": 72.5914155
  },
  {
    "partId": 90315,
    "stateCode": "S20",
    "stateName": "Rajasthan",
    "districtCode": "S2039",
    "districtName": "PHALODI",
    "acNumber": 123,
    "acName": "Lohawat",
    "partNumber": 283,
    "partName": "Mahadev Nagar",
    "lat": 26.8309833,
    "lon": 72.8270173
  },
  {
    "partId": 90316,
    "stateCode": "S20",
    "stateName": "Rajasthan",
    "districtCode": "S2039",
    "districtName": "PHALODI",
    "acNumber": 123,
    "acName": "Lohawat",
    "partNumber": 284,
    "partName": "Bhikamkor",
    "lat": 27.07993345,
    "lon": 72.5804849079002
  },
  {
    "partId": 90317,
    "stateCode": "S20",
    "stateName": "Rajasthan",
    "districtCode": "S2039",
    "districtName": "PHALODI",
    "acNumber": 123,
    "acName": "Lohawat",
    "partNumber": 285,
    "partName": "Macharo v Kanvo ki dhani",
    "lat": 26.9829712,
    "lon": 72.5914155
  },
  {
    "partId": 90318,
    "stateCode": "S20",
    "stateName": "Rajasthan",
    "districtCode": "S2039",
    "districtName": "PHALODI",
    "acNumber": 123,
    "acName": "Lohawat",
    "partNumber": 286,
    "partName": "HariOm Nagar",
    "lat": 26.9829712,
    "lon": 72.5914155
  },
  {
    "partId": 90319,
    "stateCode": "S20",
    "stateName": "Rajasthan",
    "districtCode": "S2039",
    "districtName": "PHALODI",
    "acNumber": 123,
    "acName": "Lohawat",
    "partNumber": 287,
    "partName": "Indon Ki Dhani",
    "lat": 26.8339894,
    "lon": 72.7742099
  },
  {
    "partId": 90320,
    "stateCode": "S20",
    "stateName": "Rajasthan",
    "districtCode": "S2039",
    "districtName": "PHALODI",
    "acNumber": 123,
    "acName": "Lohawat",
    "partNumber": 288,
    "partName": "Indo Ki Dhani",
    "lat": 26.9829712,
    "lon": 72.5914155
  },
  {
    "partId": 90446,
    "stateCode": "S20",
    "stateName": "Rajasthan",
    "districtCode": "S2039",
    "districtName": "PHALODI",
    "acNumber": 123,
    "acName": "Lohawat",
    "partNumber": 289,
    "partName": "RAMDEV NAGAR BHEEKAMKOR",
    "lat": 26.9829712,
    "lon": 72.5914155
  },
  {
    "partId": 90454,
    "stateCode": "S20",
    "stateName": "Rajasthan",
    "districtCode": "S2039",
    "districtName": "PHALODI",
    "acNumber": 123,
    "acName": "Lohawat",
    "partNumber": 290,
    "partName": "KHANURAM KI DHANI",
    "lat": 27.07993345,
    "lon": 72.5804849079002
  },
  {
    "partId": 90677,
    "stateCode": "S20",
    "stateName": "Rajasthan",
    "districtCode": "S2039",
    "districtName": "PHALODI",
    "acNumber": 122,
    "acName": "Phalodi",
    "partNumber": 1,
    "partName": "Bhadala",
    "lat": 27.5224071,
    "lon": 71.9363988
  },
  {
    "partId": 90678,
    "stateCode": "S20",
    "stateName": "Rajasthan",
    "districtCode": "S2039",
    "districtName": "PHALODI",
    "acNumber": 122,
    "acName": "Phalodi",
    "partNumber": 2,
    "partName": "Kalu Khan Ki Dhani",
    "lat": 27.07993345,
    "lon": 72.5804849079002
  },
  {
    "partId": 90679,
    "stateCode": "S20",
    "stateName": "Rajasthan",
    "districtCode": "S2039",
    "districtName": "PHALODI",
    "acNumber": 122,
    "acName": "Phalodi",
    "partNumber": 3,
    "partName": "Neva ki dhani",
    "lat": 27.1294121,
    "lon": 72.3649644
  },
  {
    "partId": 90680,
    "stateCode": "S20",
    "stateName": "Rajasthan",
    "districtCode": "S2039",
    "districtName": "PHALODI",
    "acNumber": 122,
    "acName": "Phalodi",
    "partNumber": 4,
    "partName": "Neva ki dhani",
    "lat": 27.1294121,
    "lon": 72.3649644
  },
  {
    "partId": 90681,
    "stateCode": "S20",
    "stateName": "Rajasthan",
    "districtCode": "S2039",
    "districtName": "PHALODI",
    "acNumber": 122,
    "acName": "Phalodi",
    "partNumber": 5,
    "partName": "Nure Ki Bhurj",
    "lat": 27.07993345,
    "lon": 72.5804849079002
  },
  {
    "partId": 90682,
    "stateCode": "S20",
    "stateName": "Rajasthan",
    "districtCode": "S2039",
    "districtName": "PHALODI",
    "acNumber": 122,
    "acName": "Phalodi",
    "partNumber": 6,
    "partName": "Kanasar",
    "lat": 27.447829,
    "lon": 72.1140647
  },
  {
    "partId": 90683,
    "stateCode": "S20",
    "stateName": "Rajasthan",
    "districtCode": "S2039",
    "districtName": "PHALODI",
    "acNumber": 122,
    "acName": "Phalodi",
    "partNumber": 7,
    "partName": "Kanasar",
    "lat": 27.447829,
    "lon": 72.1140647
  },
  {
    "partId": 90684,
    "stateCode": "S20",
    "stateName": "Rajasthan",
    "districtCode": "S2039",
    "districtName": "PHALODI",
    "acNumber": 122,
    "acName": "Phalodi",
    "partNumber": 8,
    "partName": "Kanasar  dhani",
    "lat": 27.1294121,
    "lon": 72.3649644
  },
  {
    "partId": 90685,
    "stateCode": "S20",
    "stateName": "Rajasthan",
    "districtCode": "S2039",
    "districtName": "PHALODI",
    "acNumber": 122,
    "acName": "Phalodi",
    "partNumber": 9,
    "partName": "Sanvara Gaon",
    "lat": 27.1294121,
    "lon": 72.3649644
  },
  {
    "partId": 90686,
    "stateCode": "S20",
    "stateName": "Rajasthan",
    "districtCode": "S2039",
    "districtName": "PHALODI",
    "acNumber": 122,
    "acName": "Phalodi",
    "partNumber": 10,
    "partName": "Manchitya",
    "lat": 27.1294121,
    "lon": 72.3649644
  },
  {
    "partId": 90687,
    "stateCode": "S20",
    "stateName": "Rajasthan",
    "districtCode": "S2039",
    "districtName": "PHALODI",
    "acNumber": 122,
    "acName": "Phalodi",
    "partNumber": 11,
    "partName": "Badi Sid",
    "lat": 27.1294121,
    "lon": 72.3649644
  },
  {
    "partId": 90688,
    "stateCode": "S20",
    "stateName": "Rajasthan",
    "districtCode": "S2039",
    "districtName": "PHALODI",
    "acNumber": 122,
    "acName": "Phalodi",
    "partNumber": 12,
    "partName": "Badi Sid",
    "lat": 27.1294121,
    "lon": 72.3649644
  },
  {
    "partId": 90689,
    "stateCode": "S20",
    "stateName": "Rajasthan",
    "districtCode": "S2039",
    "districtName": "PHALODI",
    "acNumber": 122,
    "acName": "Phalodi",
    "partNumber": 13,
    "partName": "Bavadi Barasinga",
    "lat": 27.1294121,
    "lon": 72.3649644
  },
  {
    "partId": 90690,
    "stateCode": "S20",
    "stateName": "Rajasthan",
    "districtCode": "S2039",
    "districtName": "PHALODI",
    "acNumber": 122,
    "acName": "Phalodi",
    "partNumber": 14,
    "partName": "Khidarat",
    "lat": 27.1294121,
    "lon": 72.3649644
  },
  {
    "partId": 90691,
    "stateCode": "S20",
    "stateName": "Rajasthan",
    "districtCode": "S2039",
    "districtName": "PHALODI",
    "acNumber": 122,
    "acName": "Phalodi",
    "partNumber": 15,
    "partName": "Kanasingh Ki Sid",
    "lat": 27.1294121,
    "lon": 72.3649644
  },
  {
    "partId": 90692,
    "stateCode": "S20",
    "stateName": "Rajasthan",
    "districtCode": "S2039",
    "districtName": "PHALODI",
    "acNumber": 122,
    "acName": "Phalodi",
    "partNumber": 16,
    "partName": "Kanasingh Ki Sid",
    "lat": 27.1294121,
    "lon": 72.3649644
  },
  {
    "partId": 90693,
    "stateCode": "S20",
    "stateName": "Rajasthan",
    "districtCode": "S2039",
    "districtName": "PHALODI",
    "acNumber": 122,
    "acName": "Phalodi",
    "partNumber": 17,
    "partName": "Kanasingh Ki Sid",
    "lat": 27.1294121,
    "lon": 72.3649644
  },
  {
    "partId": 90694,
    "stateCode": "S20",
    "stateName": "Rajasthan",
    "districtCode": "S2039",
    "districtName": "PHALODI",
    "acNumber": 122,
    "acName": "Phalodi",
    "partNumber": 18,
    "partName": "Sodhadada",
    "lat": 27.1294121,
    "lon": 72.3649644
  },
  {
    "partId": 90695,
    "stateCode": "S20",
    "stateName": "Rajasthan",
    "districtCode": "S2039",
    "districtName": "PHALODI",
    "acNumber": 122,
    "acName": "Phalodi",
    "partNumber": 19,
    "partName": "Udat",
    "lat": 27.1294121,
    "lon": 72.3649644
  },
  {
    "partId": 90696,
    "stateCode": "S20",
    "stateName": "Rajasthan",
    "districtCode": "S2039",
    "districtName": "PHALODI",
    "acNumber": 122,
    "acName": "Phalodi",
    "partNumber": 20,
    "partName": "Udat",
    "lat": 27.1294121,
    "lon": 72.3649644
  },
  {
    "partId": 90697,
    "stateCode": "S20",
    "stateName": "Rajasthan",
    "districtCode": "S2039",
    "districtName": "PHALODI",
    "acNumber": 122,
    "acName": "Phalodi",
    "partNumber": 21,
    "partName": "Mithadiya",
    "lat": 27.5009869,
    "lon": 72.7892425
  },
  {
    "partId": 90698,
    "stateCode": "S20",
    "stateName": "Rajasthan",
    "districtCode": "S2039",
    "districtName": "PHALODI",
    "acNumber": 122,
    "acName": "Phalodi",
    "partNumber": 22,
    "partName": "Maya Kor",
    "lat": 27.1294121,
    "lon": 72.3649644
  },
  {
    "partId": 90699,
    "stateCode": "S20",
    "stateName": "Rajasthan",
    "districtCode": "S2039",
    "districtName": "PHALODI",
    "acNumber": 122,
    "acName": "Phalodi",
    "partNumber": 23,
    "partName": "Luna",
    "lat": 27.470185,
    "lon": 72.778803
  },
  {
    "partId": 90700,
    "stateCode": "S20",
    "stateName": "Rajasthan",
    "districtCode": "S2039",
    "districtName": "PHALODI",
    "acNumber": 122,
    "acName": "Phalodi",
    "partNumber": 24,
    "partName": "Luna",
    "lat": 27.470185,
    "lon": 72.778803
  },
  {
    "partId": 90701,
    "stateCode": "S20",
    "stateName": "Rajasthan",
    "districtCode": "S2039",
    "districtName": "PHALODI",
    "acNumber": 122,
    "acName": "Phalodi",
    "partNumber": 25,
    "partName": "Subhashnagar",
    "lat": 27.1294121,
    "lon": 72.3649644
  },
  {
    "partId": 90702,
    "stateCode": "S20",
    "stateName": "Rajasthan",
    "districtCode": "S2039",
    "districtName": "PHALODI",
    "acNumber": 122,
    "acName": "Phalodi",
    "partNumber": 26,
    "partName": "Narayanpura",
    "lat": 27.07993345,
    "lon": 72.5804849079002
  },
  {
    "partId": 90930,
    "stateCode": "S20",
    "stateName": "Rajasthan",
    "districtCode": "S2039",
    "districtName": "PHALODI",
    "acNumber": 122,
    "acName": "Phalodi",
    "partNumber": 27,
    "partName": "Narayanpura",
    "lat": 27.1294121,
    "lon": 72.3649644
  },
  {
    "partId": 90703,
    "stateCode": "S20",
    "stateName": "Rajasthan",
    "districtCode": "S2039",
    "districtName": "PHALODI",
    "acNumber": 122,
    "acName": "Phalodi",
    "partNumber": 28,
    "partName": "Ganeshanagar",
    "lat": 27.1294121,
    "lon": 72.3649644
  },
  {
    "partId": 90704,
    "stateCode": "S20",
    "stateName": "Rajasthan",
    "districtCode": "S2039",
    "districtName": "PHALODI",
    "acNumber": 122,
    "acName": "Phalodi",
    "partNumber": 29,
    "partName": "Chakhu",
    "lat": 27.4051495,
    "lon": 72.7790957
  },
  {
    "partId": 90705,
    "stateCode": "S20",
    "stateName": "Rajasthan",
    "districtCode": "S2039",
    "districtName": "PHALODI",
    "acNumber": 122,
    "acName": "Phalodi",
    "partNumber": 30,
    "partName": "Chakhu",
    "lat": 27.4051495,
    "lon": 72.7790957
  },
  {
    "partId": 90706,
    "stateCode": "S20",
    "stateName": "Rajasthan",
    "districtCode": "S2039",
    "districtName": "PHALODI",
    "acNumber": 122,
    "acName": "Phalodi",
    "partNumber": 31,
    "partName": "Chakhu",
    "lat": 27.4051495,
    "lon": 72.7790957
  },
  {
    "partId": 90707,
    "stateCode": "S20",
    "stateName": "Rajasthan",
    "districtCode": "S2039",
    "districtName": "PHALODI",
    "acNumber": 122,
    "acName": "Phalodi",
    "partNumber": 32,
    "partName": "Kalaraba Bera",
    "lat": 27.1294121,
    "lon": 72.3649644
  },
  {
    "partId": 90708,
    "stateCode": "S20",
    "stateName": "Rajasthan",
    "districtCode": "S2039",
    "districtName": "PHALODI",
    "acNumber": 122,
    "acName": "Phalodi",
    "partNumber": 33,
    "partName": "Saran Pura",
    "lat": 27.1294121,
    "lon": 72.3649644
  },
  {
    "partId": 90709,
    "stateCode": "S20",
    "stateName": "Rajasthan",
    "districtCode": "S2039",
    "districtName": "PHALODI",
    "acNumber": 122,
    "acName": "Phalodi",
    "partNumber": 34,
    "partName": "Sur Pura",
    "lat": 27.1294121,
    "lon": 72.3649644
  },
  {
    "partId": 90710,
    "stateCode": "S20",
    "stateName": "Rajasthan",
    "districtCode": "S2039",
    "districtName": "PHALODI",
    "acNumber": 122,
    "acName": "Phalodi",
    "partNumber": 35,
    "partName": "Shriram Pura",
    "lat": 27.1294121,
    "lon": 72.3649644
  },
  {
    "partId": 90711,
    "stateCode": "S20",
    "stateName": "Rajasthan",
    "districtCode": "S2039",
    "districtName": "PHALODI",
    "acNumber": 122,
    "acName": "Phalodi",
    "partNumber": 36,
    "partName": "Malamasingh Ki Sid",
    "lat": 27.1294121,
    "lon": 72.3649644
  },
  {
    "partId": 90712,
    "stateCode": "S20",
    "stateName": "Rajasthan",
    "districtCode": "S2039",
    "districtName": "PHALODI",
    "acNumber": 122,
    "acName": "Phalodi",
    "partNumber": 37,
    "partName": "Kalyanasingh Ki Sid",
    "lat": 27.1294121,
    "lon": 72.3649644
  },
  {
    "partId": 90713,
    "stateCode": "S20",
    "stateName": "Rajasthan",
    "districtCode": "S2039",
    "districtName": "PHALODI",
    "acNumber": 122,
    "acName": "Phalodi",
    "partNumber": 38,
    "partName": "Mandor",
    "lat": 27.1294121,
    "lon": 72.3649644
  },
  {
    "partId": 90714,
    "stateCode": "S20",
    "stateName": "Rajasthan",
    "districtCode": "S2039",
    "districtName": "PHALODI",
    "acNumber": 122,
    "acName": "Phalodi",
    "partNumber": 39,
    "partName": "Gadana",
    "lat": 27.4290711,
    "lon": 72.3716525
  },
  {
    "partId": 90715,
    "stateCode": "S20",
    "stateName": "Rajasthan",
    "districtCode": "S2039",
    "districtName": "PHALODI",
    "acNumber": 122,
    "acName": "Phalodi",
    "partNumber": 40,
    "partName": "Ghator",
    "lat": 27.4161002,
    "lon": 72.2238421
  },
  {
    "partId": 90716,
    "stateCode": "S20",
    "stateName": "Rajasthan",
    "districtCode": "S2039",
    "districtName": "PHALODI",
    "acNumber": 122,
    "acName": "Phalodi",
    "partNumber": 41,
    "partName": "Ravara",
    "lat": 27.1294121,
    "lon": 72.3649644
  },
  {
    "partId": 90717,
    "stateCode": "S20",
    "stateName": "Rajasthan",
    "districtCode": "S2039",
    "districtName": "PHALODI",
    "acNumber": 122,
    "acName": "Phalodi",
    "partNumber": 42,
    "partName": "Bhimaji Ka Gaon",
    "lat": 27.3818947,
    "lon": 72.2667146
  },
  {
    "partId": 90718,
    "stateCode": "S20",
    "stateName": "Rajasthan",
    "districtCode": "S2039",
    "districtName": "PHALODI",
    "acNumber": 122,
    "acName": "Phalodi",
    "partNumber": 43,
    "partName": "Dedasari",
    "lat": 27.3497753,
    "lon": 72.0175695
  },
  {
    "partId": 90719,
    "stateCode": "S20",
    "stateName": "Rajasthan",
    "districtCode": "S2039",
    "districtName": "PHALODI",
    "acNumber": 122,
    "acName": "Phalodi",
    "partNumber": 44,
    "partName": "Dedasari",
    "lat": 27.3497753,
    "lon": 72.0175695
  },
  {
    "partId": 90720,
    "stateCode": "S20",
    "stateName": "Rajasthan",
    "districtCode": "S2039",
    "districtName": "PHALODI",
    "acNumber": 122,
    "acName": "Phalodi",
    "partNumber": 45,
    "partName": "Khetusar",
    "lat": 27.3318583,
    "lon": 71.9964766
  },
  {
    "partId": 90721,
    "stateCode": "S20",
    "stateName": "Rajasthan",
    "districtCode": "S2039",
    "districtName": "PHALODI",
    "acNumber": 122,
    "acName": "Phalodi",
    "partNumber": 46,
    "partName": "Baru",
    "lat": 27.3631661,
    "lon": 71.8909485
  },
  {
    "partId": 90722,
    "stateCode": "S20",
    "stateName": "Rajasthan",
    "districtCode": "S2039",
    "districtName": "PHALODI",
    "acNumber": 122,
    "acName": "Phalodi",
    "partNumber": 47,
    "partName": "Baru",
    "lat": 27.3631661,
    "lon": 71.8909485
  },
  {
    "partId": 90723,
    "stateCode": "S20",
    "stateName": "Rajasthan",
    "districtCode": "S2039",
    "districtName": "PHALODI",
    "acNumber": 122,
    "acName": "Phalodi",
    "partNumber": 48,
    "partName": "Rola",
    "lat": 27.4739328,
    "lon": 71.8578815
  },
  {
    "partId": 90724,
    "stateCode": "S20",
    "stateName": "Rajasthan",
    "districtCode": "S2039",
    "districtName": "PHALODI",
    "acNumber": 122,
    "acName": "Phalodi",
    "partNumber": 49,
    "partName": "Dhouliya",
    "lat": 27.1294121,
    "lon": 72.3649644
  },
  {
    "partId": 90725,
    "stateCode": "S20",
    "stateName": "Rajasthan",
    "districtCode": "S2039",
    "districtName": "PHALODI",
    "acNumber": 122,
    "acName": "Phalodi",
    "partNumber": 50,
    "partName": "Dholiya",
    "lat": 27.2982275,
    "lon": 71.9589472
  },
  {
    "partId": 90726,
    "stateCode": "S20",
    "stateName": "Rajasthan",
    "districtCode": "S2039",
    "districtName": "PHALODI",
    "acNumber": 122,
    "acName": "Phalodi",
    "partNumber": 51,
    "partName": "Jodhani Urph Tepu",
    "lat": 27.1294121,
    "lon": 72.3649644
  },
  {
    "partId": 90727,
    "stateCode": "S20",
    "stateName": "Rajasthan",
    "districtCode": "S2039",
    "districtName": "PHALODI",
    "acNumber": 122,
    "acName": "Phalodi",
    "partNumber": 52,
    "partName": "Kanasi Moti",
    "lat": 27.2553163,
    "lon": 72.0232397
  },
  {
    "partId": 90728,
    "stateCode": "S20",
    "stateName": "Rajasthan",
    "districtCode": "S2039",
    "districtName": "PHALODI",
    "acNumber": 122,
    "acName": "Phalodi",
    "partNumber": 53,
    "partName": "Mad Pura",
    "lat": 27.1294121,
    "lon": 72.3649644
  },
  {
    "partId": 90729,
    "stateCode": "S20",
    "stateName": "Rajasthan",
    "districtCode": "S2039",
    "districtName": "PHALODI",
    "acNumber": 122,
    "acName": "Phalodi",
    "partNumber": 54,
    "partName": "Modakiya",
    "lat": 27.07993345,
    "lon": 72.5804849079002
  },
  {
    "partId": 90730,
    "stateCode": "S20",
    "stateName": "Rajasthan",
    "districtCode": "S2039",
    "districtName": "PHALODI",
    "acNumber": 122,
    "acName": "Phalodi",
    "partNumber": 55,
    "partName": "Raneri",
    "lat": 27.3528628,
    "lon": 72.1161675
  },
  {
    "partId": 90731,
    "stateCode": "S20",
    "stateName": "Rajasthan",
    "districtCode": "S2039",
    "districtName": "PHALODI",
    "acNumber": 122,
    "acName": "Phalodi",
    "partNumber": 56,
    "partName": "Ram Pura",
    "lat": 27.1294121,
    "lon": 72.3649644
  },