[
  {
    "partId": 96807,
    "stateCode": "S20",
    "stateName": "Rajasthan",
    "districtCode": "S2023",
    "districtName": "Udaipur",
    "acNumber": 149,
    "acName": "Gogunda",
    "partNumber": 1,
    "partName": "MAGGA",
    "lat": 24.82305755,
    "lon": 73.4923040854755
  },
  {
    "partId": 96808,
    "stateCode": "S20",
    "stateName": "Rajasthan",
    "districtCode": "S2023",
    "districtName": "Udaipur",
    "acNumber": 149,
    "acName": "Gogunda",
    "partNumber": 2,
    "partName": "BAGAD",
    "lat": 24.82305755,
    "lon": 73.4923040854755
  },
  {
    "partId": 96809,
    "stateCode": "S20",
    "stateName": "Rajasthan",
    "districtCode": "S2023",
    "districtName": "Udaipur",
    "acNumber": 149,
    "acName": "Gogunda",
    "partNumber": 3,
    "partName": "KAMBA",
    "lat": 25.0461519,
    "lon": 73.4590745
  },
  {
    "partId": 96810,
    "stateCode": "S20",
    "stateName": "Rajasthan",
    "districtCode": "S2023",
    "districtName": "Udaipur",
    "acNumber": 149,
    "acName": "Gogunda",
    "partNumber": 4,
    "partName": "BHANPURA",
    "lat": 25.0462685,
    "lon": 73.4727216
  },
  {
    "partId": 96811,
    "stateCode": "S20",
    "stateName": "Rajasthan",
    "districtCode": "S2023",
    "districtName": "Udaipur",
    "acNumber": 149,
    "acName": "Gogunda",
    "partNumber": 5,
    "partName": "BHANPURA",
    "lat": 25.0462685,
    "lon": 73.4727216
  },
  {
    "partId": 96812,
    "stateCode": "S20",
    "stateName": "Rajasthan",
    "districtCode": "S2023",
    "districtName": "Udaipur",
    "acNumber": 149,
    "acName": "Gogunda",
    "partNumber": 6,
    "partName": "DHIKODA",
    "lat": 24.82305755,
    "lon": 73.4923040854755
  },
  {
    "partId": 96813,
    "stateCode": "S20",
    "stateName": "Rajasthan",
    "districtCode": "S2023",
    "districtName": "Udaipur",
    "acNumber": 149,
    "acName": "Gogunda",
    "partNumber": 7,
    "partName": "DHIKODA",
    "lat": 24.82305755,
    "lon": 73.4923040854755
  },
  {
    "partId": 96814,
    "stateCode": "S20",
    "stateName": "Rajasthan",
    "districtCode": "S2023",
    "districtName": "Udaipur",
    "acNumber": 149,
    "acName": "Gogunda",
    "partNumber": 8,
    "partName": "JORAMA",
    "lat": 25.0094341,
    "lon": 73.4295916
  },
  {
    "partId": 96815,
    "stateCode": "S20",
    "stateName": "Rajasthan",
    "districtCode": "S2023",
    "districtName": "Udaipur",
    "acNumber": 149,
    "acName": "Gogunda",
    "partNumber": 9,
    "partName": "BOKHADA",
    "lat": 25.0115925,
    "lon": 73.4112453
  },
  {
    "partId": 96816,
    "stateCode": "S20",
    "stateName": "Rajasthan",
    "districtCode": "S2023",
    "districtName": "Udaipur",
    "acNumber": 149,
    "acName": "Gogunda",
    "partNumber": 10,
    "partName": "BOKHADA",
    "lat": 25.0115925,
    "lon": 73.4112453
  },
  {
    "partId": 96817,
    "stateCode": "S20",
    "stateName": "Rajasthan",
    "districtCode": "S2023",
    "districtName": "Udaipur",
    "acNumber": 149,
    "acName": "Gogunda",
    "partNumber": 11,
    "partName": "BOKHADA",
    "lat": 25.0115925,
    "lon": 73.4112453
  },
  {
    "partId": 96818,
    "stateCode": "S20",
    "stateName": "Rajasthan",
    "districtCode": "S2023",
    "districtName": "Udaipur",
    "acNumber": 149,
    "acName": "Gogunda",
    "partNumber": 12,
    "partName": "SINGHADA",
    "lat": 24.82305755,
    "lon": 73.4923040854755
  },
  {
    "partId": 96819,
    "stateCode": "S20",
    "stateName": "Rajasthan",
    "districtCode": "S2023",
    "districtName": "Udaipur",
    "acNumber": 149,
    "acName": "Gogunda",
    "partNumber": 13,
    "partName": "DIYAN",
    "lat": 25.0059435,
    "lon": 73.4529698
  },
  {
    "partId": 96820,
    "stateCode": "S20",
    "stateName": "Rajasthan",
    "districtCode": "S2023",
    "districtName": "Udaipur",
    "acNumber": 149,
    "acName": "Gogunda",
    "partNumber": 14,
    "partName": "NIKOR",
    "lat": 24.82305755,
    "lon": 73.4923040854755
  },
  {
    "partId": 96821,
    "stateCode": "S20",
    "stateName": "Rajasthan",
    "districtCode": "S2023",
    "districtName": "Udaipur",
    "acNumber": 149,
    "acName": "Gogunda",
    "partNumber": 15,
    "partName": "GHANAVAL",
    "lat": 24.82305755,
    "lon": 73.4923040854755
  },
  {
    "partId": 96822,
    "stateCode": "S20",
    "stateName": "Rajasthan",
    "districtCode": "S2023",
    "districtName": "Udaipur",
    "acNumber": 149,
    "acName": "Gogunda",
    "partNumber": 16,
    "partName": "GHANAVAL",
    "lat": 24.82305755,
    "lon": 73.4923040854755
  },
  {
    "partId": 96823,
    "stateCode": "S20",
    "stateName": "Rajasthan",
    "districtCode": "S2023",
    "districtName": "Udaipur",
    "acNumber": 149,
    "acName": "Gogunda",
    "partNumber": 17,
    "partName": "PALASAMA",
    "lat": 24.9858635,
    "lon": 73.4758115
  },
  {
    "partId": 96824,
    "stateCode": "S20",
    "stateName": "Rajasthan",
    "districtCode": "S2023",
    "districtName": "Udaipur",
    "acNumber": 149,
    "acName": "Gogunda",
    "partNumber": 18,
    "partName": "PALASAMA",
    "lat": 24.9858635,
    "lon": 73.4758115
  },
  {
    "partId": 96825,
    "stateCode": "S20",
    "stateName": "Rajasthan",
    "districtCode": "S2023",
    "districtName": "Udaipur",
    "acNumber": 149,
    "acName": "Gogunda",
    "partNumber": 19,
    "partName": "BRAHMANON KA KALAVANA",
    "lat": 24.9842298,
    "lon": 73.4349346
  },
  {
    "partId": 96826,
    "stateCode": "S20",
    "stateName": "Rajasthan",
    "districtCode": "S2023",
    "districtName": "Udaipur",
    "acNumber": 149,
    "acName": "Gogunda",
    "partNumber": 20,
    "partName": "BRAHMANON KA KALAVANA",
    "lat": 24.9842298,
    "lon": 73.4349346
  },
  {
    "partId": 96827,
    "stateCode": "S20",
    "stateName": "Rajasthan",
    "districtCode": "S2023",
    "districtName": "Udaipur",
    "acNumber": 149,
    "acName": "Gogunda",
    "partNumber": 21,
    "partName": "BATERI",
    "lat": 24.9879641,
    "lon": 73.4304929
  },
  {
    "partId": 96828,
    "stateCode": "S20",
    "stateName": "Rajasthan",
    "districtCode": "S2023",
    "districtName": "Udaipur",
    "acNumber": 149,
    "acName": "Gogunda",
    "partNumber": 22,
    "partName": "SAYARA",
    "lat": 24.9829324,
    "lon": 73.4178223
  },
  {
    "partId": 96829,
    "stateCode": "S20",
    "stateName": "Rajasthan",
    "districtCode": "S2023",
    "districtName": "Udaipur",
    "acNumber": 149,
    "acName": "Gogunda",
    "partNumber": 23,
    "partName": "SAYARA",
    "lat": 24.9829324,
    "lon": 73.4178223
  },
  {
    "partId": 96830,
    "stateCode": "S20",
    "stateName": "Rajasthan",
    "districtCode": "S2023",
    "districtName": "Udaipur",
    "acNumber": 149,
    "acName": "Gogunda",
    "partNumber": 24,
    "partName": "BHATON KA SAYARA",
    "lat": 24.9708865,
    "lon": 73.4110951
  },
  {
    "partId": 96831,
    "stateCode": "S20",
    "stateName": "Rajasthan",
    "districtCode": "S2023",
    "districtName": "Udaipur",
    "acNumber": 149,
    "acName": "Gogunda",
    "partNumber": 25,
    "partName": "JHALON KA KALAVANA",
    "lat": 24.9638545,
    "lon": 73.4347415
  },
  {
    "partId": 96832,
    "stateCode": "S20",
    "stateName": "Rajasthan",
    "districtCode": "S2023",
    "districtName": "Udaipur",
    "acNumber": 149,
    "acName": "Gogunda",
    "partNumber": 26,
    "partName": "GAYAFAL",
    "lat": 24.82305755,
    "lon": 73.4923040854755
  },
  {
    "partId": 96833,
    "stateCode": "S20",
    "stateName": "Rajasthan",
    "districtCode": "S2023",
    "districtName": "Udaipur",
    "acNumber": 149,
    "acName": "Gogunda",
    "partNumber": 27,
    "partName": "ROYADA",
    "lat": 24.8950398,
    "lon": 73.4835147
  },
  {
    "partId": 97092,
    "stateCode": "S20",
    "stateName": "Rajasthan",
    "districtCode": "S2023",
    "districtName": "Udaipur",
    "acNumber": 149,
    "acName": "Gogunda",
    "partNumber": 28,
    "partName": "Royada",
    "lat": 24.8950398,
    "lon": 73.4835147
  },
  {
    "partId": 96834,
    "stateCode": "S20",
    "stateName": "Rajasthan",
    "districtCode": "S2023",
    "districtName": "Udaipur",
    "acNumber": 149,
    "acName": "Gogunda",
    "partNumber": 29,
    "partName": "GUNDALI",
    "lat": 24.9519334,
    "lon": 73.5184096
  },
  {
    "partId": 96835,
    "stateCode": "S20",
    "stateName": "Rajasthan",
    "districtCode": "S2023",
    "districtName": "Udaipur",
    "acNumber": 149,
    "acName": "Gogunda",
    "partNumber": 30,
    "partName": "PALACHH",
    "lat": 24.9243586,
    "lon": 73.5072899
  },
  {
    "partId": 96836,
    "stateCode": "S20",
    "stateName": "Rajasthan",
    "districtCode": "S2023",
    "districtName": "Udaipur",
    "acNumber": 149,
    "acName": "Gogunda",
    "partNumber": 31,
    "partName": "JEMALI",
    "lat": 24.82305755,
    "lon": 73.4923040854755
  },
  {
    "partId": 96837,
    "stateCode": "S20",
    "stateName": "Rajasthan",
    "districtCode": "S2023",
    "districtName": "Udaipur",
    "acNumber": 149,
    "acName": "Gogunda",
    "partNumber": 32,
    "partName": "KANJI KA GUDA",
    "lat": 24.82305755,
    "lon": 73.4923040854755
  },
  {
    "partId": 96838,
    "stateCode": "S20",
    "stateName": "Rajasthan",
    "districtCode": "S2023",
    "districtName": "Udaipur",
    "acNumber": 149,
    "acName": "Gogunda",
    "partNumber": 33,
    "partName": "MADAR",
    "lat": 24.6731286,
    "lon": 73.6111235
  },
  {
    "partId": 96839,
    "stateCode": "S20",
    "stateName": "Rajasthan",
    "districtCode": "S2023",
    "districtName": "Udaipur",
    "acNumber": 149,
    "acName": "Gogunda",
    "partNumber": 34,
    "partName": "SEMAD",
    "lat": 24.9384949,
    "lon": 73.409357
  },
  {
    "partId": 96840,
    "stateCode": "S20",
    "stateName": "Rajasthan",
    "districtCode": "S2023",
    "districtName": "Udaipur",
    "acNumber": 149,
    "acName": "Gogunda",
    "partNumber": 35,
    "partName": "SEMAD",
    "lat": 24.9384949,
    "lon": 73.409357
  },
  {
    "partId": 96841,
    "stateCode": "S20",
    "stateName": "Rajasthan",
    "districtCode": "S2023",
    "districtName": "Udaipur",
    "acNumber": 149,
    "acName": "Gogunda",
    "partNumber": 36,
    "partName": "HAYALA",
    "lat": 24.82305755,
    "lon": 73.4923040854755
  },
  {
    "partId": 96842,
    "stateCode": "S20",
    "stateName": "Rajasthan",
    "districtCode": "S2023",
    "districtName": "Udaipur",
    "acNumber": 149,
    "acName": "Gogunda",
    "partNumber": 37,
    "partName": "BARAVALI",
    "lat": 24.82305755,
    "lon": 73.4923040854755
  },
  {
    "partId": 96843,
    "stateCode": "S20",
    "stateName": "Rajasthan",
    "districtCode": "S2023",
    "districtName": "Udaipur",
    "acNumber": 149,
    "acName": "Gogunda",
    "partNumber": 38,
    "partName": "UMARANA",
    "lat": 24.9219067,
    "lon": 73.3947658
  },
  {
    "partId": 96844,
    "stateCode": "S20",
    "stateName": "Rajasthan",
    "districtCode": "S2023",
    "districtName": "Udaipur",
    "acNumber": 149,
    "acName": "Gogunda",
    "partNumber": 39,
    "partName": "VISAMA",
    "lat": 24.9098898,
    "lon": 73.399229
  },
  {
    "partId": 96845,
    "stateCode": "S20",
    "stateName": "Rajasthan",
    "districtCode": "S2023",
    "districtName": "Udaipur",
    "acNumber": 149,
    "acName": "Gogunda",
    "partNumber": 40,
    "partName": "SANCHALI",
    "lat": 24.82305755,
    "lon": 73.4923040854755
  },
  {
    "partId": 96846,
    "stateCode": "S20",
    "stateName": "Rajasthan",
    "districtCode": "S2023",
    "districtName": "Udaipur",
    "acNumber": 149,
    "acName": "Gogunda",
    "partNumber": 41,
    "partName": "KAMOL",
    "lat": 24.9097925,
    "lon": 73.4157729
  },
  {
    "partId": 96847,
    "stateCode": "S20",
    "stateName": "Rajasthan",
    "districtCode": "S2023",
    "districtName": "Udaipur",
    "acNumber": 149,
    "acName": "Gogunda",
    "partNumber": 42,
    "partName": "KAMOL",
    "lat": 24.9097925,
    "lon": 73.4157729
  },
  {
    "partId": 96848,
    "stateCode": "S20",
    "stateName": "Rajasthan",
    "districtCode": "S2023",
    "districtName": "Udaipur",
    "acNumber": 149,
    "acName": "Gogunda",
    "partNumber": 43,
    "partName": "BORAVALI MADADI",
    "lat": 24.82305755,
    "lon": 73.4923040854755
  },
  {
    "partId": 96849,
    "stateCode": "S20",
    "stateName": "Rajasthan",
    "districtCode": "S2023",
    "districtName": "Udaipur",
    "acNumber": 149,
    "acName": "Gogunda",
    "partNumber": 44,
    "partName": "GUMAN",
    "lat": 24.3889644,
    "lon": 73.6427736
  },
  {
    "partId": 96850,
    "stateCode": "S20",
    "stateName": "Rajasthan",
    "districtCode": "S2023",
    "districtName": "Udaipur",
    "acNumber": 149,
    "acName": "Gogunda",
    "partNumber": 45,
    "partName": "KARADA",
    "lat": 24.9059877,
    "lon": 73.5083172
  },
  {
    "partId": 96851,
    "stateCode": "S20",
    "stateName": "Rajasthan",
    "districtCode": "S2023",
    "districtName": "Udaipur",
    "acNumber": 149,
    "acName": "Gogunda",
    "partNumber": 46,
    "partName": "KARADA",
    "lat": 24.9059877,
    "lon": 73.5083172
  },
  {
    "partId": 96852,
    "stateCode": "S20",
    "stateName": "Rajasthan",
    "districtCode": "S2023",
    "districtName": "Udaipur",
    "acNumber": 149,
    "acName": "Gogunda",
    "partNumber": 47,
    "partName": "SADADA",
    "lat": 24.910931,
    "lon": 73.5249925
  },
  {
    "partId": 96853,
    "stateCode": "S20",
    "stateName": "Rajasthan",
    "districtCode": "S2023",
    "districtName": "Udaipur",
    "acNumber": 149,
    "acName": "Gogunda",
    "partNumber": 48,
    "partName": "BARWARA",
    "lat": 24.8953026,
    "lon": 73.5477269
  },
  {
    "partId": 96854,
    "stateCode": "S20",
    "stateName": "Rajasthan",
    "districtCode": "S2023",
    "districtName": "Udaipur",
    "acNumber": 149,
    "acName": "Gogunda",
    "partNumber": 49,
    "partName": "DHUNDHI",
    "lat": 24.82305755,
    "lon": 73.4923040854755
  },
  {
    "partId": 96855,
    "stateCode": "S20",
    "stateName": "Rajasthan",
    "districtCode": "S2023",
    "districtName": "Udaipur",
    "acNumber": 149,
    "acName": "Gogunda",
    "partNumber": 50,
    "partName": "BADGAON",
    "lat": 24.754509050000003,
    "lon": 73.63419701151096
  },
  {
    "partId": 96856,
    "stateCode": "S20",
    "stateName": "Rajasthan",
    "districtCode": "S2023",
    "districtName": "Udaipur",
    "acNumber": 149,
    "acName": "Gogunda",
    "partNumber": 51,
    "partName": "UMAROD",
    "lat": 24.82305755,
    "lon": 73.4923040854755
  },
  {
    "partId": 96857,
    "stateCode": "S20",
    "stateName": "Rajasthan",
    "districtCode": "S2023",
    "districtName": "Udaipur",
    "acNumber": 149,
    "acName": "Gogunda",
    "partNumber": 52,
    "partName": "SAMAL",
    "lat": 24.8821736,
    "lon": 73.4044754
  },
  {
    "partId": 96858,
    "stateCode": "S20",
    "stateName": "Rajasthan",
    "districtCode": "S2023",
    "districtName": "Udaipur",
    "acNumber": 149,
    "acName": "Gogunda",
    "partNumber": 53,
    "partName": "PADARADA",
    "lat": 24.8992634,
    "lon": 73.4006881
  },
  {
    "partId": 96859,
    "stateCode": "S20",
    "stateName": "Rajasthan",
    "districtCode": "S2023",
    "districtName": "Udaipur",
    "acNumber": 149,
    "acName": "Gogunda",
    "partNumber": 54,
    "partName": "PADARADA",
    "lat": 24.8992634,
    "lon": 73.4006881
  },
  {
    "partId": 96860,
    "stateCode": "S20",
    "stateName": "Rajasthan",
    "districtCode": "S2023",
    "districtName": "Udaipur",
    "acNumber": 149,
    "acName": "Gogunda",
    "partNumber": 55,
    "partName": "PADARADA",
    "lat": 24.8992634,
    "lon": 73.4006881
  },
  {
    "partId": 96861,
    "stateCode": "S20",
    "stateName": "Rajasthan",
    "districtCode": "S2023",
    "districtName": "Udaipur",
    "acNumber": 149,
    "acName": "Gogunda",
    "partNumber": 56,
    "partName": "CHITRAVAS",
    "lat": 24.82305755,
    "lon": 73.4923040854755
  },
  {
    "partId": 96862,
    "stateCode": "S20",
    "stateName": "Rajasthan",
    "districtCode": "S2023",
    "districtName": "Udaipur",
    "acNumber": 149,
    "acName": "Gogunda",
    "partNumber": 57,
    "partName": "PALAN",
    "lat": 24.8706687,
    "lon": 73.34831
  },
  {
    "partId": 96863,
    "stateCode": "S20",
    "stateName": "Rajasthan",
    "districtCode": "S2023",
    "districtName": "Udaipur",
    "acNumber": 149,
    "acName": "Gogunda",
    "partNumber": 58,
    "partName": "PUNAVALI",
    "lat": 24.82305755,
    "lon": 73.4923040854755
  },
  {
    "partId": 96864,
    "stateCode": "S20",
    "stateName": "Rajasthan",
    "districtCode": "S2023",
    "districtName": "Udaipur",
    "acNumber": 149,
    "acName": "Gogunda",
    "partNumber": 59,
    "partName": "PUNAWALI",
    "lat": 24.5135081,
    "lon": 73.2354855
  },
  {
    "partId": 96865,
    "stateCode": "S20",
    "stateName": "Rajasthan",
    "districtCode": "S2023",
    "districtName": "Udaipur",
    "acNumber": 149,
    "acName": "Gogunda",
    "partNumber": 60,
    "partName": "DHOL",
    "lat": 24.868683,
    "lon": 73.4403634
  },
  {
    "partId": 96866,
    "stateCode": "S20",
    "stateName": "Rajasthan",
    "districtCode": "S2023",
    "districtName": "Udaipur",
    "acNumber": 149,
    "acName": "Gogunda",
    "partNumber": 61,
    "partName": "DHOL",
    "lat": 24.868683,
    "lon": 73.4403634
  },
  {
    "partId": 96867,
    "stateCode": "S20",
    "stateName": "Rajasthan",
    "districtCode": "S2023",
    "districtName": "Udaipur",
    "acNumber": 149,
    "acName": "Gogunda",
    "partNumber": 62,
    "partName": "TIROL",
    "lat": 24.82305755,
    "lon": 73.4923040854755
  },
  {
    "partId": 96868,
    "stateCode": "S20",
    "stateName": "Rajasthan",
    "districtCode": "S2023",
    "districtName": "Udaipur",
    "acNumber": 149,
    "acName": "Gogunda",
    "partNumber": 63,
    "partName": "PANER",
    "lat": 24.8615185,
    "lon": 73.514446
  },
  {
    "partId": 96869,
    "stateCode": "S20",
    "stateName": "Rajasthan",
    "districtCode": "S2023",
    "districtName": "Udaipur",
    "acNumber": 149,
    "acName": "Gogunda",
    "partNumber": 64,
    "partName": "PANER",
    "lat": 24.8615185,
    "lon": 73.514446
  },
  {
    "partId": 96870,
    "stateCode": "S20",
    "stateName": "Rajasthan",
    "districtCode": "S2023",
    "districtName": "Udaipur",
    "acNumber": 149,
    "acName": "Gogunda",
    "partNumber": 65,
    "partName": "HATHANIYAVAL",
    "lat": 24.82305755,
    "lon": 73.4923040854755
  },
  {
    "partId": 96871,
    "stateCode": "S20",
    "stateName": "Rajasthan",
    "districtCode": "S2023",
    "districtName": "Udaipur",
    "acNumber": 149,
    "acName": "Gogunda",
    "partNumber": 66,
    "partName": "KATHAR",
    "lat": 24.8820178,
    "lon": 73.581748
  },
  {
    "partId": 96872,
    "stateCode": "S20",
    "stateName": "Rajasthan",
    "districtCode": "S2023",
    "districtName": "Udaipur",
    "acNumber": 149,
    "acName": "Gogunda",
    "partNumber": 67,
    "partName": "KATHAR",
    "lat": 24.8820178,
    "lon": 73.581748
  },
  {
    "partId": 96873,
    "stateCode": "S20",
    "stateName": "Rajasthan",
    "districtCode": "S2023",
    "districtName": "Udaipur",
    "acNumber": 149,
    "acName": "Gogunda",
    "partNumber": 68,
    "partName": "TULA",
    "lat": 24.82305755,
    "lon": 73.4923040854755
  },
  {
    "partId": 96874,
    "stateCode": "S20",
    "stateName": "Rajasthan",
    "districtCode": "S2023",
    "districtName": "Udaipur",
    "acNumber": 149,
    "acName": "Gogunda",
    "partNumber": 69,
    "partName": "JODHA KA TALAB",
    "lat": 24.82305755,
    "lon": 73.4923040854755
  },
  {
    "partId": 96875,
    "stateCode": "S20",
    "stateName": "Rajasthan",
    "districtCode": "S2023",
    "districtName": "Udaipur",
    "acNumber": 149,
    "acName": "Gogunda",
    "partNumber": 70,
    "partName": "VATI",
    "lat": 24.8682547,
    "lon": 73.6459172
  },
  {
    "partId": 96876,
    "stateCode": "S20",
    "stateName": "Rajasthan",
    "districtCode": "S2023",
    "districtName": "Udaipur",
    "acNumber": 149,
    "acName": "Gogunda",
    "partNumber": 71,
    "partName": "VATI",
    "lat": 24.8682547,
    "lon": 73.6459172
  },
  {
    "partId": 96877,
    "stateCode": "S20",
    "stateName": "Rajasthan",
    "districtCode": "S2023",
    "districtName": "Udaipur",
    "acNumber": 149,
    "acName": "Gogunda",
    "partNumber": 72,
    "partName": "KALODA",
    "lat": 24.8539254,
    "lon": 73.6699605
  },
  {
    "partId": 96878,
    "stateCode": "S20",
    "stateName": "Rajasthan",
    "districtCode": "S2023",
    "districtName": "Udaipur",
    "acNumber": 149,
    "acName": "Gogunda",
    "partNumber": 73,
    "partName": "KARANAJI KA GUDA",
    "lat": 24.82305755,
    "lon": 73.4923040854755
  },
  {
    "partId": 96879,
    "stateCode": "S20",
    "stateName": "Rajasthan",
    "districtCode": "S2023",
    "districtName": "Udaipur",
    "acNumber": 149,
    "acName": "Gogunda",
    "partNumber": 74,
    "partName": "KADMAL",
    "lat": 24.8460396,
    "lon": 73.6305213
  },
  {
    "partId": 96880,
    "stateCode": "S20",
    "stateName": "Rajasthan",
    "districtCode": "S2023",
    "districtName": "Udaipur",
    "acNumber": 149,
    "acName": "Gogunda",
    "partNumber": 75,
    "partName": "BAGELO KA GUDA",
    "lat": 24.82305755,
    "lon": 73.4923040854755
  },
  {
    "partId": 96881,
    "stateCode": "S20",
    "stateName": "Rajasthan",
    "districtCode": "S2023",
    "districtName": "Udaipur",
    "acNumber": 149,
    "acName": "Gogunda",
    "partNumber": 76,
    "partName": "GADARIYON KA GUDA",
    "lat": 24.82305755,
    "lon": 73.4923040854755
  },
  {
    "partId": 96882,
    "stateCode": "S20",
    "stateName": "Rajasthan",
    "districtCode": "S2023",
    "districtName": "Udaipur",
    "acNumber": 149,
    "acName": "Gogunda",
    "partNumber": 77,
    "partName": "MARUVAS",
    "lat": 24.82305755,
    "lon": 73.4923040854755
  },
  {
    "partId": 96883,
    "stateCode": "S20",
    "stateName": "Rajasthan",
    "districtCode": "S2023",
    "districtName": "Udaipur",
    "acNumber": 149,
    "acName": "Gogunda",
    "partNumber": 78,
    "partName": "PELI BHAGAL",
    "lat": 24.82305755,
    "lon": 73.4923040854755
  },
  {
    "partId": 96884,
    "stateCode": "S20",
    "stateName": "Rajasthan",
    "districtCode": "S2023",
    "districtName": "Udaipur",
    "acNumber": 149,
    "acName": "Gogunda",
    "partNumber": 79,
    "partName": "KUNDAL",
    "lat": 24.5115819,
    "lon": 73.30758234946225
  },
  {
    "partId": 96885,
    "stateCode": "S20",
    "stateName": "Rajasthan",
    "districtCode": "S2023",
    "districtName": "Udaipur",
    "acNumber": 149,
    "acName": "Gogunda",
    "partNumber": 80,
    "partName": "BAGADA",
    "lat": 24.8551715,
    "lon": 73.5430598
  },
  {
    "partId": 96886,
    "stateCode": "S20",
    "stateName": "Rajasthan",
    "districtCode": "S2023",
    "districtName": "Udaipur",
    "acNumber": 149,
    "acName": "Gogunda",
    "partNumber": 81,
    "partName": "AVANI",
    "lat": 24.839166,
    "lon": 73.5455543
  },
  {
    "partId": 96887,
    "stateCode": "S20",
    "stateName": "Rajasthan",
    "districtCode": "S2023",
    "districtName": "Udaipur",
    "acNumber": 149,
    "acName": "Gogunda",
    "partNumber": 82,
    "partName": "RAVALIYA KHURD",
    "lat": 24.8290398,
    "lon": 73.5196066
  },
  {
    "partId": 96888,
    "stateCode": "S20",
    "stateName": "Rajasthan",
    "districtCode": "S2023",
    "districtName": "Udaipur",
    "acNumber": 149,
    "acName": "Gogunda",
    "partNumber": 83,
    "partName": "RAVALIYA KHURD",
    "lat": 24.8290398,
    "lon": 73.5196066
  },
  {
    "partId": 96889,
    "stateCode": "S20",
    "stateName": "Rajasthan",
    "districtCode": "S2023",
    "districtName": "Udaipur",
    "acNumber": 149,
    "acName": "Gogunda",
    "partNumber": 84,
    "partName": "DINGARI",
    "lat": 24.8370045,
    "lon": 73.5088777
  },
  {
    "partId": 96890,
    "stateCode": "S20",
    "stateName": "Rajasthan",
    "districtCode": "S2023",
    "districtName": "Udaipur",
    "acNumber": 149,
    "acName": "Gogunda",
    "partNumber": 85,
    "partName": "BASANLIYA",
    "lat": 24.82305755,
    "lon": 73.4923040854755
  },
  {
    "partId": 96891,
    "stateCode": "S20",
    "stateName": "Rajasthan",
    "districtCode": "S2023",
    "districtName": "Udaipur",
    "acNumber": 149,
    "acName": "Gogunda",
    "partNumber": 86,
    "partName": "NANDESHMA",
    "lat": 24.8304614,
    "lon": 73.4657478
  },
  {
    "partId": 96892,
    "stateCode": "S20",
    "stateName": "Rajasthan",
    "districtCode": "S2023",
    "districtName": "Udaipur",
    "acNumber": 149,
    "acName": "Gogunda",
    "partNumber": 87,
    "partName": "NANDESHAMA",
    "lat": 24.82305755,
    "lon": 73.4923040854755
  },
  {
    "partId": 96893,
    "stateCode": "S20",
    "stateName": "Rajasthan",
    "districtCode": "S2023",
    "districtName": "Udaipur",
    "acNumber": 149,
    "acName": "Gogunda",
    "partNumber": 88,
    "partName": "NANDESHAMA",
    "lat": 24.82305755,
    "lon": 73.4923040854755
  },
  {
    "partId": 96894,
    "stateCode": "S20",
    "stateName": "Rajasthan",
    "districtCode": "S2023",
    "districtName": "Udaipur",
    "acNumber": 149,
    "acName": "Gogunda",
    "partNumber": 89,
    "partName": "SHOBHAVAS",
    "lat": 24.82305755,
    "lon": 73.4923040854755
  },
  {
    "partId": 96895,
    "stateCode": "S20",
    "stateName": "Rajasthan",
    "districtCode": "S2023",
    "districtName": "Udaipur",
    "acNumber": 149,
    "acName": "Gogunda",
    "partNumber": 90,
    "partName": "VER KI BHAGAL",
    "lat": 24.8086681,
    "lon": 73.4627437
  },
  {
    "partId": 96896,
    "stateCode": "S20",
    "stateName": "Rajasthan",
    "districtCode": "S2023",
    "districtName": "Udaipur",
    "acNumber": 149,
    "acName": "Gogunda",
    "partNumber": 91,
    "partName": "NAHARO KA GUDA",
    "lat": 24.82305755,
    "lon": 73.4923040854755
  },
  {
    "partId": 96897,
    "stateCode": "S20",
    "stateName": "Rajasthan",
    "districtCode": "S2023",
    "districtName": "Udaipur",
    "acNumber": 149,
    "acName": "Gogunda",
    "partNumber": 92,
    "partName": "SUWAWATON KA GUDA",
    "lat": 24.82305755,
    "lon": 73.4923040854755
  },
  {
    "partId": 96898,
    "stateCode": "S20",
    "stateName": "Rajasthan",
    "districtCode": "S2023",
    "districtName": "Udaipur",
    "acNumber": 149,
    "acName": "Gogunda",
    "partNumber": 93,
    "partName": "PANERIYO KI BHAGAL",
    "lat": 24.82305755,
    "lon": 73.4923040854755
  },
  {
    "partId": 96899,
    "stateCode": "S20",
    "stateName": "Rajasthan",
    "districtCode": "S2023",
    "districtName": "Udaipur",
    "acNumber": 149,
    "acName": "Gogunda",
    "partNumber": 94,
    "partName": "PALIDANA",
    "lat": 24.8312404,
    "lon": 73.4129834
  },
  {
    "partId": 96900,
    "stateCode": "S20",
    "stateName": "Rajasthan",
    "districtCode": "S2023",
    "districtName": "Udaipur",
    "acNumber": 149,
    "acName": "Gogunda",
    "partNumber": 95,
    "partName": "KUNDALAVAS",
    "lat": 24.7759679,
    "lon": 73.48566041745323
  },
  {
    "partId": 96901,
    "stateCode": "S20",
    "stateName": "Rajasthan",
    "districtCode": "S2023",
    "districtName": "Udaipur",
    "acNumber": 149,
    "acName": "Gogunda",
    "partNumber": 96,
    "partName": "RAVACHH",
    "lat": 24.7759679,
    "lon": 73.48566041745323
  },
  {
    "partId": 96902,
    "stateCode": "S20",
    "stateName": "Rajasthan",
    "districtCode": "S2023",
    "districtName": "Udaipur",
    "acNumber": 149,
    "acName": "Gogunda",
    "partNumber": 97,
    "partName": "RAVACHH",
    "lat": 24.82305755,
    "lon": 73.4923040854755
  },
  {
    "partId": 96903,
    "stateCode": "S20",
    "stateName": "Rajasthan",
    "districtCode": "S2023",
    "districtName": "Udaipur",
    "acNumber": 149,
    "acName": "Gogunda",
    "partNumber": 98,
    "partName": "KYAR KA KHET",
    "lat": 24.453502,
    "lon": 73.40704365943589
  },
  {
    "partId": 96904,
    "stateCode": "S20",
    "stateName": "Rajasthan",
    "districtCode": "S2023",
    "districtName": "Udaipur",
    "acNumber": 149,
    "acName": "Gogunda",
    "partNumber": 99,
    "partName": "REECHHWADA",
    "lat": 24.82305755,
    "lon": 73.4923040854755
  },
  {
    "partId": 96905,
    "stateCode": "S20",
    "stateName": "Rajasthan",
    "districtCode": "S2023",
    "districtName": "Udaipur",
    "acNumber": 149,
    "acName": "Gogunda",
    "partNumber": 100,
    "partName": "KADECH",
    "lat": 24.82305755,
    "lon": 73.4923040854755
  },
  {
    "partId": 96906,
    "stateCode": "S20",
    "stateName": "Rajasthan",
    "districtCode": "S2023",
    "districtName": "Udaipur",
    "acNumber": 149,
    "acName": "Gogunda",
    "partNumber": 101,
    "partName": "RAI",
    "lat": 24.8143224,
    "lon": 73.252991
  },
  {
    "partId": 96907,
    "stateCode": "S20",
    "stateName": "Rajasthan",
    "districtCode": "S2023",
    "districtName": "Udaipur",
    "acNumber": 149,
    "acName": "Gogunda",
    "partNumber": 102,
    "partName": "CHAMPA KI NAL",
    "lat": 24.8348424,
    "lon": 73.2627555
  },
  {
    "partId": 96908,
    "stateCode": "S20",
    "stateName": "Rajasthan",
    "districtCode": "S2023",
    "districtName": "Udaipur",
    "acNumber": 149,
    "acName": "Gogunda",
    "partNumber": 103,
    "partName": "MEVADON KA MATH",
    "lat": 24.82305755,
    "lon": 73.4923040854755
  },
  {
    "partId": 96909,
    "stateCode": "S20",
    "stateName": "Rajasthan",
    "districtCode": "S2023",
    "districtName": "Udaipur",
    "acNumber": 149,
    "acName": "Gogunda",
    "partNumber": 104,
    "partName": "MEVADON KA MATH",
    "lat": 24.82305755,
    "lon": 73.4923040854755
  },
  {
    "partId": 96910,
    "stateCode": "S20",
    "stateName": "Rajasthan",
    "districtCode": "S2023",
    "districtName": "Udaipur",
    "acNumber": 149,
    "acName": "Gogunda",
    "partNumber": 105,
    "partName": "MORAJARA",
    "lat": 24.82305755,
    "lon": 73.4923040854755
  },
  {
    "partId": 96911,
    "stateCode": "S20",
    "stateName": "Rajasthan",
    "districtCode": "S2023",
    "districtName": "Udaipur",
    "acNumber": 149,
    "acName": "Gogunda",
    "partNumber": 106,
    "partName": "BHUTAVAD",
    "lat": 24.82305755,
    "lon": 73.4923040854755
  },
  {
    "partId": 96912,
    "stateCode": "S20",
    "stateName": "Rajasthan",
    "districtCode": "S2023",
    "districtName": "Udaipur",
    "acNumber": 149,
    "acName": "Gogunda",
    "partNumber": 107,
    "partName": "RANESH JI",
    "lat": 24.82305755,
    "lon": 73.4923040854755
  },
  {
    "partId": 97089,
    "stateCode": "S20",
    "stateName": "Rajasthan",
    "districtCode": "S2023",
    "districtName": "Udaipur",
    "acNumber": 149,
    "acName": "Gogunda",
    "partNumber": 108,
    "partName": "Piplikhera",
    "lat": 24.82305755,
    "lon": 73.4923040854755
  },
  {
    "partId": 96913,
    "stateCode": "S20",
    "stateName": "Rajasthan",
    "districtCode": "S2023",
    "districtName": "Udaipur",
    "acNumber": 149,
    "acName": "Gogunda",
    "partNumber": 109,
    "partName": "BHANDAIR",
    "lat": 24.82305755,
    "lon": 73.4923040854755
  },
  {
    "partId": 96914,
    "stateCode": "S20",
    "stateName": "Rajasthan",
    "districtCode": "S2023",
    "districtName": "Udaipur",
    "acNumber": 149,
    "acName": "Gogunda",
    "partNumber": 110,
    "partName": "CHAMBUA",
    "lat": 24.82305755,
    "lon": 73.4923040854755
  },
  {
    "partId": 96915,
    "stateCode": "S20",
    "stateName": "Rajasthan",
    "districtCode": "S2023",
    "districtName": "Udaipur",
    "acNumber": 149,
    "acName": "Gogunda",
    "partNumber": 111,
    "partName": "UNKHALIYAT",
    "lat": 24.82305755,
    "lon": 73.4923040854755
  },
  {
    "partId": 96916,
    "stateCode": "S20",
    "stateName": "Rajasthan",
    "districtCode": "S2023",
    "districtName": "Udaipur",
    "acNumber": 149,
    "acName": "Gogunda",
    "partNumber": 112,
    "partName": "TARPAL",
    "lat": 24.8147644,
    "lon": 73.4297418
  },
  {
    "partId": 96917,
    "stateCode": "S20",
    "stateName": "Rajasthan",
    "districtCode": "S2023",
    "districtName": "Udaipur",
    "acNumber": 149,
    "acName": "Gogunda",
    "partNumber": 113,
    "partName": "TARPAL",
    "lat": 24.8147644,
    "lon": 73.4297418
  },
  {
    "partId": 96918,
    "stateCode": "S20",
    "stateName": "Rajasthan",
    "districtCode": "S2023",
    "districtName": "Udaipur",
    "acNumber": 149,
    "acName": "Gogunda",
    "partNumber": 114,
    "partName": "RAO MADADA",
    "lat": 24.82305755,
    "lon": 73.4923040854755
  },
  {
    "partId": 96919,
    "stateCode": "S20",
    "stateName": "Rajasthan",
    "districtCode": "S2023",
    "districtName": "Udaipur",
    "acNumber": 149,
    "acName": "Gogunda",
    "partNumber": 115,
    "partName": "MANNAJI KA GUDA",
    "lat": 24.82305755,
    "lon": 73.4923040854755
  },
  {
    "partId": 96920,
    "stateCode": "S20",
    "stateName": "Rajasthan",
    "districtCode": "S2023",
    "districtName": "Udaipur",
    "acNumber": 149,
    "acName": "Gogunda",
    "partNumber": 116,
    "partName": "SHRIMALIYO KI  MADADI",
    "lat": 24.82305755,
    "lon": 73.4923040854755
  },
  {
    "partId": 96921,
    "stateCode": "S20",
    "stateName": "Rajasthan",
    "districtCode": "S2023",
    "districtName": "Udaipur",
    "acNumber": 149,
    "acName": "Gogunda",
    "partNumber": 117,
    "partName": "JASWANTGARH",
    "lat": 24.7949022,
    "lon": 73.4616883
  },
  {
    "partId": 96922,
    "stateCode": "S20",
    "stateName": "Rajasthan",
    "districtCode": "S2023",
    "districtName": "Udaipur",
    "acNumber": 149,
    "acName": "Gogunda",
    "partNumber": 118,
    "partName": "JASWANTGARH",
    "lat": 24.7949022,
    "lon": 73.4616883
  },
  {
    "partId": 96923,
    "stateCode": "S20",
    "stateName": "Rajasthan",
    "districtCode": "S2023",
    "districtName": "Udaipur",
    "acNumber": 149,
    "acName": "Gogunda",
    "partNumber": 119,
    "partName": "JASWANTGARH",
    "lat": 24.7949022,
    "lon": 73.4616883
  },
  {
    "partId": 96924,
    "stateCode": "S20",
    "stateName": "Rajasthan",
    "districtCode": "S2023",
    "districtName": "Udaipur",
    "acNumber": 149,
    "acName": "Gogunda",
    "partNumber": 120,
    "partName": "CHALAVA",
    "lat": 24.82305755,
    "lon": 73.4923040854755
  },
  {
    "partId": 96925,
    "stateCode": "S20",
    "stateName": "Rajasthan",
    "districtCode": "S2023",
    "districtName": "Udaipur",
    "acNumber": 149,
    "acName": "Gogunda",
    "partNumber": 121,
    "partName": "OBARA KHURD",
    "lat": 24.82305755,
    "lon": 73.4923040854755
  },
  {
    "partId": 96926,
    "stateCode": "S20",
    "stateName": "Rajasthan",
    "districtCode": "S2023",
    "districtName": "Udaipur",
    "acNumber": 149,
    "acName": "Gogunda",
    "partNumber": 122,
    "partName": "OBARA KALA",
    "lat": 24.82305755,
    "lon": 73.4923040854755
  },
  {
    "partId": 96927,
    "stateCode": "S20",
    "stateName": "Rajasthan",
    "districtCode": "S2023",
    "districtName": "Udaipur",
    "acNumber": 149,
    "acName": "Gogunda",
    "partNumber": 123,
    "partName": "OBARA KALA",
    "lat": 24.82305755,
    "lon": 73.4923040854755
  },
  {
    "partId": 96928,
    "stateCode": "S20",
    "stateName": "Rajasthan",
    "districtCode": "S2023",
    "districtName": "Udaipur",
    "acNumber": 149,
    "acName": "Gogunda",
    "partNumber": 124,
    "partName": "RAVALIYA KALAN",
    "lat": 24.8151344,
    "lon": 73.5272992
  },
  {
    "partId": 96929,
    "stateCode": "S20",
    "stateName": "Rajasthan",
    "districtCode": "S2023",
    "districtName": "Udaipur",
    "acNumber": 149,
    "acName": "Gogunda",
    "partNumber": 125,
    "partName": "RAVALIYA KALAN",
    "lat": 24.8151344,
    "lon": 73.5272992
  },
  {
    "partId": 96930,
    "stateCode": "S20",
    "stateName": "Rajasthan",
    "districtCode": "S2023",
    "districtName": "Udaipur",
    "acNumber": 149,
    "acName": "Gogunda",
    "partNumber": 126,
    "partName": "CHHIPALA",
    "lat": 24.82305755,
    "lon": 73.4923040854755
  },
  {
    "partId": 96931,
    "stateCode": "S20",
    "stateName": "Rajasthan",
    "districtCode": "S2023",
    "districtName": "Udaipur",
    "acNumber": 149,
    "acName": "Gogunda",
    "partNumber": 127,
    "partName": "PANCHAVATO KI BHAGAL",
    "lat": 24.82305755,
    "lon": 73.4923040854755
  },
  {
    "partId": 96932,
    "stateCode": "S20",
    "stateName": "Rajasthan",
    "districtCode": "S2023",
    "districtName": "Udaipur",
    "acNumber": 149,
    "acName": "Gogunda",
    "partNumber": 128,
    "partName": "NETAVATON KI BHAGAL",
    "lat": 24.8717589,
    "lon": 73.5956526
  },
  {
    "partId": 96933,
    "stateCode": "S20",
    "stateName": "Rajasthan",
    "districtCode": "S2023",
    "districtName": "Udaipur",
    "acNumber": 149,
    "acName": "Gogunda",
    "partNumber": 129,
    "partName": "AMARAJI KA GUDA",
    "lat": 24.82305755,
    "lon": 73.4923040854755
  },
  {
    "partId": 96934,
    "stateCode": "S20",
    "stateName": "Rajasthan",
    "districtCode": "S2023",
    "districtName": "Udaipur",
    "acNumber": 149,
    "acName": "Gogunda",
    "partNumber": 130,
    "partName": "SANGATH",
    "lat": 24.8301888,
    "lon": 73.6399841
  },
  {
    "partId": 96935,
    "stateCode": "S20",
    "stateName": "Rajasthan",
    "districtCode": "S2023",
    "districtName": "Udaipur",
    "acNumber": 149,
    "acName": "Gogunda",
    "partNumber": 131,
    "partName": "PIPAD",
    "lat": 24.82305755,
    "lon": 73.4923040854755
  },
  {
    "partId": 96936,
    "stateCode": "S20",
    "stateName": "Rajasthan",
    "districtCode": "S2023",
    "districtName": "Udaipur",
    "acNumber": 149,
    "acName": "Gogunda",
    "partNumber": 132,
    "partName": "LOSING",
    "lat": 24.7956955,
    "lon": 73.6267662
  },
  {
    "partId": 96937,
    "stateCode": "S20",
    "stateName": "Rajasthan",
    "districtCode": "S2023",
    "districtName": "Udaipur",
    "acNumber": 149,
    "acName": "Gogunda",
    "partNumber": 133,
    "partName": "LOSING",
    "lat": 24.7956955,
    "lon": 73.6267662
  },
  {
    "partId": 96938,
    "stateCode": "S20",
    "stateName": "Rajasthan",
    "districtCode": "S2023",
    "districtName": "Udaipur",
    "acNumber": 149,
    "acName": "Gogunda",
    "partNumber": 134,
    "partName": "BHUTALA",
    "lat": 24.8028052,
    "lon": 73.5917258
  },
  {
    "partId": 96939,
    "stateCode": "S20",
    "stateName": "Rajasthan",
    "districtCode": "S2023",
    "districtName": "Udaipur",
    "acNumber": 149,
    "acName": "Gogunda",
    "partNumber": 135,
    "partName": "VAS",
    "lat": 24.5665619,
    "lon": 73.379606
  },
  {
    "partId": 96940,
    "stateCode": "S20",
    "stateName": "Rajasthan",
    "districtCode": "S2023",
    "districtName": "Udaipur",
    "acNumber": 149,
    "acName": "Gogunda",
    "partNumber": 136,
    "partName": "HIRAVATON KI BHAGAL",
    "lat": 24.82305755,
    "lon": 73.4923040854755
  },
  {
    "partId": 96941,
    "stateCode": "S20",
    "stateName": "Rajasthan",
    "districtCode": "S2023",
    "districtName": "Udaipur",
    "acNumber": 149,
    "acName": "Gogunda",
    "partNumber": 137,
    "partName": "MODI",
    "lat": 24.5842806,
    "lon": 73.9751959
  },
  {
    "partId": 96942,
    "stateCode": "S20",
    "stateName": "Rajasthan",
    "districtCode": "S2023",
    "districtName": "Udaipur",
    "acNumber": 149,
    "acName": "Gogunda",
    "partNumber": 138,
    "partName": "MODI",
    "lat": 24.5842806,
    "lon": 73.9751959
  },
  {
    "partId": 96943,
    "stateCode": "S20",
    "stateName": "Rajasthan",
    "districtCode": "S2023",
    "districtName": "Udaipur",
    "acNumber": 149,
    "acName": "Gogunda",
    "partNumber": 139,
    "partName": "VANI",
    "lat": 24.7718503,
    "lon": 73.5372233
  },
  {
    "partId": 96944,
    "stateCode": "S20",
    "stateName": "Rajasthan",
    "districtCode": "S2023",
    "districtName": "Udaipur",
    "acNumber": 149,
    "acName": "Gogunda",
    "partNumber": 140,
    "partName": "SEMATAL",
    "lat": 24.7759679,
    "lon": 73.48566041745323
  },
  {
    "partId": 96945,
    "stateCode": "S20",
    "stateName": "Rajasthan",
    "districtCode": "S2023",
    "districtName": "Udaipur",
    "acNumber": 149,
    "acName": "Gogunda",
    "partNumber": 141,
    "partName": "MAJAWARI",
    "lat": 24.7667066,
    "lon": 73.5108304
  },
  {
    "partId": 96946,
    "stateCode": "S20",
    "stateName": "Rajasthan",
    "districtCode": "S2023",
    "districtName": "Udaipur",
    "acNumber": 149,
    "acName": "Gogunda",
    "partNumber": 142,
    "partName": "MAJAWARI",
    "lat": 24.7667066,
    "lon": 73.5108304
  },
  {
    "partId": 96947,
    "stateCode": "S20",
    "stateName": "Rajasthan",
    "districtCode": "S2023",
    "districtName": "Udaipur",
    "acNumber": 149,
    "acName": "Gogunda",
    "partNumber": 143,
    "partName": "KHAKHADI",
    "lat": 24.7781627,
    "lon": 73.4958744
  },
  {
    "partId": 96948,
    "stateCode": "S20",
    "stateName": "Rajasthan",
    "districtCode": "S2023",
    "districtName": "Udaipur",
    "acNumber": 149,
    "acName": "Gogunda",
    "partNumber": 144,
    "partName": "SURAN",
    "lat": 24.761251,
    "lon": 73.4479594
  },
  {
    "partId": 96949,
    "stateCode": "S20",
    "stateName": "Rajasthan",
    "districtCode": "S2023",
    "districtName": "Udaipur",
    "acNumber": 149,
    "acName": "Gogunda",
    "partNumber": 145,
    "partName": "JHUNJHARAPURA",
    "lat": 24.82305755,
    "lon": 73.4923040854755
  },
  {
    "partId": 96950,
    "stateCode": "S20",
    "stateName": "Rajasthan",
    "districtCode": "S2023",
    "districtName": "Udaipur",
    "acNumber": 149,
    "acName": "Gogunda",
    "partNumber": 146,
    "partName": "JHADOLI",
    "lat": 24.7852102,
    "lon": 73.4316838
  },
  {
    "partId": 96951,
    "stateCode": "S20",
    "stateName": "Rajasthan",
    "districtCode": "S2023",
    "districtName": "Udaipur",
    "acNumber": 149,
    "acName": "Gogunda",
    "partNumber": 147,
    "partName": "UPALAVAS",
    "lat": 24.82305755,
    "lon": 73.4923040854755
  },
  {
    "partId": 96952,
    "stateCode": "S20",
    "stateName": "Rajasthan",
    "districtCode": "S2023",
    "districtName": "Udaipur",
    "acNumber": 149,
    "acName": "Gogunda",
    "partNumber": 148,
    "partName": "SEMALATHALA",
    "lat": 24.82305755,
    "lon": 73.4923040854755
  },
  {
    "partId": 96953,
    "stateCode": "S20",
    "stateName": "Rajasthan",
    "districtCode": "S2023",
    "districtName": "Udaipur",
    "acNumber": 149,
    "acName": "Gogunda",
    "partNumber": 149,
    "partName": "MALAVA KA CHAURA",
    "lat": 24.82305755,
    "lon": 73.4923040854755
  },
  {
    "partId": 96954,
    "stateCode": "S20",
    "stateName": "Rajasthan",
    "districtCode": "S2023",
    "districtName": "Udaipur",
    "acNumber": 149,
    "acName": "Gogunda",
    "partNumber": 150,
    "partName": "MALAVA KA CHAURA",
    "lat": 24.82305755,
    "lon": 73.4923040854755
  },
  {
    "partId": 96955,
    "stateCode": "S20",
    "stateName": "Rajasthan",
    "districtCode": "S2023",
    "districtName": "Udaipur",
    "acNumber": 149,
    "acName": "Gogunda",
    "partNumber": 151,
    "partName": "SALARIYA",
    "lat": 24.82305755,
    "lon": 73.4923040854755
  },
  {
    "partId": 96956,
    "stateCode": "S20",
    "stateName": "Rajasthan",
    "districtCode": "S2023",
    "districtName": "Udaipur",
    "acNumber": 149,
    "acName": "Gogunda",
    "partNumber": 152,
    "partName": "DANG",
    "lat": 24.765395,
    "lon": 73.2890881
  },
  {
    "partId": 96957,
    "stateCode": "S20",
    "stateName": "Rajasthan",
    "districtCode": "S2023",
    "districtName": "Udaipur",
    "acNumber": 149,
    "acName": "Gogunda",
    "partNumber": 153,
    "partName": "BERAN",
    "lat": 24.7669599,
    "lon": 73.2428992
  },
  {
    "partId": 96958,
    "stateCode": "S20",
    "stateName": "Rajasthan",
    "districtCode": "S2023",
    "districtName": "Udaipur",
    "acNumber": 149,
    "acName": "Gogunda",
    "partNumber": 154,
    "partName": "BERAN",
    "lat": 24.7669599,
    "lon": 73.2428992
  },
  {
    "partId": 96959,
    "stateCode": "S20",
    "stateName": "Rajasthan",
    "districtCode": "S2023",
    "districtName": "Udaipur",
    "acNumber": 149,
    "acName": "Gogunda",
    "partNumber": 155,
    "partName": "KHILA",
    "lat": 24.7758729,
    "lon": 73.2231434
  },
  {
    "partId": 96960,
    "stateCode": "S20",
    "stateName": "Rajasthan",
    "districtCode": "S2023",
    "districtName": "Udaipur",
    "acNumber": 149,
    "acName": "Gogunda",
    "partNumber": 156,
    "partName": "TEJA KA VAS",
    "lat": 24.82305755,
    "lon": 73.4923040854755
  },
  {
    "partId": 96961,
    "stateCode": "S20",
    "stateName": "Rajasthan",
    "districtCode": "S2023",
    "districtName": "Udaipur",
    "acNumber": 149,
    "acName": "Gogunda",
    "partNumber": 157,
    "partName": "TEJA KA VAS",
    "lat": 24.82305755,
    "lon": 73.4923040854755
  },
  {
    "partId": 96962,
    "stateCode": "S20",
    "stateName": "Rajasthan",
    "districtCode": "S2023",
    "districtName": "Udaipur",
    "acNumber": 149,
    "acName": "Gogunda",
    "partNumber": 158,
    "partName": "LAUHARACHA",
    "lat": 24.82305755,
    "lon": 73.4923040854755
  },
  {
    "partId": 96963,
    "stateCode": "S20",
    "stateName": "Rajasthan",
    "districtCode": "S2023",
    "districtName": "Udaipur",
    "acNumber": 149,
    "acName": "Gogunda",
    "partNumber": 159,
    "partName": "LAUHARACHA",
    "lat": 24.82305755,
    "lon": 73.4923040854755
  },
  {
    "partId": 96964,
    "stateCode": "S20",
    "stateName": "Rajasthan",
    "districtCode": "S2023",
    "districtName": "Udaipur",
    "acNumber": 149,
    "acName": "Gogunda",
    "partNumber": 160,
    "partName": "BEKARIYA",
    "lat": 24.7081385,
    "lon": 73.2144409
  },
  {
    "partId": 96965,
    "stateCode": "S20",
    "stateName": "Rajasthan",
    "districtCode": "S2023",
    "districtName": "Udaipur",
    "acNumber": 149,
    "acName": "Gogunda",
    "partNumber": 161,
    "partName": "BEKARIYA",
    "lat": 24.7081385,
    "lon": 73.2144409
  },
  {
    "partId": 96966,
    "stateCode": "S20",
    "stateName": "Rajasthan",
    "districtCode": "S2023",
    "districtName": "Udaipur",
    "acNumber": 149,
    "acName": "Gogunda",
    "partNumber": 162,
    "partName": "PILAKA",
    "lat": 24.82305755,
    "lon": 73.4923040854755
  },
  {
    "partId": 96967,
    "stateCode": "S20",
    "stateName": "Rajasthan",
    "districtCode": "S2023",
    "districtName": "Udaipur",
    "acNumber": 149,
    "acName": "Gogunda",
    "partNumber": 163,
    "partName": "BANKAVAS",
    "lat": 24.82305755,
    "lon": 73.4923040854755
  },
  {
    "partId": 96968,
    "stateCode": "S20",
    "stateName": "Rajasthan",
    "districtCode": "S2023",
    "districtName": "Udaipur",
    "acNumber": 149,
    "acName": "Gogunda",
    "partNumber": 164,
    "partName": "GOGRUD",
    "lat": 24.7274986,
    "lon": 73.2718348
  },
  {
    "partId": 96969,
    "stateCode": "S20",
    "stateName": "Rajasthan",
    "districtCode": "S2023",
    "districtName": "Udaipur",
    "acNumber": 149,
    "acName": "Gogunda",
    "partNumber": 165,
    "partName": "DEOLA",
    "lat": 24.51084315,
    "lon": 73.47579460809278
  },
  {
    "partId": 96970,
    "stateCode": "S20",
    "stateName": "Rajasthan",
    "districtCode": "S2023",
    "districtName": "Udaipur",
    "acNumber": 149,
    "acName": "Gogunda",
    "partNumber": 166,
    "partName": "GHATA",
    "lat": 24.3618262,
    "lon": 73.3388793
  },
  {
    "partId": 96971,
    "stateCode": "S20",
    "stateName": "Rajasthan",
    "districtCode": "S2023",
    "districtName": "Udaipur",
    "acNumber": 149,
    "acName": "Gogunda",
    "partNumber": 167,
    "partName": "GHATA",
    "lat": 24.3618262,
    "lon": 73.3388793
  },
  {
    "partId": 96972,
    "stateCode": "S20",
    "stateName": "Rajasthan",
    "districtCode": "S2023",
    "districtName": "Udaipur",
    "acNumber": 149,
    "acName": "Gogunda",
    "partNumber": 168,
    "partName": "PIPARMAL",
    "lat": 24.82305755,
    "lon": 73.4923040854755
  },
  {
    "partId": 96973,
    "stateCode": "S20",
    "stateName": "Rajasthan",
    "districtCode": "S2023",
    "districtName": "Udaipur",
    "acNumber": 149,
    "acName": "Gogunda",
    "partNumber": 169,
    "partName": "PALACHHA",
    "lat": 24.82305755,
    "lon": 73.4923040854755
  },
  {
    "partId": 96974,
    "stateCode": "S20",
    "stateName": "Rajasthan",
    "districtCode": "S2023",
    "districtName": "Udaipur",
    "acNumber": 149,
    "acName": "Gogunda",
    "partNumber": 170,
    "partName": "INTON KA KHET",
    "lat": 24.82305755,
    "lon": 73.4923040854755
  },
  {
    "partId": 96975,
    "stateCode": "S20",
    "stateName": "Rajasthan",
    "districtCode": "S2023",
    "districtName": "Udaipur",
    "acNumber": 149,
    "acName": "Gogunda",
    "partNumber": 171,
    "partName": "SHIVADIYA",
    "lat": 24.453502,
    "lon": 73.40704365943589
  },
  {
    "partId": 96976,
    "stateCode": "S20",
    "stateName": "Rajasthan",
    "districtCode": "S2023",
    "districtName": "Udaipur",
    "acNumber": 149,
    "acName": "Gogunda",
    "partNumber": 172,
    "partName": "DADIYA",
    "lat": 24.82305755,
    "lon": 73.4923040854755
  },
  {
    "partId": 96977,
    "stateCode": "S20",
    "stateName": "Rajasthan",
    "districtCode": "S2023",
    "districtName": "Udaipur",
    "acNumber": 149,
    "acName": "Gogunda",
    "partNumber": 173,
    "partName": "DADIYA",
    "lat": 24.453502,
    "lon": 73.40704365943589
  },
  {
    "partId": 96978,
    "stateCode": "S20",
    "stateName": "Rajasthan",
    "districtCode": "S2023",
    "districtName": "Udaipur",
    "acNumber": 149,
    "acName": "Gogunda",
    "partNumber": 174,
    "partName": "GOGUNDA",
    "lat": 24.82305755,
    "lon": 73.4923040854755
  },
  {
    "partId": 96979,
    "stateCode": "S20",
    "stateName": "Rajasthan",
    "districtCode": "S2023",
    "districtName": "Udaipur",
    "acNumber": 149,
    "acName": "Gogunda",
    "partNumber": 175,
    "partName": "GOGUNDA",
    "lat": 24.453502,
    "lon": 73.40704365943589
  },
  {
    "partId": 96980,
    "stateCode": "S20",
    "stateName": "Rajasthan",
    "districtCode": "S2023",
    "districtName": "Udaipur",
    "acNumber": 149,
    "acName": "Gogunda",
    "partNumber": 176,
    "partName": "GOGUNDA",
    "lat": 24.82305755,
    "lon": 73.4923040854755
  },
  {
    "partId": 96981,
    "stateCode": "S20",
    "stateName": "Rajasthan",
    "districtCode": "S2023",
    "districtName": "Udaipur",
    "acNumber": 149,
    "acName": "Gogunda",
    "partNumber": 177,
    "partName": "GOGUNDA",
    "lat": 24.82305755,
    "lon": 73.4923040854755
  },
  {
    "partId": 96982,
    "stateCode": "S20",
    "stateName": "Rajasthan",
    "districtCode": "S2023",
    "districtName": "Udaipur",
    "acNumber": 149,
    "acName": "Gogunda",
    "partNumber": 178,
    "partName": "GOGUNDA",
    "lat": 24.82305755,
    "lon": 73.4923040854755
  },
  {
    "partId": 96983,
    "stateCode": "S20",
    "stateName": "Rajasthan",
    "districtCode": "S2023",
    "districtName": "Udaipur",
    "acNumber": 149,
    "acName": "Gogunda",
    "partNumber": 179,
    "partName": "GOGUNDA",
    "lat": 24.82305755,
    "lon": 73.4923040854755
  },
  {
    "partId": 96984,
    "stateCode": "S20",
    "stateName": "Rajasthan",
    "districtCode": "S2023",
    "districtName": "Udaipur",
    "acNumber": 149,
    "acName": "Gogunda",
    "partNumber": 180,
    "partName": "CHATIYA KHEDI",
    "lat": 24.453502,
    "lon": 73.40704365943589
  },
  {
    "partId": 96985,
    "stateCode": "S20",
    "stateName": "Rajasthan",
    "districtCode": "S2023",
    "districtName": "Udaipur",
    "acNumber": 149,
    "acName": "Gogunda",
    "partNumber": 181,
    "partName": "PHUTIYA",
    "lat": 24.7564186,
    "lon": 73.5512996
  },
  {
    "partId": 96986,
    "stateCode": "S20",
    "stateName": "Rajasthan",
    "districtCode": "S2023",
    "districtName": "Udaipur",
    "acNumber": 149,
    "acName": "Gogunda",
    "partNumber": 182,
    "partName": "VIJAY BAVADI",
    "lat": 24.82305755,
    "lon": 73.4923040854755
  },
  {
    "partId": 96987,
    "stateCode": "S20",
    "stateName": "Rajasthan",
    "districtCode": "S2023",
    "districtName": "Udaipur",
    "acNumber": 149,
    "acName": "Gogunda",
    "partNumber": 183,
    "partName": "DULAWATO KA GUDA",
    "lat": 24.82305755,
    "lon": 73.4923040854755
  },
  {
    "partId": 96988,
    "stateCode": "S20",
    "stateName": "Rajasthan",
    "districtCode": "S2023",
    "districtName": "Udaipur",
    "acNumber": 149,
    "acName": "Gogunda",
    "partNumber": 184,
    "partName": "MORIYO KI KADIYA",
    "lat": 24.7707202,
    "lon": 73.6273455
  },
  {
    "partId": 96989,
    "stateCode": "S20",
    "stateName": "Rajasthan",
    "districtCode": "S2023",
    "districtName": "Udaipur",
    "acNumber": 149,
    "acName": "Gogunda",
    "partNumber": 185,
    "partName": "KUMAVATO KA GUDA",
    "lat": 24.82305755,
    "lon": 73.4923040854755
  },
  {
    "partId": 96990,
    "stateCode": "S20",
    "stateName": "Rajasthan",
    "districtCode": "S2023",
    "districtName": "Udaipur",
    "acNumber": 149,
    "acName": "Gogunda",
    "partNumber": 186,
    "partName": "SHRIMALIYO KI KADIYA",
    "lat": 24.82305755,
    "lon": 73.4923040854755
  },
  {
    "partId": 96991,
    "stateCode": "S20",
    "stateName": "Rajasthan",
    "districtCode": "S2023",
    "districtName": "Udaipur",
    "acNumber": 149,
    "acName": "Gogunda",
    "partNumber": 187,
    "partName": "MADARADA",
    "lat": 24.82305755,
    "lon": 73.4923040854755
  },
  {
    "partId": 96992,
    "stateCode": "S20",
    "stateName": "Rajasthan",
    "districtCode": "S2023",
    "districtName": "Udaipur",
    "acNumber": 149,
    "acName": "Gogunda",
    "partNumber": 188,
    "partName": "ISWAL",
    "lat": 24.7331701,
    "lon": 73.6233115
  },
  {
    "partId": 97090,
    "stateCode": "S20",
    "stateName": "Rajasthan",
    "districtCode": "S2023",
    "districtName": "Udaipur",
    "acNumber": 149,
    "acName": "Gogunda",
    "partNumber": 189,
    "partName": "Iswal",
    "lat": 24.453502,
    "lon": 73.40704365943589
  },
  {
    "partId": 96993,
    "stateCode": "S20",
    "stateName": "Rajasthan",
    "districtCode": "S2023",
    "districtName": "Udaipur",
    "acNumber": 149,
    "acName": "Gogunda",
    "partNumber": 190,
    "partName": "KHUMANAPURA",
    "lat": 24.82305755,
    "lon": 73.4923040854755
  },
  {
    "partId": 96994,
    "stateCode": "S20",
    "stateName": "Rajasthan",
    "districtCode": "S2023",
    "districtName": "Udaipur",
    "acNumber": 149,
    "acName": "Gogunda",
    "partNumber": 191,
    "partName": "SELU",
    "lat": 24.82305755,
    "lon": 73.4923040854755
  },
  {
    "partId": 96995,
    "stateCode": "S20",
    "stateName": "Rajasthan",
    "districtCode": "S2023",
    "districtName": "Udaipur",
    "acNumber": 149,
    "acName": "Gogunda",
    "partNumber": 192,
    "partName": "JHALO KA GUDA",
    "lat": 24.82305755,
    "lon": 73.4923040854755
  },
  {
    "partId": 96996,
    "stateCode": "S20",
    "stateName": "Rajasthan",
    "districtCode": "S2023",
    "districtName": "Udaipur",
    "acNumber": 149,
    "acName": "Gogunda",
    "partNumber": 193,
    "partName": "RAMA",
    "lat": 24.7287654,
    "lon": 73.683393
  },
  {
    "partId": 96997,
    "stateCode": "S20",
    "stateName": "Rajasthan",
    "districtCode": "S2023",
    "districtName": "Udaipur",
    "acNumber": 149,
    "acName": "Gogunda",
    "partNumber": 194,
    "partName": "RAMA",
    "lat": 24.7287654,
    "lon": 73.683393
  },
  {
    "partId": 96998,
    "stateCode": "S20",
    "stateName": "Rajasthan",
    "districtCode": "S2023",
    "districtName": "Udaipur",
    "acNumber": 149,
    "acName": "Gogunda",
    "partNumber": 195,
    "partName": "RAMA",
    "lat": 24.7287654,
    "lon": 73.683393
  },
  {
    "partId": 96999,
    "stateCode": "S20",
    "stateName": "Rajasthan",
    "districtCode": "S2023",
    "districtName": "Udaipur",
    "acNumber": 149,
    "acName": "Gogunda",
    "partNumber": 196,
    "partName": "PARAYA KI BHAGAL",
    "lat": 24.82305755,
    "lon": 73.4923040854755
  },
  {
    "partId": 97000,
    "stateCode": "S20",
    "stateName": "Rajasthan",
    "districtCode": "S2023",
    "districtName": "Udaipur",
    "acNumber": 149,
    "acName": "Gogunda",
    "partNumber": 197,
    "partName": "JHINDOLI",
    "lat": 24.7141276,
    "lon": 73.656764
  },
  {
    "partId": 97001,
    "stateCode": "S20",
    "stateName": "Rajasthan",
    "districtCode": "S2023",
    "districtName": "Udaipur",
    "acNumber": 149,
    "acName": "Gogunda",
    "partNumber": 198,
    "partName": "BHADAVI GUDA",
    "lat": 24.453502,
    "lon": 73.40704365943589
  },
  {
    "partId": 97002,
    "stateCode": "S20",
    "stateName": "Rajasthan",
    "districtCode": "S2023",
    "districtName": "Udaipur",
    "acNumber": 149,
    "acName": "Gogunda",
    "partNumber": 199,
    "partName": "MAJAM",
    "lat": 24.6985133,
    "lon": 73.5440254
  },
  {
    "partId": 97003,
    "stateCode": "S20",
    "stateName": "Rajasthan",
    "districtCode": "S2023",
    "districtName": "Udaipur",
    "acNumber": 149,
    "acName": "Gogunda",
    "partNumber": 200,
    "partName": "JOGIYO KA GUDA",
    "lat": 24.82305755,
    "lon": 73.4923040854755
  },
  {
    "partId": 97004,
    "stateCode": "S20",
    "stateName": "Rajasthan",
    "districtCode": "S2023",
    "districtName": "Udaipur",
    "acNumber": 149,
    "acName": "Gogunda",
    "partNumber": 201,
    "partName": "GHATA",
    "lat": 24.3618262,
    "lon": 73.3388793
  },
  {
    "partId": 97005,
    "stateCode": "S20",
    "stateName": "Rajasthan",
    "districtCode": "S2023",
    "districtName": "Udaipur",
    "acNumber": 149,
    "acName": "Gogunda",
    "partNumber": 202,
    "partName": "BHARODI",
    "lat": 24.6933081,
    "lon": 73.5113132
  },
  {
    "partId": 97006,
    "stateCode": "S20",
    "stateName": "Rajasthan",
    "districtCode": "S2023",
    "districtName": "Udaipur",
    "acNumber": 149,
    "acName": "Gogunda",
    "partNumber": 203,
    "partName": "KACHHABA",
    "lat": 24.82305755,
    "lon": 73.4923040854755
  },
  {
    "partId": 97007,
    "stateCode": "S20",
    "stateName": "Rajasthan",
    "districtCode": "S2023",
    "districtName": "Udaipur",
    "acNumber": 149,
    "acName": "Gogunda",
    "partNumber": 204,
    "partName": "BHAT",
    "lat": 24.453502,
    "lon": 73.40704365943589
  },
  {
    "partId": 97008,
    "stateCode": "S20",
    "stateName": "Rajasthan",
    "districtCode": "S2023",
    "districtName": "Udaipur",
    "acNumber": 149,
    "acName": "Gogunda",
    "partNumber": 205,
    "partName": "RANA",
    "lat": 24.7398986,
    "lon": 73.5199177
  },
  {
    "partId": 97009,
    "stateCode": "S20",
    "stateName": "Rajasthan",
    "districtCode": "S2023",
    "districtName": "Udaipur",
    "acNumber": 149,
    "acName": "Gogunda",
    "partNumber": 206,
    "partName": "MOKHI",
    "lat": 24.7162053,
    "lon": 73.4997616
  },
  {
    "partId": 97010,
    "stateCode": "S20",
    "stateName": "Rajasthan",
    "districtCode": "S2023",
    "districtName": "Udaipur",
    "acNumber": 149,
    "acName": "Gogunda",
    "partNumber": 207,
    "partName": "AMBAVA",
    "lat": 24.82305755,
    "lon": 73.4923040854755
  },
  {
    "partId": 97011,
    "stateCode": "S20",
    "stateName": "Rajasthan",
    "districtCode": "S2023",
    "districtName": "Udaipur",
    "acNumber": 149,
    "acName": "Gogunda",
    "partNumber": 208,
    "partName": "PADELO KA CHAURA",
    "lat": 24.82305755,
    "lon": 73.4923040854755
  },
  {
    "partId": 97012,
    "stateCode": "S20",
    "stateName": "Rajasthan",
    "districtCode": "S2023",
    "districtName": "Udaipur",
    "acNumber": 149,
    "acName": "Gogunda",
    "partNumber": 209,
    "partName": "GOGRUD (PIPALA)",
    "lat": 24.82305755,
    "lon": 73.4923040854755
  },
  {
    "partId": 97013,
    "stateCode": "S20",
    "stateName": "Rajasthan",
    "districtCode": "S2023",
    "districtName": "Udaipur",
    "acNumber": 149,
    "acName": "Gogunda",
    "partNumber": 210,
    "partName": "MINI MAHUDI",
    "lat": 24.82305755,
    "lon": 73.4923040854755
  },
  {
    "partId": 97014,
    "stateCode": "S20",
    "stateName": "Rajasthan",
    "districtCode": "S2023",
    "districtName": "Udaipur",
    "acNumber": 149,
    "acName": "Gogunda",
    "partNumber": 211,
    "partName": "KYARI",
    "lat": 24.6958011,
    "lon": 73.1604561
  },
  {
    "partId": 97015,
    "stateCode": "S20",
    "stateName": "Rajasthan",
    "districtCode": "S2023",
    "districtName": "Udaipur",
    "acNumber": 149,
    "acName": "Gogunda",
    "partNumber": 212,
    "partName": "KADA",
    "lat": 24.453502,
    "lon": 73.40704365943589
  },
  {
    "partId": 97016,
    "stateCode": "S20",
    "stateName": "Rajasthan",
    "districtCode": "S2023",
    "districtName": "Udaipur",
    "acNumber": 149,
    "acName": "Gogunda",
    "partNumber": 213,
    "partName": "MALVIYA",
    "lat": 24.6520293,
    "lon": 73.2378244
  },
  {
    "partId": 97017,
    "stateCode": "S20",
    "stateName": "Rajasthan",
    "districtCode": "S2023",
    "districtName": "Udaipur",
    "acNumber": 149,
    "acName": "Gogunda",
    "partNumber": 214,
    "partName": "MERPUR",
    "lat": 24.82305755,
    "lon": 73.4923040854755
  },
  {
    "partId": 97018,
    "stateCode": "S20",
    "stateName": "Rajasthan",
    "districtCode": "S2023",
    "districtName": "Udaipur",
    "acNumber": 149,
    "acName": "Gogunda",
    "partNumber": 215,
    "partName": "PAVATI KALAN",
    "lat": 24.82305755,
    "lon": 73.4923040854755
  },
  {
    "partId": 97019,
    "stateCode": "S20",
    "stateName": "Rajasthan",
    "districtCode": "S2023",
    "districtName": "Udaipur",
    "acNumber": 149,
    "acName": "Gogunda",
    "partNumber": 216,
    "partName": "KHAM ( PAVATI )",
    "lat": 24.82305755,
    "lon": 73.4923040854755
  },
  {
    "partId": 97020,
    "stateCode": "S20",
    "stateName": "Rajasthan",
    "districtCode": "S2023",
    "districtName": "Udaipur",
    "acNumber": 149,
    "acName": "Gogunda",
    "partNumber": 217,
    "partName": "GURA",
    "lat": 24.7591466,
    "lon": 73.6269057
  },
  {
    "partId": 97021,
    "stateCode": "S20",
    "stateName": "Rajasthan",
    "districtCode": "S2023",
    "districtName": "Udaipur",
    "acNumber": 149,
    "acName": "Gogunda",
    "partNumber": 218,
    "partName": "CHIBARAVADI",
    "lat": 24.82305755,
    "lon": 73.4923040854755
  },
  {
    "partId": 97022,
    "stateCode": "S20",
    "stateName": "Rajasthan",
    "districtCode": "S2023",
    "districtName": "Udaipur",
    "acNumber": 149,
    "acName": "Gogunda",
    "partNumber": 219,
    "partName": "KALIM",
    "lat": 24.82305755,
    "lon": 73.4923040854755
  },
  {
    "partId": 97023,
    "stateCode": "S20",
    "stateName": "Rajasthan",
    "districtCode": "S2023",
    "districtName": "Udaipur",
    "acNumber": 149,
    "acName": "Gogunda",
    "partNumber": 220,
    "partName": "TEPUR",
    "lat": 24.6322625,
    "lon": 73.2992631
  },
  {
    "partId": 97024,
    "stateCode": "S20",
    "stateName": "Rajasthan",
    "districtCode": "S2023",
    "districtName": "Udaipur",
    "acNumber": 149,
    "acName": "Gogunda",
    "partNumber": 221,
    "partName": "BAYANA",
    "lat": 24.82305755,
    "lon": 73.4923040854755
  },
  {
    "partId": 97025,
    "stateCode": "S20",
    "stateName": "Rajasthan",
    "districtCode": "S2023",
    "districtName": "Udaipur",
    "acNumber": 149,
    "acName": "Gogunda",
    "partNumber": 222,
    "partName": "NAL",
    "lat": 24.4466808,
    "lon": 73.4645355
  },
  {
    "partId": 97026,
    "stateCode": "S20",
    "stateName": "Rajasthan",
    "districtCode": "S2023",
    "districtName": "Udaipur",
    "acNumber": 149,
    "acName": "Gogunda",
    "partNumber": 223,
    "partName": "NAL",
    "lat": 24.4466808,
    "lon": 73.4645355
  },
  {
    "partId": 97027,
    "stateCode": "S20",
    "stateName": "Rajasthan",
    "districtCode": "S2023",
    "districtName": "Udaipur",
    "acNumber": 149,
    "acName": "Gogunda",
    "partNumber": 224,
    "partName": "PATIYA",
    "lat": 24.22512845,
    "lon": 73.40033830204982
  },
  {
    "partId": 97028,
    "stateCode": "S20",
    "stateName": "Rajasthan",
    "districtCode": "S2023",
    "districtName": "Udaipur",
    "acNumber": 149,
    "acName": "Gogunda",
    "partNumber": 225,
    "partName": "BAGDUNDA",
    "lat": 24.453502,
    "lon": 73.40704365943589
  },
  {
    "partId": 97029,
    "stateCode": "S20",
    "stateName": "Rajasthan",
    "districtCode": "S2023",
    "districtName": "Udaipur",
    "acNumber": 149,
    "acName": "Gogunda",
    "partNumber": 226,
    "partName": "BAGDUNDA",
    "lat": 24.6861141,
    "lon": 73.5255503
  },
  {
    "partId": 97030,
    "stateCode": "S20",
    "stateName": "Rajasthan",
    "districtCode": "S2023",
    "districtName": "Udaipur",
    "acNumber": 149,
    "acName": "Gogunda",
    "partNumber": 227,
    "partName": "JOLAVAS",
    "lat": 24.82305755,
    "lon": 73.4923040854755
  },
  {
    "partId": 97031,
    "stateCode": "S20",
    "stateName": "Rajasthan",
    "districtCode": "S2023",
    "districtName": "Udaipur",
    "acNumber": 149,
    "acName": "Gogunda",
    "partNumber": 228,
    "partName": "KAYALO KA GUDA",
    "lat": 24.82305755,
    "lon": 73.4923040854755
  },
  {
    "partId": 97032,
    "stateCode": "S20",
    "stateName": "Rajasthan",
    "districtCode": "S2023",
    "districtName": "Udaipur",
    "acNumber": 149,
    "acName": "Gogunda",
    "partNumber": 229,
    "partName": "MADAR",
    "lat": 24.6731286,
    "lon": 73.6111235
  },
  {
    "partId": 97033,
    "stateCode": "S20",
    "stateName": "Rajasthan",
    "districtCode": "S2023",
    "districtName": "Udaipur",
    "acNumber": 149,
    "acName": "Gogunda",
    "partNumber": 230,
    "partName": "MADAR",
    "lat": 24.6731286,
    "lon": 73.6111235
  },
  {
    "partId": 97034,
    "stateCode": "S20",
    "stateName": "Rajasthan",
    "districtCode": "S2023",
    "districtName": "Udaipur",
    "acNumber": 149,
    "acName": "Gogunda",
    "partNumber": 231,
    "partName": "BRAHIMANON KI HUNDAR",
    "lat": 24.82305755,
    "lon": 73.4923040854755
  },
  {
    "partId": 97035,
    "stateCode": "S20",
    "stateName": "Rajasthan",
    "districtCode": "S2023",
    "districtName": "Udaipur",
    "acNumber": 149,
    "acName": "Gogunda",
    "partNumber": 232,
    "partName": "DANGIYO KI HUNDER",
    "lat": 24.82305755,
    "lon": 73.4923040854755
  },
  {
    "partId": 97036,
    "stateCode": "S20",
    "stateName": "Rajasthan",
    "districtCode": "S2023",
    "districtName": "Udaipur",
    "acNumber": 149,
    "acName": "Gogunda",
    "partNumber": 233,
    "partName": "KAVITA",
    "lat": 24.6787246,
    "lon": 73.6486316
  },
  {
    "partId": 97037,
    "stateCode": "S20",
    "stateName": "Rajasthan",
    "districtCode": "S2023",
    "districtName": "Udaipur",
    "acNumber": 149,
    "acName": "Gogunda",
    "partNumber": 234,
    "partName": "KAVITA",
    "lat": 24.6787246,
    "lon": 73.6486316
  },
  {
    "partId": 97038,
    "stateCode": "S20",
    "stateName": "Rajasthan",
    "districtCode": "S2023",
    "districtName": "Udaipur",
    "acNumber": 149,
    "acName": "Gogunda",
    "partNumber": 235,
    "partName": "BARODIYA",
    "lat": 24.6868355,
    "lon": 73.6346411
  },
  {
    "partId": 97039,
    "stateCode": "S20",
    "stateName": "Rajasthan",
    "districtCode": "S2023",
    "districtName": "Udaipur",
    "acNumber": 149,
    "acName": "Gogunda",
    "partNumber": 236,
    "partName": "DANGIYO KA GUDA",
    "lat": 24.82305755,
    "lon": 73.4923040854755
  },
  {
    "partId": 97040,
    "stateCode": "S20",
    "stateName": "Rajasthan",
    "districtCode": "S2023",
    "districtName": "Udaipur",
    "acNumber": 149,
    "acName": "Gogunda",
    "partNumber": 237,
    "partName": "DANGIYO KA GUDA",
    "lat": 24.453502,
    "lon": 73.40704365943589
  },
  {
    "partId": 97041,
    "stateCode": "S20",
    "stateName": "Rajasthan",
    "districtCode": "S2023",
    "districtName": "Udaipur",
    "acNumber": 149,
    "acName": "Gogunda",
    "partNumber": 238,
    "partName": "BHILWARA",
    "lat": 24.7055897,
    "lon": 73.5779071
  },
  {
    "partId": 97042,
    "stateCode": "S20",
    "stateName": "Rajasthan",
    "districtCode": "S2023",
    "districtName": "Udaipur",
    "acNumber": 149,
    "acName": "Gogunda",
    "partNumber": 239,
    "partName": "LAKHAWALI",
    "lat": 24.6729337,
    "lon": 73.6859679
  },
  {
    "partId": 97043,
    "stateCode": "S20",
    "stateName": "Rajasthan",
    "districtCode": "S2023",
    "districtName": "Udaipur",
    "acNumber": 149,
    "acName": "Gogunda",
    "partNumber": 240,
    "partName": "LAKHAWALI",
    "lat": 24.6729337,
    "lon": 73.6859679
  },
  {
    "partId": 97044,
    "stateCode": "S20",
    "stateName": "Rajasthan",
    "districtCode": "S2023",
    "districtName": "Udaipur",
    "acNumber": 149,
    "acName": "Gogunda",
    "partNumber": 241,
    "partName": "LOYARA",
    "lat": 24.6517855,
    "lon": 73.6693919
  },
  {
    "partId": 97045,
    "stateCode": "S20",
    "stateName": "Rajasthan",
    "districtCode": "S2023",
    "districtName": "Udaipur",
    "acNumber": 149,
    "acName": "Gogunda",
    "partNumber": 242,
    "partName": "LOYARA",
    "lat": 24.6517855,
    "lon": 73.6693919
  },
  {
    "partId": 97046,
    "stateCode": "S20",
    "stateName": "Rajasthan",
    "districtCode": "S2023",
    "districtName": "Udaipur",
    "acNumber": 149,
    "acName": "Gogunda",
    "partNumber": 243,
    "partName": "FERANIYO KA GUDA",
    "lat": 24.82305755,
    "lon": 73.4923040854755
  },
  {
    "partId": 97047,
    "stateCode": "S20",
    "stateName": "Rajasthan",
    "districtCode": "S2023",
    "districtName": "Udaipur",
    "acNumber": 149,
    "acName": "Gogunda",
    "partNumber": 244,
    "partName": "THUR",
    "lat": 24.82305755,
    "lon": 73.4923040854755
  },
  {
    "partId": 97048,
    "stateCode": "S20",
    "stateName": "Rajasthan",
    "districtCode": "S2023",
    "districtName": "Udaipur",
    "acNumber": 149,
    "acName": "Gogunda",
    "partNumber": 245,
    "partName": "THUR",
    "lat": 24.82305755,
    "lon": 73.4923040854755
  },
  {
    "partId": 97049,
    "stateCode": "S20",
    "stateName": "Rajasthan",
    "districtCode": "S2023",
    "districtName": "Udaipur",
    "acNumber": 149,
    "acName": "Gogunda",
    "partNumber": 246,
    "partName": "GHODAN KALA",
    "lat": 24.82305755,
    "lon": 73.4923040854755
  },
  {
    "partId": 97050,
    "stateCode": "S20",
    "stateName": "Rajasthan",
    "districtCode": "S2023",
    "districtName": "Udaipur",
    "acNumber": 149,
    "acName": "Gogunda",
    "partNumber": 247,
    "partName": "MAJAWAD",
    "lat": 24.6700673,
    "lon": 73.5195637
  },
  {
    "partId": 97051,
    "stateCode": "S20",
    "stateName": "Rajasthan",
    "districtCode": "S2023",
    "districtName": "Udaipur",
    "acNumber": 149,
    "acName": "Gogunda",
    "partNumber": 248,
    "partName": "MAJAWAD",
    "lat": 24.6700673,
    "lon": 73.5195637
  },
  {
    "partId": 97052,
    "stateCode": "S20",
    "stateName": "Rajasthan",
    "districtCode": "S2023",
    "districtName": "Udaipur",
    "acNumber": 149,
    "acName": "Gogunda",
    "partNumber": 249,
    "partName": "BADUNDIYA",
    "lat": 24.82305755,
    "lon": 73.4923040854755
  },
  {
    "partId": 97053,
    "stateCode": "S20",
    "stateName": "Rajasthan",
    "districtCode": "S2023",
    "districtName": "Udaipur",
    "acNumber": 149,
    "acName": "Gogunda",
    "partNumber": 250,
    "partName": "MADA",
    "lat": 24.6280591,
    "lon": 73.5055733
  },
  {
    "partId": 97054,
    "stateCode": "S20",
    "stateName": "Rajasthan",
    "districtCode": "S2023",
    "districtName": "Udaipur",
    "acNumber": 149,
    "acName": "Gogunda",
    "partNumber": 251,
    "partName": "MALARIYA KALA",
    "lat": 24.82305755,
    "lon": 73.4923040854755
  },
  {
    "partId": 97055,
    "stateCode": "S20",
    "stateName": "Rajasthan",
    "districtCode": "S2023",
    "districtName": "Udaipur",
    "acNumber": 149,
    "acName": "Gogunda",
    "partNumber": 252,
    "partName": "MODAVA",
    "lat": 24.6540185,
    "lon": 73.4770345
  },
  {
    "partId": 97056,
    "stateCode": "S20",
    "stateName": "Rajasthan",
    "districtCode": "S2023",
    "districtName": "Udaipur",
    "acNumber": 149,
    "acName": "Gogunda",
    "partNumber": 253,
    "partName": "DEVARO KA KHEDA",
    "lat": 24.82305755,
    "lon": 73.4923040854755
  },
  {
    "partId": 97057,
    "stateCode": "S20",
    "stateName": "Rajasthan",
    "districtCode": "S2023",
    "districtName": "Udaipur",
    "acNumber": 149,
    "acName": "Gogunda",
    "partNumber": 254,
    "partName": "LAMBI SEMAL",
    "lat": 24.82305755,
    "lon": 73.4923040854755
  },
  {
    "partId": 97058,
    "stateCode": "S20",
    "stateName": "Rajasthan",
    "districtCode": "S2023",
    "districtName": "Udaipur",
    "acNumber": 149,
    "acName": "Gogunda",
    "partNumber": 255,
    "partName": "PADAVALI KALAN",
    "lat": 24.82305755,
    "lon": 73.4923040854755
  },
  {
    "partId": 97059,
    "stateCode": "S20",
    "stateName": "Rajasthan",
    "districtCode": "S2023",
    "districtName": "Udaipur",
    "acNumber": 149,
    "acName": "Gogunda",
    "partNumber": 256,
    "partName": "JHANK",
    "lat": 24.6357831,
    "lon": 73.4044218
  },
  {
    "partId": 97060,
    "stateCode": "S20",
    "stateName": "Rajasthan",
    "districtCode": "S2023",
    "districtName": "Udaipur",
    "acNumber": 149,
    "acName": "Gogunda",
    "partNumber": 257,
    "partName": "TILOI",
    "lat": 24.6278737,
    "lon": 73.2501961
  },
  {
    "partId": 97061,
    "stateCode": "S20",
    "stateName": "Rajasthan",
    "districtCode": "S2023",
    "districtName": "Udaipur",
    "acNumber": 149,
    "acName": "Gogunda",
    "partNumber": 258,
    "partName": "KUKADAKHEDA",
    "lat": 24.82305755,
    "lon": 73.4923040854755
  },
  {
    "partId": 97062,
    "stateCode": "S20",
    "stateName": "Rajasthan",
    "districtCode": "S2023",
    "districtName": "Udaipur",
    "acNumber": 149,
    "acName": "Gogunda",
    "partNumber": 259,
    "partName": "MADRA",
    "lat": 24.596729,
    "lon": 73.369317
  },
  {
    "partId": 97063,
    "stateCode": "S20",
    "stateName": "Rajasthan",
    "districtCode": "S2023",
    "districtName": "Udaipur",
    "acNumber": 149,
    "acName": "Gogunda",
    "partNumber": 260,
    "partName": "MUNDAVALI",
    "lat": 24.82305755,
    "lon": 73.4923040854755
  },
  {
    "partId": 97064,
    "stateCode": "S20",
    "stateName": "Rajasthan",
    "districtCode": "S2023",
    "districtName": "Udaipur",
    "acNumber": 149,
    "acName": "Gogunda",
    "partNumber": 261,
    "partName": "PADAVALI KHURD",
    "lat": 24.82305755,
    "lon": 73.4923040854755
  },
  {
    "partId": 97065,
    "stateCode": "S20",
    "stateName": "Rajasthan",
    "districtCode": "S2023",
    "districtName": "Udaipur",
    "acNumber": 149,
    "acName": "Gogunda",
    "partNumber": 262,
    "partName": "MORWAL",
    "lat": 24.6184229,
    "lon": 73.4643745
  },
  {
    "partId": 97066,
    "stateCode": "S20",
    "stateName": "Rajasthan",
    "districtCode": "S2023",
    "districtName": "Udaipur",
    "acNumber": 149,
    "acName": "Gogunda",
    "partNumber": 263,
    "partName": "CHIKALVAS",
    "lat": 24.82305755,
    "lon": 73.4923040854755
  },
  {
    "partId": 97067,
    "stateCode": "S20",
    "stateName": "Rajasthan",
    "districtCode": "S2023",
    "districtName": "Udaipur",
    "acNumber": 149,
    "acName": "Gogunda",
    "partNumber": 264,
    "partName": "CHIKALVAS",
    "lat": 24.82305755,
    "lon": 73.4923040854755
  },
  {
    "partId": 97068,
    "stateCode": "S20",
    "stateName": "Rajasthan",
    "districtCode": "S2023",
    "districtName": "Udaipur",
    "acNumber": 149,
    "acName": "Gogunda",
    "partNumber": 265,
    "partName": "PALADI",
    "lat": 24.82305755,
    "lon": 73.4923040854755
  },
  {
    "partId": 97069,
    "stateCode": "S20",
    "stateName": "Rajasthan",
    "districtCode": "S2023",
    "districtName": "Udaipur",
    "acNumber": 149,
    "acName": "Gogunda",
    "partNumber": 266,
    "partName": "PALADI",
    "lat": 24.82305755,
    "lon": 73.4923040854755
  },
  {
    "partId": 97070,
    "stateCode": "S20",
    "stateName": "Rajasthan",
    "districtCode": "S2023",
    "districtName": "Udaipur",
    "acNumber": 149,
    "acName": "Gogunda",
    "partNumber": 267,
    "partName": "BADGAON",
    "lat": 24.754509050000003,
    "lon": 73.63419701151096
  },
  {
    "partId": 97071,
    "stateCode": "S20",
    "stateName": "Rajasthan",
    "districtCode": "S2023",
    "districtName": "Udaipur",
    "acNumber": 149,
    "acName": "Gogunda",
    "partNumber": 268,
    "partName": "BADGAON",
    "lat": 24.453502,
    "lon": 73.40704365943589
  },
  {
    "partId": 97093,
    "stateCode": "S20",
    "stateName": "Rajasthan",
    "districtCode": "S2023",
    "districtName": "Udaipur",
    "acNumber": 149,
    "acName": "Gogunda",
    "partNumber": 269,
    "partName": "BADGAON",
    "lat": 24.754509050000003,
    "lon": 73.63419701151096
  },
  {
    "partId": 97072,
    "stateCode": "S20",
    "stateName": "Rajasthan",
    "districtCode": "S2023",
    "districtName": "Udaipur",
    "acNumber": 149,
    "acName": "Gogunda",
    "partNumber": 270,
    "partName": "BADGAON",
    "lat": 24.754509050000003,
    "lon": 73.63419701151096
  },
  {
    "partId": 97073,
    "stateCode": "S20",
    "stateName": "Rajasthan",
    "districtCode": "S2023",
    "districtName": "Udaipur",
    "acNumber": 149,
    "acName": "Gogunda",
    "partNumber": 271,
    "partName": "BADGAON",
    "lat": 24.754509050000003,
    "lon": 73.63419701151096
  },
  {
    "partId": 97074,
    "stateCode": "S20",
    "stateName": "Rajasthan",
    "districtCode": "S2023",
    "districtName": "Udaipur",
    "acNumber": 149,
    "acName": "Gogunda",
    "partNumber": 272,
    "partName": "BADGAON",
    "lat": 24.754509050000003,
    "lon": 73.63419701151096
  },
  {
    "partId": 97075,
    "stateCode": "S20",
    "stateName": "Rajasthan",
    "districtCode": "S2023",
    "districtName": "Udaipur",
    "acNumber": 149,
    "acName": "Gogunda",
    "partNumber": 273,
    "partName": "BADGAON",
    "lat": 24.754509050000003,
    "lon": 73.63419701151096
  },
  {
    "partId": 97076,
    "stateCode": "S20",
    "stateName": "Rajasthan",
    "districtCode": "S2023",
    "districtName": "Udaipur",
    "acNumber": 149,
    "acName": "Gogunda",
    "partNumber": 274,
    "partName": "CHHALI",
    "lat": 24.6135508,
    "lon": 73.5050154
  },
  {
    "partId": 97077,
    "stateCode": "S20",
    "stateName": "Rajasthan",
    "districtCode": "S2023",
    "districtName": "Udaipur",
    "acNumber": 149,
    "acName": "Gogunda",
    "partNumber": 275,
    "partName": "CHHALI",
    "lat": 24.6135508,
    "lon": 73.5050154
  },
  {
    "partId": 97078,
    "stateCode": "S20",
    "stateName": "Rajasthan",
    "districtCode": "S2023",
    "districtName": "Udaipur",
    "acNumber": 149,
    "acName": "Gogunda",
    "partNumber": 276,
    "partName": "SURAJGARH",
    "lat": 24.453502,
    "lon": 73.40704365943589
  },
  {
    "partId": 97079,
    "stateCode": "S20",
    "stateName": "Rajasthan",
    "districtCode": "S2023",
    "districtName": "Udaipur",
    "acNumber": 149,
    "acName": "Gogunda",
    "partNumber": 277,
    "partName": "DELAVAS",
    "lat": 24.453502,
    "lon": 73.40704365943589
  },
  {
    "partId": 97080,
    "stateCode": "S20",
    "stateName": "Rajasthan",
    "districtCode": "S2023",
    "districtName": "Udaipur",
    "acNumber": 149,
    "acName": "Gogunda",
    "partNumber": 278,
    "partName": "KELTHARA",
    "lat": 24.5915098,
    "lon": 73.383522
  },
  {
    "partId": 97081,
    "stateCode": "S20",
    "stateName": "Rajasthan",
    "districtCode": "S2023",
    "districtName": "Udaipur",
    "acNumber": 149,
    "acName": "Gogunda",
    "partNumber": 279,
    "partName": "VAS",
    "lat": 24.5665619,
    "lon": 73.379606
  },
  {
    "partId": 97082,
    "stateCode": "S20",
    "stateName": "Rajasthan",
    "districtCode": "S2023",
    "districtName": "Udaipur",
    "acNumber": 149,
    "acName": "Gogunda",
    "partNumber": 280,
    "partName": "NRISINGHPURA",
    "lat": 24.82305755,
    "lon": 73.4923040854755
  },
  {
    "partId": 97083,
    "stateCode": "S20",
    "stateName": "Rajasthan",
    "districtCode": "S2023",
    "districtName": "Udaipur",
    "acNumber": 149,
    "acName": "Gogunda",
    "partNumber": 281,
    "partName": "VIRPURA",
    "lat": 24.82305755,
    "lon": 73.4923040854755
  },
  {
    "partId": 97084,
    "stateCode": "S20",
    "stateName": "Rajasthan",
    "districtCode": "S2023",
    "districtName": "Udaipur",
    "acNumber": 149,
    "acName": "Gogunda",
    "partNumber": 282,
    "partName": "KHAMBIYA",
    "lat": 24.5627076,
    "lon": 73.3712053
  },
  {
    "partId": 97085,
    "stateCode": "S20",
    "stateName": "Rajasthan",
    "districtCode": "S2023",
    "districtName": "Udaipur",
    "acNumber": 149,
    "acName": "Gogunda",
    "partNumber": 283,
    "partName": "SENWARA",
    "lat": 24.572553,
    "lon": 73.4486675
  },
  {
    "partId": 97086,
    "stateCode": "S20",
    "stateName": "Rajasthan",
    "districtCode": "S2023",
    "districtName": "Udaipur",
    "acNumber": 149,
    "acName": "Gogunda",
    "partNumber": 284,
    "partName": "UNDITHAL",
    "lat": 24.5820952,
    "lon": 73.4904456
  },
  {
    "partId": 97087,
    "stateCode": "S20",
    "stateName": "Rajasthan",
    "districtCode": "S2023",
    "districtName": "Udaipur",
    "acNumber": 149,
    "acName": "Gogunda",
    "partNumber": 285,
    "partName": "SAMIJA",
    "lat": 24.550648,
    "lon": 73.3622602
  },
  {
    "partId": 97088,
    "stateCode": "S20",
    "stateName": "Rajasthan",
    "districtCode": "S2023",
    "districtName": "Udaipur",
    "acNumber": 149,
    "acName": "Gogunda",
    "partNumber": 286,
    "partName": "SAMIJA",
    "lat": 24.550648,
    "lon": 73.3622602
  },
  {
    "partId": 97091,
    "stateCode": "S20",
    "stateName": "Rajasthan",
    "districtCode": "S2023",
    "districtName": "Udaipur",
    "acNumber": 149,
    "acName": "Gogunda",
    "partNumber": 287,
    "partName": "Aamari",
    "lat": 24.82305755,
    "lon": 73.4923040854755
  },
  {
    "partId": 101660,
    "stateCode": "S20",
    "stateName": "Rajasthan",
    "districtCode": "S2023",
    "districtName": "Udaipur",
    "acNumber": 150,
    "acName": "Jhadol",
    "partNumber": 1,
    "partName": "TILARAVA",
    "lat": 24.415038250000002,
    "lon": 73.4910342769378
  },
  {
    "partId": 101661,
    "stateCode": "S20",
    "stateName": "Rajasthan",
    "districtCode": "S2023",
    "districtName": "Udaipur",
    "acNumber": 150,
    "acName": "Jhadol",
    "partNumber": 2,
    "partName": "KHUNA",
    "lat": 24.5104429,
    "lon": 73.1577122
  },
  {
    "partId": 101662,
    "stateCode": "S20",
    "stateName": "Rajasthan",
    "districtCode": "S2023",
    "districtName": "Udaipur",
    "acNumber": 150,
    "acName": "Jhadol",
    "partNumber": 3,
    "partName": "SAMOLI",
    "lat": 24.6055913,
    "lon": 73.1307292
  },
  {
    "partId": 101938,
    "stateCode": "S20",
    "stateName": "Rajasthan",
    "districtCode": "S2023",
    "districtName": "Udaipur",
    "acNumber": 150,
    "acName": "Jhadol",
    "partNumber": 4,
    "partName": "KADA",
    "lat": 24.49618985,
    "lon": 73.39094672152578
  },
  {
    "partId": 101663,
    "stateCode": "S20",
    "stateName": "Rajasthan",
    "districtCode": "S2023",
    "districtName": "Udaipur",
    "acNumber": 150,
    "acName": "Jhadol",
    "partNumber": 5,
    "partName": "KYARA",
    "lat": 24.5573894,
    "lon": 73.1879461
  },
  {
    "partId": 101664,
    "stateCode": "S20",
    "stateName": "Rajasthan",
    "districtCode": "S2023",
    "districtName": "Udaipur",
    "acNumber": 150,
    "acName": "Jhadol",
    "partNumber": 6,
    "partName": "SULAV",
    "lat": 24.415038250000002,
    "lon": 73.4910342769378
  },
  {
    "partId": 101665,
    "stateCode": "S20",
    "stateName": "Rajasthan",
    "districtCode": "S2023",
    "districtName": "Udaipur",
    "acNumber": 150,
    "acName": "Jhadol",
    "partNumber": 7,
    "partName": "BIKARANI",
    "lat": 24.5357435,
    "lon": 73.1828928
  },
  {
    "partId": 101666,
    "stateCode": "S20",
    "stateName": "Rajasthan",
    "districtCode": "S2023",
    "districtName": "Udaipur",
    "acNumber": 150,
    "acName": "Jhadol",
    "partNumber": 8,
    "partName": "BIKARANI",
    "lat": 24.5357435,
    "lon": 73.1828928
  },
  {
    "partId": 101939,
    "stateCode": "S20",
    "stateName": "Rajasthan",
    "districtCode": "S2023",
    "districtName": "Udaipur",
    "acNumber": 150,
    "acName": "Jhadol",
    "partNumber": 9,
    "partName": "MANDVA",
    "lat": 24.415038250000002,
    "lon": 73.4910342769378
  },
  {
    "partId": 101940,
    "stateCode": "S20",
    "stateName": "Rajasthan",
    "districtCode": "S2023",
    "districtName": "Udaipur",
    "acNumber": 150,
    "acName": "Jhadol",
    "partNumber": 10,
    "partName": "RUPANI",
    "lat": 24.415038250000002,
    "lon": 73.4910342769378
  },
  {
    "partId": 101941,
    "stateCode": "S20",
    "stateName": "Rajasthan",
    "districtCode": "S2023",
    "districtName": "Udaipur",
    "acNumber": 150,
    "acName": "Jhadol",
    "partNumber": 11,
    "partName": "RUPANI",
    "lat": 24.415038250000002,
    "lon": 73.4910342769378
  },
  {
    "partId": 101667,
    "stateCode": "S20",
    "stateName": "Rajasthan",
    "districtCode": "S2023",
    "districtName": "Udaipur",
    "acNumber": 150,
    "acName": "Jhadol",
    "partNumber": 12,
    "partName": "JED",
    "lat": 24.415038250000002,
    "lon": 73.4910342769378
  },
  {
    "partId": 101668,
    "stateCode": "S20",
    "stateName": "Rajasthan",
    "districtCode": "S2023",
    "districtName": "Udaipur",
    "acNumber": 150,
    "acName": "Jhadol",
    "partNumber": 13,
    "partName": "JED",
    "lat": 24.415038250000002,
    "lon": 73.4910342769378
  },
  {
    "partId": 101669,
    "stateCode": "S20",
    "stateName": "Rajasthan",
    "districtCode": "S2023",
    "districtName": "Udaipur",
    "acNumber": 150,
    "acName": "Jhadol",
    "partNumber": 14,
    "partName": "KHAMPA",
    "lat": 24.415038250000002,
    "lon": 73.4910342769378
  },
  {
    "partId": 101670,
    "stateCode": "S20",
    "stateName": "Rajasthan",
    "districtCode": "S2023",
    "districtName": "Udaipur",
    "acNumber": 150,
    "acName": "Jhadol",
    "partNumber": 15,
    "partName": "KHAMPA",
    "lat": 24.415038250000002,
    "lon": 73.4910342769378
  },
  {
    "partId": 101671,
    "stateCode": "S20",
    "stateName": "Rajasthan",
    "districtCode": "S2023",
    "districtName": "Udaipur",
    "acNumber": 150,
    "acName": "Jhadol",
    "partNumber": 16,
    "partName": "KUKAVAS",
    "lat": 24.415038250000002,
    "lon": 73.4910342769378
  },
  {
    "partId": 101672,
    "stateCode": "S20",
    "stateName": "Rajasthan",
    "districtCode": "S2023",
    "districtName": "Udaipur",
    "acNumber": 150,
    "acName": "Jhadol",
    "partNumber": 17,
    "partName": "JHANJHAR",
    "lat": 24.4983472,
    "lon": 73.0996156
  },
  {
    "partId": 101673,
    "stateCode": "S20",
    "stateName": "Rajasthan",
    "districtCode": "S2023",
    "districtName": "Udaipur",
    "acNumber": 150,
    "acName": "Jhadol",
    "partNumber": 18,
    "partName": "KODARAMAL",
    "lat": 24.415038250000002,
    "lon": 73.4910342769378
  },
  {
    "partId": 101674,
    "stateCode": "S20",
    "stateName": "Rajasthan",
    "districtCode": "S2023",
    "districtName": "Udaipur",
    "acNumber": 150,
    "acName": "Jhadol",
    "partNumber": 19,
    "partName": "KAGAVAS",
    "lat": 24.415038250000002,
    "lon": 73.4910342769378
  },
  {
    "partId": 101675,
    "stateCode": "S20",
    "stateName": "Rajasthan",
    "districtCode": "S2023",
    "districtName": "Udaipur",
    "acNumber": 150,
    "acName": "Jhadol",
    "partNumber": 20,
    "partName": "CHHAPAR",
    "lat": 24.5173249,
    "lon": 73.1544292
  },
  {
    "partId": 101676,
    "stateCode": "S20",
    "stateName": "Rajasthan",
    "districtCode": "S2023",
    "districtName": "Udaipur",
    "acNumber": 150,
    "acName": "Jhadol",
    "partNumber": 21,
    "partName": "RUJIYAKHUNA",
    "lat": 24.415038250000002,
    "lon": 73.4910342769378
  },
  {
    "partId": 101677,
    "stateCode": "S20",
    "stateName": "Rajasthan",
    "districtCode": "S2023",
    "districtName": "Udaipur",
    "acNumber": 150,
    "acName": "Jhadol",
    "partNumber": 22,
    "partName": "JUDA",
    "lat": 24.453502,
    "lon": 73.40704365943589
  },
  {
    "partId": 101678,
    "stateCode": "S20",
    "stateName": "Rajasthan",
    "districtCode": "S2023",
    "districtName": "Udaipur",
    "acNumber": 150,
    "acName": "Jhadol",
    "partNumber": 23,
    "partName": "JUDA",
    "lat": 24.5070023,
    "lon": 73.2226411
  },
  {
    "partId": 101679,
    "stateCode": "S20",
    "stateName": "Rajasthan",
    "districtCode": "S2023",
    "districtName": "Udaipur",
    "acNumber": 150,
    "acName": "Jhadol",
    "partNumber": 24,
    "partName": "JUNAPADAR",
    "lat": 24.453502,
    "lon": 73.40704365943589
  },
  {
    "partId": 101680,
    "stateCode": "S20",
    "stateName": "Rajasthan",
    "districtCode": "S2023",
    "districtName": "Udaipur",
    "acNumber": 150,
    "acName": "Jhadol",
    "partNumber": 25,
    "partName": "ATATIYA",
    "lat": 24.5388081,
    "lon": 73.35417191734939
  },
  {
    "partId": 101681,
    "stateCode": "S20",
    "stateName": "Rajasthan",
    "districtCode": "S2023",
    "districtName": "Udaipur",
    "acNumber": 150,
    "acName": "Jhadol",
    "partNumber": 26,
    "partName": "BHURA",
    "lat": 24.415038250000002,
    "lon": 73.4910342769378
  },
  {
    "partId": 101682,
    "stateCode": "S20",
    "stateName": "Rajasthan",
    "districtCode": "S2023",
    "districtName": "Udaipur",
    "acNumber": 150,
    "acName": "Jhadol",
    "partNumber": 27,
    "partName": "OGANA",
    "lat": 24.5220396,
    "lon": 73.3613026
  },
  {
    "partId": 101683,
    "stateCode": "S20",
    "stateName": "Rajasthan",
    "districtCode": "S2023",
    "districtName": "Udaipur",
    "acNumber": 150,
    "acName": "Jhadol",
    "partNumber": 28,
    "partName": "OGANA",
    "lat": 24.5220396,
    "lon": 73.3613026
  },
  {
    "partId": 101684,
    "stateCode": "S20",
    "stateName": "Rajasthan",
    "districtCode": "S2023",
    "districtName": "Udaipur",
    "acNumber": 150,
    "acName": "Jhadol",
    "partNumber": 29,
    "partName": "KUMARAVAS",
    "lat": 24.415038250000002,
    "lon": 73.4910342769378
  },
  {
    "partId": 101685,
    "stateCode": "S20",
    "stateName": "Rajasthan",
    "districtCode": "S2023",
    "districtName": "Udaipur",
    "acNumber": 150,
    "acName": "Jhadol",
    "partNumber": 30,
    "partName": "CHOKALABARA",
    "lat": 24.415038250000002,
    "lon": 73.4910342769378
  },
  {
    "partId": 101686,
    "stateCode": "S20",
    "stateName": "Rajasthan",
    "districtCode": "S2023",
    "districtName": "Udaipur",
    "acNumber": 150,
    "acName": "Jhadol",
    "partNumber": 31,
    "partName": "DHADHAVALI",
    "lat": 24.5251436,
    "lon": 73.4633446
  },
  {
    "partId": 101687,
    "stateCode": "S20",
    "stateName": "Rajasthan",
    "districtCode": "S2023",
    "districtName": "Udaipur",
    "acNumber": 150,
    "acName": "Jhadol",
    "partNumber": 32,
    "partName": "MUNDAVALI",
    "lat": 24.453502,
    "lon": 73.40704365943589
  },
  {
    "partId": 101688,
    "stateCode": "S20",
    "stateName": "Rajasthan",
    "districtCode": "S2023",
    "districtName": "Udaipur",
    "acNumber": 150,
    "acName": "Jhadol",
    "partNumber": 33,
    "partName": "NANDAVEL",
    "lat": 24.415038250000002,
    "lon": 73.4910342769378
  },
  {
    "partId": 101689,
    "stateCode": "S20",
    "stateName": "Rajasthan",
    "districtCode": "S2023",
    "districtName": "Udaipur",
    "acNumber": 150,
    "acName": "Jhadol",
    "partNumber": 34,
    "partName": "DEVAS",
    "lat": 24.415038250000002,
    "lon": 73.4910342769378
  },
  {
    "partId": 101690,
    "stateCode": "S20",
    "stateName": "Rajasthan",
    "districtCode": "S2023",
    "districtName": "Udaipur",
    "acNumber": 150,
    "acName": "Jhadol",
    "partNumber": 35,
    "partName": "TALAI",
    "lat": 24.4982398,
    "lon": 73.46241879604457
  },
  {
    "partId": 101691,
    "stateCode": "S20",
    "stateName": "Rajasthan",
    "districtCode": "S2023",
    "districtName": "Udaipur",
    "acNumber": 150,
    "acName": "Jhadol",
    "partNumber": 36,
    "partName": "CHANDAVAS",
    "lat": 24.415038250000002,
    "lon": 73.4910342769378
  },
  {
    "partId": 101692,
    "stateCode": "S20",
    "stateName": "Rajasthan",
    "districtCode": "S2023",
    "districtName": "Udaipur",
    "acNumber": 150,
    "acName": "Jhadol",
    "partNumber": 37,
    "partName": "MALAPUR",
    "lat": 24.415038250000002,
    "lon": 73.4910342769378
  },
  {
    "partId": 101942,
    "stateCode": "S20",
    "stateName": "Rajasthan",
    "districtCode": "S2023",
    "districtName": "Udaipur",
    "acNumber": 150,
    "acName": "Jhadol",
    "partNumber": 38,
    "partName": "MOHAMMAD FALASIYA",
    "lat": 24.415038250000002,
    "lon": 73.4910342769378
  },
  {
    "partId": 101943,
    "stateCode": "S20",
    "stateName": "Rajasthan",
    "districtCode": "S2023",
    "districtName": "Udaipur",
    "acNumber": 150,
    "acName": "Jhadol",
    "partNumber": 39,
    "partName": "MOHAMMAD FALASIYA",
    "lat": 24.415038250000002,
    "lon": 73.4910342769378
  },
  {
    "partId": 101693,
    "stateCode": "S20",
    "stateName": "Rajasthan",
    "districtCode": "S2023",
    "districtName": "Udaipur",
    "acNumber": 150,
    "acName": "Jhadol",
    "partNumber": 40,
    "partName": "NETAJI KA BARA",
    "lat": 24.5226253,
    "lon": 73.3945659127831
  },
  {
    "partId": 101694,
    "stateCode": "S20",
    "stateName": "Rajasthan",
    "districtCode": "S2023",
    "districtName": "Udaipur",
    "acNumber": 150,
    "acName": "Jhadol",
    "partNumber": 41,
    "partName": "KADA",
    "lat": 24.49618985,
    "lon": 73.39094672152578
  },
  {
    "partId": 101695,
    "stateCode": "S20",
    "stateName": "Rajasthan",
    "districtCode": "S2023",
    "districtName": "Udaipur",
    "acNumber": 150,
    "acName": "Jhadol",
    "partNumber": 42,
    "partName": "RANAPUR",
    "lat": 24.453502,
    "lon": 73.40704365943589
  },
  {
    "partId": 101696,
    "stateCode": "S20",
    "stateName": "Rajasthan",
    "districtCode": "S2023",
    "districtName": "Udaipur",
    "acNumber": 150,
    "acName": "Jhadol",
    "partNumber": 43,
    "partName": "KYARIYA",
    "lat": 24.46828345,
    "lon": 73.33461477738443
  },
  {
    "partId": 101697,
    "stateCode": "S20",
    "stateName": "Rajasthan",
    "districtCode": "S2023",
    "districtName": "Udaipur",
    "acNumber": 150,
    "acName": "Jhadol",
    "partNumber": 44,
    "partName": "BANSADIYA",
    "lat": 24.415038250000002,
    "lon": 73.4910342769378
  },
  {
    "partId": 101698,
    "stateCode": "S20",
    "stateName": "Rajasthan",
    "districtCode": "S2023",
    "districtName": "Udaipur",
    "acNumber": 150,
    "acName": "Jhadol",
    "partNumber": 45,
    "partName": "PILAK",
    "lat": 24.448627100000003,
    "lon": 73.29779224993183
  },
  {
    "partId": 101699,
    "stateCode": "S20",
    "stateName": "Rajasthan",
    "districtCode": "S2023",
    "districtName": "Udaipur",
    "acNumber": 150,
    "acName": "Jhadol",
    "partNumber": 46,
    "partName": "UMARI PADAR",
    "lat": 24.415038250000002,
    "lon": 73.4910342769378
  },
  {
    "partId": 101700,
    "stateCode": "S20",
    "stateName": "Rajasthan",
    "districtCode": "S2023",
    "districtName": "Udaipur",
    "acNumber": 150,
    "acName": "Jhadol",
    "partNumber": 47,
    "partName": "BHULO KI AMALI",
    "lat": 24.415038250000002,
    "lon": 73.4910342769378
  },
  {
    "partId": 101701,
    "stateCode": "S20",
    "stateName": "Rajasthan",
    "districtCode": "S2023",
    "districtName": "Udaipur",
    "acNumber": 150,
    "acName": "Jhadol",
    "partNumber": 48,
    "partName": "DADAMIYA",
    "lat": 24.415038250000002,
    "lon": 73.4910342769378
  },
  {
    "partId": 101702,
    "stateCode": "S20",
    "stateName": "Rajasthan",
    "districtCode": "S2023",
    "districtName": "Udaipur",
    "acNumber": 150,
    "acName": "Jhadol",
    "partNumber": 49,
    "partName": "BHIYANTA",
    "lat": 24.415038250000002,
    "lon": 73.4910342769378
  },
  {
    "partId": 101703,
    "stateCode": "S20",
    "stateName": "Rajasthan",
    "districtCode": "S2023",
    "districtName": "Udaipur",
    "acNumber": 150,
    "acName": "Jhadol",
    "partNumber": 50,
    "partName": "KALAKHETAR",
    "lat": 24.415038250000002,
    "lon": 73.4910342769378
  },
  {
    "partId": 101704,
    "stateCode": "S20",
    "stateName": "Rajasthan",
    "districtCode": "S2023",
    "districtName": "Udaipur",
    "acNumber": 150,
    "acName": "Jhadol",
    "partNumber": 51,
    "partName": "BAKHEL(MANDVA)",
    "lat": 24.415038250000002,
    "lon": 73.4910342769378
  },
  {
    "partId": 101705,
    "stateCode": "S20",
    "stateName": "Rajasthan",
    "districtCode": "S2023",
    "districtName": "Udaipur",
    "acNumber": 150,
    "acName": "Jhadol",
    "partNumber": 52,
    "partName": "BAKHEL(MANDVA)",
    "lat": 24.415038250000002,
    "lon": 73.4910342769378
  },
  {
    "partId": 101706,
    "stateCode": "S20",
    "stateName": "Rajasthan",
    "districtCode": "S2023",
    "districtName": "Udaipur",
    "acNumber": 150,
    "acName": "Jhadol",
    "partNumber": 53,
    "partName": "BUJHA(JHED)",
    "lat": 24.453502,
    "lon": 73.40704365943589
  },
  {
    "partId": 101953,
    "stateCode": "S20",
    "stateName": "Rajasthan",
    "districtCode": "S2023",
    "districtName": "Udaipur",
    "acNumber": 150,
    "acName": "Jhadol",
    "partNumber": 54,
    "partName": "AADI PIPALI",
    "lat": 24.415038250000002,
    "lon": 73.4910342769378
  },
  {
    "partId": 101707,
    "stateCode": "S20",
    "stateName": "Rajasthan",
    "districtCode": "S2023",
    "districtName": "Udaipur",
    "acNumber": 150,
    "acName": "Jhadol",
    "partNumber": 55,
    "partName": "ANJANI",
    "lat": 24.415038250000002,
    "lon": 73.4910342769378
  },
  {
    "partId": 101708,
    "stateCode": "S20",
    "stateName": "Rajasthan",
    "districtCode": "S2023",
    "districtName": "Udaipur",
    "acNumber": 150,
    "acName": "Jhadol",
    "partNumber": 56,
    "partName": "THEP",
    "lat": 24.415038250000002,
    "lon": 73.4910342769378
  },
  {
    "partId": 101709,
    "stateCode": "S20",
    "stateName": "Rajasthan",
    "districtCode": "S2023",
    "districtName": "Udaipur",
    "acNumber": 150,
    "acName": "Jhadol",
    "partNumber": 57,
    "partName": "DHADHAMTA",
    "lat": 24.453502,
    "lon": 73.40704365943589
  },