[
  {
    "partId": 4773,
    "stateCode": "U08",
    "stateName": "Jammu and Kashmir",
    "districtCode": "U0816",
    "districtName": "KATHUA",
    "acNumber": 63,
    "acName": "BANI",
    "partNumber": 1,
    "partName": "DHAGGAR",
    "lat": 32.7306053,
    "lon": 75.7109831
  },
  {
    "partId": 4774,
    "stateCode": "U08",
    "stateName": "Jammu and Kashmir",
    "districtCode": "U0816",
    "districtName": "KATHUA",
    "acNumber": 63,
    "acName": "BANI",
    "partNumber": 2,
    "partName": "BAGGAIN",
    "lat": 32.754419150000004,
    "lon": 75.79699664567234
  },
  {
    "partId": 4769,
    "stateCode": "U08",
    "stateName": "Jammu and Kashmir",
    "districtCode": "U0816",
    "districtName": "KATHUA",
    "acNumber": 63,
    "acName": "BANI",
    "partNumber": 3,
    "partName": "SARTHAL",
    "lat": 32.8312077,
    "lon": 75.7786287
  },
  {
    "partId": 4770,
    "stateCode": "U08",
    "stateName": "Jammu and Kashmir",
    "districtCode": "U0816",
    "districtName": "KATHUA",
    "acNumber": 63,
    "acName": "BANI",
    "partNumber": 4,
    "partName": "ROULKA",
    "lat": 32.754419150000004,
    "lon": 75.79699664567234
  },
  {
    "partId": 4772,
    "stateCode": "U08",
    "stateName": "Jammu and Kashmir",
    "districtCode": "U0816",
    "districtName": "KATHUA",
    "acNumber": 63,
    "acName": "BANI",
    "partNumber": 5,
    "partName": "GHUTTU",
    "lat": 32.754419150000004,
    "lon": 75.79699664567234
  },
  {
    "partId": 3220,
    "stateCode": "U08",
    "stateName": "Jammu and Kashmir",
    "districtCode": "U0816",
    "districtName": "KATHUA",
    "acNumber": 63,
    "acName": "BANI",
    "partNumber": 6,
    "partName": "DRABAL",
    "lat": 32.754419150000004,
    "lon": 75.79699664567234
  },
  {
    "partId": 4771,
    "stateCode": "U08",
    "stateName": "Jammu and Kashmir",
    "districtCode": "U0816",
    "districtName": "KATHUA",
    "acNumber": 63,
    "acName": "BANI",
    "partNumber": 7,
    "partName": "DOULKA",
    "lat": 32.754419150000004,
    "lon": 75.79699664567234
  },
  {
    "partId": 4780,
    "stateCode": "U08",
    "stateName": "Jammu and Kashmir",
    "districtCode": "U0816",
    "districtName": "KATHUA",
    "acNumber": 63,
    "acName": "BANI",
    "partNumber": 8,
    "partName": "BARMOTA",
    "lat": 32.7741264,
    "lon": 75.8108524
  },
  {
    "partId": 4788,
    "stateCode": "U08",
    "stateName": "Jammu and Kashmir",
    "districtCode": "U0816",
    "districtName": "KATHUA",
    "acNumber": 63,
    "acName": "BANI",
    "partNumber": 9,
    "partName": "CHANDAL",
    "lat": 32.7545538,
    "lon": 75.8046494
  },
  {
    "partId": 4807,
    "stateCode": "U08",
    "stateName": "Jammu and Kashmir",
    "districtCode": "U0816",
    "districtName": "KATHUA",
    "acNumber": 63,
    "acName": "BANI",
    "partNumber": 10,
    "partName": "MACHWA",
    "lat": 32.754419150000004,
    "lon": 75.79699664567234
  },
  {
    "partId": 4776,
    "stateCode": "U08",
    "stateName": "Jammu and Kashmir",
    "districtCode": "U0816",
    "districtName": "KATHUA",
    "acNumber": 63,
    "acName": "BANI",
    "partNumber": 11,
    "partName": "LOWANG",
    "lat": 32.754419150000004,
    "lon": 75.79699664567234
  },
  {
    "partId": 4777,
    "stateCode": "U08",
    "stateName": "Jammu and Kashmir",
    "districtCode": "U0816",
    "districtName": "KATHUA",
    "acNumber": 63,
    "acName": "BANI",
    "partNumber": 12,
    "partName": "KHURWAH",
    "lat": 32.754419150000004,
    "lon": 75.79699664567234
  },
  {
    "partId": 4778,
    "stateCode": "U08",
    "stateName": "Jammu and Kashmir",
    "districtCode": "U0816",
    "districtName": "KATHUA",
    "acNumber": 63,
    "acName": "BANI",
    "partNumber": 13,
    "partName": "HALLA",
    "lat": 32.754419150000004,
    "lon": 75.79699664567234
  },
  {
    "partId": 4779,
    "stateCode": "U08",
    "stateName": "Jammu and Kashmir",
    "districtCode": "U0816",
    "districtName": "KATHUA",
    "acNumber": 63,
    "acName": "BANI",
    "partNumber": 14,
    "partName": "SELLI",
    "lat": 32.754419150000004,
    "lon": 75.79699664567234
  },
  {
    "partId": 4775,
    "stateCode": "U08",
    "stateName": "Jammu and Kashmir",
    "districtCode": "U0816",
    "districtName": "KATHUA",
    "acNumber": 63,
    "acName": "BANI",
    "partNumber": 15,
    "partName": "BADHYAL LOWANG",
    "lat": 32.754419150000004,
    "lon": 75.79699664567234
  },
  {
    "partId": 4789,
    "stateCode": "U08",
    "stateName": "Jammu and Kashmir",
    "districtCode": "U0816",
    "districtName": "KATHUA",
    "acNumber": 63,
    "acName": "BANI",
    "partNumber": 16,
    "partName": "AMNOTA",
    "lat": 32.754419150000004,
    "lon": 75.79699664567234
  },
  {
    "partId": 4795,
    "stateCode": "U08",
    "stateName": "Jammu and Kashmir",
    "districtCode": "U0816",
    "districtName": "KATHUA",
    "acNumber": 63,
    "acName": "BANI",
    "partNumber": 17,
    "partName": "KANTHAL",
    "lat": 32.754419150000004,
    "lon": 75.79699664567234
  },
  {
    "partId": 4796,
    "stateCode": "U08",
    "stateName": "Jammu and Kashmir",
    "districtCode": "U0816",
    "districtName": "KATHUA",
    "acNumber": 63,
    "acName": "BANI",
    "partNumber": 18,
    "partName": "NALOOND",
    "lat": 32.754419150000004,
    "lon": 75.79699664567234
  },
  {
    "partId": 4794,
    "stateCode": "U08",
    "stateName": "Jammu and Kashmir",
    "districtCode": "U0816",
    "districtName": "KATHUA",
    "acNumber": 63,
    "acName": "BANI",
    "partNumber": 19,
    "partName": "BADRAH",
    "lat": 32.754419150000004,
    "lon": 75.79699664567234
  },
  {
    "partId": 4793,
    "stateCode": "U08",
    "stateName": "Jammu and Kashmir",
    "districtCode": "U0816",
    "districtName": "KATHUA",
    "acNumber": 63,
    "acName": "BANI",
    "partNumber": 20,
    "partName": "CHHACHAL",
    "lat": 32.754419150000004,
    "lon": 75.79699664567234
  },
  {
    "partId": 4791,
    "stateCode": "U08",
    "stateName": "Jammu and Kashmir",
    "districtCode": "U0816",
    "districtName": "KATHUA",
    "acNumber": 63,
    "acName": "BANI",
    "partNumber": 21,
    "partName": "BARI",
    "lat": 32.7577935,
    "lon": 75.7996232
  },
  {
    "partId": 1541,
    "stateCode": "U08",
    "stateName": "Jammu and Kashmir",
    "districtCode": "U0816",
    "districtName": "KATHUA",
    "acNumber": 63,
    "acName": "BANI",
    "partNumber": 22,
    "partName": "DHAROLE",
    "lat": 32.754419150000004,
    "lon": 75.79699664567234
  },
  {
    "partId": 4790,
    "stateCode": "U08",
    "stateName": "Jammu and Kashmir",
    "districtCode": "U0816",
    "districtName": "KATHUA",
    "acNumber": 63,
    "acName": "BANI",
    "partNumber": 23,
    "partName": "DUGGAN",
    "lat": 32.7258179,
    "lon": 75.7558089
  },
  {
    "partId": 3184,
    "stateCode": "U08",
    "stateName": "Jammu and Kashmir",
    "districtCode": "U0816",
    "districtName": "KATHUA",
    "acNumber": 63,
    "acName": "BANI",
    "partNumber": 24,
    "partName": "BHULLARI",
    "lat": 32.754419150000004,
    "lon": 75.79699664567234
  },
  {
    "partId": 3185,
    "stateCode": "U08",
    "stateName": "Jammu and Kashmir",
    "districtCode": "U0816",
    "districtName": "KATHUA",
    "acNumber": 63,
    "acName": "BANI",
    "partNumber": 25,
    "partName": "DOULAH",
    "lat": 32.6976358,
    "lon": 75.7530872
  },
  {
    "partId": 3186,
    "stateCode": "U08",
    "stateName": "Jammu and Kashmir",
    "districtCode": "U0816",
    "districtName": "KATHUA",
    "acNumber": 63,
    "acName": "BANI",
    "partNumber": 26,
    "partName": "DHAMAN",
    "lat": 32.7140886,
    "lon": 75.7259841
  },
  {
    "partId": 3203,
    "stateCode": "U08",
    "stateName": "Jammu and Kashmir",
    "districtCode": "U0816",
    "districtName": "KATHUA",
    "acNumber": 63,
    "acName": "BANI",
    "partNumber": 27,
    "partName": "DHABI",
    "lat": 32.754419150000004,
    "lon": 75.79699664567234
  },
  {
    "partId": 3201,
    "stateCode": "U08",
    "stateName": "Jammu and Kashmir",
    "districtCode": "U0816",
    "districtName": "KATHUA",
    "acNumber": 63,
    "acName": "BANI",
    "partNumber": 28,
    "partName": "NELHEW",
    "lat": 32.754419150000004,
    "lon": 75.79699664567234
  },
  {
    "partId": 4808,
    "stateCode": "U08",
    "stateName": "Jammu and Kashmir",
    "districtCode": "U0816",
    "districtName": "KATHUA",
    "acNumber": 63,
    "acName": "BANI",
    "partNumber": 29,
    "partName": "CHAROGA",
    "lat": 32.754419150000004,
    "lon": 75.79699664567234
  },
  {
    "partId": 3200,
    "stateCode": "U08",
    "stateName": "Jammu and Kashmir",
    "districtCode": "U0816",
    "districtName": "KATHUA",
    "acNumber": 63,
    "acName": "BANI",
    "partNumber": 30,
    "partName": "SURAG",
    "lat": 32.7115573,
    "lon": 75.678751
  },
  {
    "partId": 3202,
    "stateCode": "U08",
    "stateName": "Jammu and Kashmir",
    "districtCode": "U0816",
    "districtName": "KATHUA",
    "acNumber": 63,
    "acName": "BANI",
    "partNumber": 31,
    "partName": "THAL A",
    "lat": 32.711999,
    "lon": 75.6461812
  },
  {
    "partId": 3204,
    "stateCode": "U08",
    "stateName": "Jammu and Kashmir",
    "districtCode": "U0816",
    "districtName": "KATHUA",
    "acNumber": 63,
    "acName": "BANI",
    "partNumber": 32,
    "partName": "THAL B",
    "lat": 32.711999,
    "lon": 75.6461812
  },
  {
    "partId": 3205,
    "stateCode": "U08",
    "stateName": "Jammu and Kashmir",
    "districtCode": "U0816",
    "districtName": "KATHUA",
    "acNumber": 63,
    "acName": "BANI",
    "partNumber": 33,
    "partName": "BADNOTA A",
    "lat": 32.754419150000004,
    "lon": 75.79699664567234
  },
  {
    "partId": 1542,
    "stateCode": "U08",
    "stateName": "Jammu and Kashmir",
    "districtCode": "U0816",
    "districtName": "KATHUA",
    "acNumber": 63,
    "acName": "BANI",
    "partNumber": 34,
    "partName": "BHATTA",
    "lat": 32.754419150000004,
    "lon": 75.79699664567234
  },
  {
    "partId": 3206,
    "stateCode": "U08",
    "stateName": "Jammu and Kashmir",
    "districtCode": "U0816",
    "districtName": "KATHUA",
    "acNumber": 63,
    "acName": "BANI",
    "partNumber": 35,
    "partName": "BADNOTA B",
    "lat": 32.754419150000004,
    "lon": 75.79699664567234
  },
  {
    "partId": 3207,
    "stateCode": "U08",
    "stateName": "Jammu and Kashmir",
    "districtCode": "U0816",
    "districtName": "KATHUA",
    "acNumber": 63,
    "acName": "BANI",
    "partNumber": 36,
    "partName": "KINDLI A",
    "lat": 32.7591338,
    "lon": 75.6084246
  },
  {
    "partId": 1543,
    "stateCode": "U08",
    "stateName": "Jammu and Kashmir",
    "districtCode": "U0816",
    "districtName": "KATHUA",
    "acNumber": 63,
    "acName": "BANI",
    "partNumber": 37,
    "partName": "NATHI",
    "lat": 32.7349191,
    "lon": 75.5988812
  },
  {
    "partId": 3208,
    "stateCode": "U08",
    "stateName": "Jammu and Kashmir",
    "districtCode": "U0816",
    "districtName": "KATHUA",
    "acNumber": 63,
    "acName": "BANI",
    "partNumber": 38,
    "partName": "KINDLI B",
    "lat": 32.7591338,
    "lon": 75.6084246
  },
  {
    "partId": 3212,
    "stateCode": "U08",
    "stateName": "Jammu and Kashmir",
    "districtCode": "U0816",
    "districtName": "KATHUA",
    "acNumber": 63,
    "acName": "BANI",
    "partNumber": 39,
    "partName": "SADROTA A",
    "lat": 32.73755,
    "lon": 75.5447234
  },
  {
    "partId": 3215,
    "stateCode": "U08",
    "stateName": "Jammu and Kashmir",
    "districtCode": "U0816",
    "districtName": "KATHUA",
    "acNumber": 63,
    "acName": "BANI",
    "partNumber": 40,
    "partName": "BHATWAL",
    "lat": 32.7520573,
    "lon": 75.5145167
  },
  {
    "partId": 3216,
    "stateCode": "U08",
    "stateName": "Jammu and Kashmir",
    "districtCode": "U0816",
    "districtName": "KATHUA",
    "acNumber": 63,
    "acName": "BANI",
    "partNumber": 41,
    "partName": "BHATODI A",
    "lat": 32.754419150000004,
    "lon": 75.79699664567234
  },
  {
    "partId": 3219,
    "stateCode": "U08",
    "stateName": "Jammu and Kashmir",
    "districtCode": "U0816",
    "districtName": "KATHUA",
    "acNumber": 63,
    "acName": "BANI",
    "partNumber": 42,
    "partName": "GUDU FALAL A",
    "lat": 32.754419150000004,
    "lon": 75.79699664567234
  },
  {
    "partId": 3218,
    "stateCode": "U08",
    "stateName": "Jammu and Kashmir",
    "districtCode": "U0816",
    "districtName": "KATHUA",
    "acNumber": 63,
    "acName": "BANI",
    "partNumber": 43,
    "partName": "GUDU FAFAL B",
    "lat": 32.754419150000004,
    "lon": 75.79699664567234
  },
  {
    "partId": 3223,
    "stateCode": "U08",
    "stateName": "Jammu and Kashmir",
    "districtCode": "U0816",
    "districtName": "KATHUA",
    "acNumber": 63,
    "acName": "BANI",
    "partNumber": 44,
    "partName": "BANJAL (BHATWAL)",
    "lat": 32.754419150000004,
    "lon": 75.79699664567234
  },
  {
    "partId": 3217,
    "stateCode": "U08",
    "stateName": "Jammu and Kashmir",
    "districtCode": "U0816",
    "districtName": "KATHUA",
    "acNumber": 63,
    "acName": "BANI",
    "partNumber": 45,
    "partName": "BHATODI B",
    "lat": 32.754419150000004,
    "lon": 75.79699664567234
  },
  {
    "partId": 3213,
    "stateCode": "U08",
    "stateName": "Jammu and Kashmir",
    "districtCode": "U0816",
    "districtName": "KATHUA",
    "acNumber": 63,
    "acName": "BANI",
    "partNumber": 46,
    "partName": "JONANA",
    "lat": 32.754419150000004,
    "lon": 75.79699664567234
  },
  {
    "partId": 3214,
    "stateCode": "U08",
    "stateName": "Jammu and Kashmir",
    "districtCode": "U0816",
    "districtName": "KATHUA",
    "acNumber": 63,
    "acName": "BANI",
    "partNumber": 47,
    "partName": "RAI SIAL",
    "lat": 32.754419150000004,
    "lon": 75.79699664567234
  },
  {
    "partId": 1586,
    "stateCode": "U08",
    "stateName": "Jammu and Kashmir",
    "districtCode": "U0816",
    "districtName": "KATHUA",
    "acNumber": 63,
    "acName": "BANI",
    "partNumber": 48,
    "partName": "NAJOTE A",
    "lat": 32.754419150000004,
    "lon": 75.79699664567234
  },
  {
    "partId": 1587,
    "stateCode": "U08",
    "stateName": "Jammu and Kashmir",
    "districtCode": "U0816",
    "districtName": "KATHUA",
    "acNumber": 63,
    "acName": "BANI",
    "partNumber": 49,
    "partName": "NAJOTE B",
    "lat": 32.754419150000004,
    "lon": 75.79699664567234
  },
  {
    "partId": 1588,
    "stateCode": "U08",
    "stateName": "Jammu and Kashmir",
    "districtCode": "U0816",
    "districtName": "KATHUA",
    "acNumber": 63,
    "acName": "BANI",
    "partNumber": 50,
    "partName": "TRAPPER NAJOTE",
    "lat": 32.754419150000004,
    "lon": 75.79699664567234
  },
  {
    "partId": 2376,
    "stateCode": "U08",
    "stateName": "Jammu and Kashmir",
    "districtCode": "U0816",
    "districtName": "KATHUA",
    "acNumber": 63,
    "acName": "BANI",
    "partNumber": 51,
    "partName": "NATTER",
    "lat": 32.754419150000004,
    "lon": 75.79699664567234
  },
  {
    "partId": 3211,
    "stateCode": "U08",
    "stateName": "Jammu and Kashmir",
    "districtCode": "U0816",
    "districtName": "KATHUA",
    "acNumber": 63,
    "acName": "BANI",
    "partNumber": 52,
    "partName": "BAJOHI",
    "lat": 32.754419150000004,
    "lon": 75.79699664567234
  },
  {
    "partId": 4809,
    "stateCode": "U08",
    "stateName": "Jammu and Kashmir",
    "districtCode": "U0816",
    "districtName": "KATHUA",
    "acNumber": 63,
    "acName": "BANI",
    "partNumber": 53,
    "partName": "BAJOHI A",
    "lat": 32.754419150000004,
    "lon": 75.79699664567234
  },
  {
    "partId": 3209,
    "stateCode": "U08",
    "stateName": "Jammu and Kashmir",
    "districtCode": "U0816",
    "districtName": "KATHUA",
    "acNumber": 63,
    "acName": "BANI",
    "partNumber": 54,
    "partName": "MACHHEDI",
    "lat": 32.754419150000004,
    "lon": 75.79699664567234
  },
  {
    "partId": 3210,
    "stateCode": "U08",
    "stateName": "Jammu and Kashmir",
    "districtCode": "U0816",
    "districtName": "KATHUA",
    "acNumber": 63,
    "acName": "BANI",
    "partNumber": 55,
    "partName": "MACHHEDI B",
    "lat": 32.754419150000004,
    "lon": 75.79699664567234
  },
  {
    "partId": 3199,
    "stateCode": "U08",
    "stateName": "Jammu and Kashmir",
    "districtCode": "U0816",
    "districtName": "KATHUA",
    "acNumber": 63,
    "acName": "BANI",
    "partNumber": 56,
    "partName": "SUKRANI",
    "lat": 32.754419150000004,
    "lon": 75.79699664567234
  },
  {
    "partId": 3198,
    "stateCode": "U08",
    "stateName": "Jammu and Kashmir",
    "districtCode": "U0816",
    "districtName": "KATHUA",
    "acNumber": 63,
    "acName": "BANI",
    "partNumber": 57,
    "partName": "MALHAR",
    "lat": 32.7105759,
    "lon": 75.6708016
  },
  {
    "partId": 3197,
    "stateCode": "U08",
    "stateName": "Jammu and Kashmir",
    "districtCode": "U0816",
    "districtName": "KATHUA",
    "acNumber": 63,
    "acName": "BANI",
    "partNumber": 58,
    "partName": "HATTI TALLA",
    "lat": 32.754419150000004,
    "lon": 75.79699664567234
  },
  {
    "partId": 3196,
    "stateCode": "U08",
    "stateName": "Jammu and Kashmir",
    "districtCode": "U0816",
    "districtName": "KATHUA",
    "acNumber": 63,
    "acName": "BANI",
    "partNumber": 59,
    "partName": "MALAD",
    "lat": 32.699064,
    "lon": 75.6990057
  },
  {
    "partId": 3182,
    "stateCode": "U08",
    "stateName": "Jammu and Kashmir",
    "districtCode": "U0816",
    "districtName": "KATHUA",
    "acNumber": 63,
    "acName": "BANI",
    "partNumber": 60,
    "partName": "DULLANGAL",
    "lat": 32.7111789,
    "lon": 75.7402985
  },
  {
    "partId": 3183,
    "stateCode": "U08",
    "stateName": "Jammu and Kashmir",
    "districtCode": "U0816",
    "districtName": "KATHUA",
    "acNumber": 63,
    "acName": "BANI",
    "partNumber": 61,
    "partName": "SHANDAR",
    "lat": 32.754419150000004,
    "lon": 75.79699664567234
  },
  {
    "partId": 3187,
    "stateCode": "U08",
    "stateName": "Jammu and Kashmir",
    "districtCode": "U0816",
    "districtName": "KATHUA",
    "acNumber": 63,
    "acName": "BANI",
    "partNumber": 62,
    "partName": "KOTI",
    "lat": 32.6231636,
    "lon": 75.612433
  },
  {
    "partId": 3189,
    "stateCode": "U08",
    "stateName": "Jammu and Kashmir",
    "districtCode": "U0816",
    "districtName": "KATHUA",
    "acNumber": 63,
    "acName": "BANI",
    "partNumber": 63,
    "partName": "DHANOI",
    "lat": 32.754419150000004,
    "lon": 75.79699664567234
  },
  {
    "partId": 3188,
    "stateCode": "U08",
    "stateName": "Jammu and Kashmir",
    "districtCode": "U0816",
    "districtName": "KATHUA",
    "acNumber": 63,
    "acName": "BANI",
    "partNumber": 64,
    "partName": "CHANDYAR",
    "lat": 32.754419150000004,
    "lon": 75.79699664567234
  },
  {
    "partId": 3221,
    "stateCode": "U08",
    "stateName": "Jammu and Kashmir",
    "districtCode": "U0816",
    "districtName": "KATHUA",
    "acNumber": 63,
    "acName": "BANI",
    "partNumber": 65,
    "partName": "KALOONI",
    "lat": 32.754419150000004,
    "lon": 75.79699664567234
  },
  {
    "partId": 3181,
    "stateCode": "U08",
    "stateName": "Jammu and Kashmir",
    "districtCode": "U0816",
    "districtName": "KATHUA",
    "acNumber": 63,
    "acName": "BANI",
    "partNumber": 66,
    "partName": "BACKON",
    "lat": 32.754419150000004,
    "lon": 75.79699664567234
  },
  {
    "partId": 3190,
    "stateCode": "U08",
    "stateName": "Jammu and Kashmir",
    "districtCode": "U0816",
    "districtName": "KATHUA",
    "acNumber": 63,
    "acName": "BANI",
    "partNumber": 67,
    "partName": "SURJAN",
    "lat": 32.754419150000004,
    "lon": 75.79699664567234
  },
  {
    "partId": 3222,
    "stateCode": "U08",
    "stateName": "Jammu and Kashmir",
    "districtCode": "U0816",
    "districtName": "KATHUA",
    "acNumber": 63,
    "acName": "BANI",
    "partNumber": 68,
    "partName": "DHAALOGA",
    "lat": 32.754419150000004,
    "lon": 75.79699664567234
  },
  {
    "partId": 4792,
    "stateCode": "U08",
    "stateName": "Jammu and Kashmir",
    "districtCode": "U0816",
    "districtName": "KATHUA",
    "acNumber": 63,
    "acName": "BANI",
    "partNumber": 69,
    "partName": "GAWAR",
    "lat": 32.754419150000004,
    "lon": 75.79699664567234
  },
  {
    "partId": 3177,
    "stateCode": "U08",
    "stateName": "Jammu and Kashmir",
    "districtCode": "U0816",
    "districtName": "KATHUA",
    "acNumber": 63,
    "acName": "BANI",
    "partNumber": 70,
    "partName": "SIRRA (BANI)",
    "lat": 32.754419150000004,
    "lon": 75.79699664567234
  },
  {
    "partId": 4804,
    "stateCode": "U08",
    "stateName": "Jammu and Kashmir",
    "districtCode": "U0816",
    "districtName": "KATHUA",
    "acNumber": 63,
    "acName": "BANI",
    "partNumber": 71,
    "partName": "BANI",
    "lat": 32.754419150000004,
    "lon": 75.79699664567234
  },
  {
    "partId": 4798,
    "stateCode": "U08",
    "stateName": "Jammu and Kashmir",
    "districtCode": "U0816",
    "districtName": "KATHUA",
    "acNumber": 63,
    "acName": "BANI",
    "partNumber": 72,
    "partName": "PANEKHI",
    "lat": 32.754419150000004,
    "lon": 75.79699664567234
  },
  {
    "partId": 4787,
    "stateCode": "U08",
    "stateName": "Jammu and Kashmir",
    "districtCode": "U0816",
    "districtName": "KATHUA",
    "acNumber": 63,
    "acName": "BANI",
    "partNumber": 73,
    "partName": "ASSO",
    "lat": 32.754419150000004,
    "lon": 75.79699664567234
  },
  {
    "partId": 4781,
    "stateCode": "U08",
    "stateName": "Jammu and Kashmir",
    "districtCode": "U0816",
    "districtName": "KATHUA",
    "acNumber": 63,
    "acName": "BANI",
    "partNumber": 74,
    "partName": "KILORE",
    "lat": 32.754419150000004,
    "lon": 75.79699664567234
  },
  {
    "partId": 4782,
    "stateCode": "U08",
    "stateName": "Jammu and Kashmir",
    "districtCode": "U0816",
    "districtName": "KATHUA",
    "acNumber": 63,
    "acName": "BANI",
    "partNumber": 75,
    "partName": "SANDROON",
    "lat": 32.754419150000004,
    "lon": 75.79699664567234
  },
  {
    "partId": 4784,
    "stateCode": "U08",
    "stateName": "Jammu and Kashmir",
    "districtCode": "U0816",
    "districtName": "KATHUA",
    "acNumber": 63,
    "acName": "BANI",
    "partNumber": 76,
    "partName": "BANDGHAT",
    "lat": 32.754419150000004,
    "lon": 75.79699664567234
  },
  {
    "partId": 4783,
    "stateCode": "U08",
    "stateName": "Jammu and Kashmir",
    "districtCode": "U0816",
    "districtName": "KATHUA",
    "acNumber": 63,
    "acName": "BANI",
    "partNumber": 77,
    "partName": "DANDIOT",
    "lat": 32.754419150000004,
    "lon": 75.79699664567234
  },
  {
    "partId": 4785,
    "stateCode": "U08",
    "stateName": "Jammu and Kashmir",
    "districtCode": "U0816",
    "districtName": "KATHUA",
    "acNumber": 63,
    "acName": "BANI",
    "partNumber": 78,
    "partName": "BHANDAR",
    "lat": 32.754419150000004,
    "lon": 75.79699664567234
  },
  {
    "partId": 4786,
    "stateCode": "U08",
    "stateName": "Jammu and Kashmir",
    "districtCode": "U0816",
    "districtName": "KATHUA",
    "acNumber": 63,
    "acName": "BANI",
    "partNumber": 79,
    "partName": "KALANU",
    "lat": 32.754419150000004,
    "lon": 75.79699664567234
  },
  {
    "partId": 4806,
    "stateCode": "U08",
    "stateName": "Jammu and Kashmir",
    "districtCode": "U0816",
    "districtName": "KATHUA",
    "acNumber": 63,
    "acName": "BANI",
    "partNumber": 80,
    "partName": "TITWAH",
    "lat": 32.754419150000004,
    "lon": 75.79699664567234
  },
  {
    "partId": 4797,
    "stateCode": "U08",
    "stateName": "Jammu and Kashmir",
    "districtCode": "U0816",
    "districtName": "KATHUA",
    "acNumber": 63,
    "acName": "BANI",
    "partNumber": 81,
    "partName": "SITTI",
    "lat": 32.754419150000004,
    "lon": 75.79699664567234
  },
  {
    "partId": 3179,
    "stateCode": "U08",
    "stateName": "Jammu and Kashmir",
    "districtCode": "U0816",
    "districtName": "KATHUA",
    "acNumber": 63,
    "acName": "BANI",
    "partNumber": 82,
    "partName": "NEKA",
    "lat": 32.754419150000004,
    "lon": 75.79699664567234
  },
  {
    "partId": 3178,
    "stateCode": "U08",
    "stateName": "Jammu and Kashmir",
    "districtCode": "U0816",
    "districtName": "KATHUA",
    "acNumber": 63,
    "acName": "BANI",
    "partNumber": 83,
    "partName": "GATTI",
    "lat": 32.754419150000004,
    "lon": 75.79699664567234
  },
  {
    "partId": 3180,
    "stateCode": "U08",
    "stateName": "Jammu and Kashmir",
    "districtCode": "U0816",
    "districtName": "KATHUA",
    "acNumber": 63,
    "acName": "BANI",
    "partNumber": 84,
    "partName": "CHALOGE",
    "lat": 32.754419150000004,
    "lon": 75.79699664567234
  },
  {
    "partId": 3192,
    "stateCode": "U08",
    "stateName": "Jammu and Kashmir",
    "districtCode": "U0816",
    "districtName": "KATHUA",
    "acNumber": 63,
    "acName": "BANI",
    "partNumber": 85,
    "partName": "KACHIR",
    "lat": 32.754419150000004,
    "lon": 75.79699664567234
  },
  {
    "partId": 3191,
    "stateCode": "U08",
    "stateName": "Jammu and Kashmir",
    "districtCode": "U0816",
    "districtName": "KATHUA",
    "acNumber": 63,
    "acName": "BANI",
    "partNumber": 86,
    "partName": "BANJAL",
    "lat": 32.733234,
    "lon": 75.5847294
  },
  {
    "partId": 3193,
    "stateCode": "U08",
    "stateName": "Jammu and Kashmir",
    "districtCode": "U0816",
    "districtName": "KATHUA",
    "acNumber": 63,
    "acName": "BANI",
    "partNumber": 87,
    "partName": "DHARORE",
    "lat": 32.754419150000004,
    "lon": 75.79699664567234
  },
  {
    "partId": 4801,
    "stateCode": "U08",
    "stateName": "Jammu and Kashmir",
    "districtCode": "U0816",
    "districtName": "KATHUA",
    "acNumber": 63,
    "acName": "BANI",
    "partNumber": 88,
    "partName": "FAGOLTA  (FATEHPUR)",
    "lat": 32.754419150000004,
    "lon": 75.79699664567234
  },
  {
    "partId": 4799,
    "stateCode": "U08",
    "stateName": "Jammu and Kashmir",
    "districtCode": "U0816",
    "districtName": "KATHUA",
    "acNumber": 63,
    "acName": "BANI",
    "partNumber": 89,
    "partName": "FATEHPUR",
    "lat": 32.6859122,
    "lon": 75.8689738
  },
  {
    "partId": 4802,
    "stateCode": "U08",
    "stateName": "Jammu and Kashmir",
    "districtCode": "U0816",
    "districtName": "KATHUA",
    "acNumber": 63,
    "acName": "BANI",
    "partNumber": 90,
    "partName": "SERU SANDHI",
    "lat": 32.754419150000004,
    "lon": 75.79699664567234
  },
  {
    "partId": 4803,
    "stateCode": "U08",
    "stateName": "Jammu and Kashmir",
    "districtCode": "U0816",
    "districtName": "KATHUA",
    "acNumber": 63,
    "acName": "BANI",
    "partNumber": 91,
    "partName": "SANDHI",
    "lat": 32.754419150000004,
    "lon": 75.79699664567234
  },
  {
    "partId": 4800,
    "stateCode": "U08",
    "stateName": "Jammu and Kashmir",
    "districtCode": "U0816",
    "districtName": "KATHUA",
    "acNumber": 63,
    "acName": "BANI",
    "partNumber": 92,
    "partName": "MUKLERA",
    "lat": 32.6827276,
    "lon": 75.862305
  },
  {
    "partId": 3194,
    "stateCode": "U08",
    "stateName": "Jammu and Kashmir",
    "districtCode": "U0816",
    "districtName": "KATHUA",
    "acNumber": 63,
    "acName": "BANI",
    "partNumber": 93,
    "partName": "SIARA",
    "lat": 32.754419150000004,
    "lon": 75.79699664567234
  },
  {
    "partId": 3195,
    "stateCode": "U08",
    "stateName": "Jammu and Kashmir",
    "districtCode": "U0816",
    "districtName": "KATHUA",
    "acNumber": 63,
    "acName": "BANI",
    "partNumber": 94,
    "partName": "MANDRERA",
    "lat": 32.754419150000004,
    "lon": 75.79699664567234
  },
  {
    "partId": 2061,
    "stateCode": "U08",
    "stateName": "Jammu and Kashmir",
    "districtCode": "U0816",
    "districtName": "KATHUA",
    "acNumber": 65,
    "acName": "BASOHLI",
    "partNumber": 1,
    "partName": "PLAIL",
    "lat": 32.500799657142856,
    "lon": 75.7978774687316
  },
  {
    "partId": 2058,
    "stateCode": "U08",
    "stateName": "Jammu and Kashmir",
    "districtCode": "U0816",
    "districtName": "KATHUA",
    "acNumber": 65,
    "acName": "BASOHLI",
    "partNumber": 2,
    "partName": "DHAMLAR A",
    "lat": 32.500799657142856,
    "lon": 75.7978774687316
  },
  {
    "partId": 2057,
    "stateCode": "U08",
    "stateName": "Jammu and Kashmir",
    "districtCode": "U0816",
    "districtName": "KATHUA",
    "acNumber": 65,
    "acName": "BASOHLI",
    "partNumber": 3,
    "partName": "DHAMLAR B",
    "lat": 32.4288215,
    "lon": 75.56286458392415
  },
  {
    "partId": 2056,
    "stateCode": "U08",
    "stateName": "Jammu and Kashmir",
    "districtCode": "U0816",
    "districtName": "KATHUA",
    "acNumber": 65,
    "acName": "BASOHLI",
    "partNumber": 4,
    "partName": "CHANEERA A",
    "lat": 32.500799657142856,
    "lon": 75.7978774687316
  },
  {
    "partId": 2107,
    "stateCode": "U08",
    "stateName": "Jammu and Kashmir",
    "districtCode": "U0816",
    "districtName": "KATHUA",
    "acNumber": 65,
    "acName": "BASOHLI",
    "partNumber": 5,
    "partName": "CHANEERA B",
    "lat": 32.500799657142856,
    "lon": 75.7978774687316
  },
  {
    "partId": 2051,
    "stateCode": "U08",
    "stateName": "Jammu and Kashmir",
    "districtCode": "U0816",
    "districtName": "KATHUA",
    "acNumber": 65,
    "acName": "BASOHLI",
    "partNumber": 6,
    "partName": "DHARMAHANPUR A",
    "lat": 32.4985409,
    "lon": 75.8179027
  },
  {
    "partId": 2052,
    "stateCode": "U08",
    "stateName": "Jammu and Kashmir",
    "districtCode": "U0816",
    "districtName": "KATHUA",
    "acNumber": 65,
    "acName": "BASOHLI",
    "partNumber": 7,
    "partName": "DHARMAHANPUR B",
    "lat": 32.4985409,
    "lon": 75.8179027
  },
  {
    "partId": 2046,
    "stateCode": "U08",
    "stateName": "Jammu and Kashmir",
    "districtCode": "U0816",
    "districtName": "KATHUA",
    "acNumber": 65,
    "acName": "BASOHLI",
    "partNumber": 8,
    "partName": "DHARKORE A",
    "lat": 32.4985409,
    "lon": 75.8179027
  },
  {
    "partId": 2047,
    "stateCode": "U08",
    "stateName": "Jammu and Kashmir",
    "districtCode": "U0816",
    "districtName": "KATHUA",
    "acNumber": 65,
    "acName": "BASOHLI",
    "partNumber": 9,
    "partName": "DHARKORE B",
    "lat": 32.4985409,
    "lon": 75.8179027
  },
  {
    "partId": 1552,
    "stateCode": "U08",
    "stateName": "Jammu and Kashmir",
    "districtCode": "U0816",
    "districtName": "KATHUA",
    "acNumber": 65,
    "acName": "BASOHLI",
    "partNumber": 10,
    "partName": "DHAR KORE",
    "lat": 32.4985409,
    "lon": 75.8179027
  },
  {
    "partId": 3231,
    "stateCode": "U08",
    "stateName": "Jammu and Kashmir",
    "districtCode": "U0816",
    "districtName": "KATHUA",
    "acNumber": 65,
    "acName": "BASOHLI",
    "partNumber": 11,
    "partName": "DHARJANKHER A",
    "lat": 32.4985409,
    "lon": 75.8179027
  },
  {
    "partId": 3232,
    "stateCode": "U08",
    "stateName": "Jammu and Kashmir",
    "districtCode": "U0816",
    "districtName": "KATHUA",
    "acNumber": 65,
    "acName": "BASOHLI",
    "partNumber": 12,
    "partName": "DHAR JHANKHER B",
    "lat": 32.4985409,
    "lon": 75.8179027
  },
  {
    "partId": 3235,
    "stateCode": "U08",
    "stateName": "Jammu and Kashmir",
    "districtCode": "U0816",
    "districtName": "KATHUA",
    "acNumber": 65,
    "acName": "BASOHLI",
    "partNumber": 13,
    "partName": "DHARJANKHER C",
    "lat": 32.4985409,
    "lon": 75.8179027
  },
  {
    "partId": 3234,
    "stateCode": "U08",
    "stateName": "Jammu and Kashmir",
    "districtCode": "U0816",
    "districtName": "KATHUA",
    "acNumber": 65,
    "acName": "BASOHLI",
    "partNumber": 14,
    "partName": "DHARJANKHER D",
    "lat": 32.4985409,
    "lon": 75.8179027
  },
  {
    "partId": 3233,
    "stateCode": "U08",
    "stateName": "Jammu and Kashmir",
    "districtCode": "U0816",
    "districtName": "KATHUA",
    "acNumber": 65,
    "acName": "BASOHLI",
    "partNumber": 15,
    "partName": "DHARJANKHER E",
    "lat": 32.4985409,
    "lon": 75.8179027
  },
  {
    "partId": 3226,
    "stateCode": "U08",
    "stateName": "Jammu and Kashmir",
    "districtCode": "U0816",
    "districtName": "KATHUA",
    "acNumber": 65,
    "acName": "BASOHLI",
    "partNumber": 16,
    "partName": "GODAL A",
    "lat": 32.4985409,
    "lon": 75.8179027
  },
  {
    "partId": 1551,
    "stateCode": "U08",
    "stateName": "Jammu and Kashmir",
    "districtCode": "U0816",
    "districtName": "KATHUA",
    "acNumber": 65,
    "acName": "BASOHLI",
    "partNumber": 17,
    "partName": "GHODAL",
    "lat": 32.4985409,
    "lon": 75.8179027
  },
  {
    "partId": 3228,
    "stateCode": "U08",
    "stateName": "Jammu and Kashmir",
    "districtCode": "U0816",
    "districtName": "KATHUA",
    "acNumber": 65,
    "acName": "BASOHLI",
    "partNumber": 18,
    "partName": "GODAL B",
    "lat": 32.4985409,
    "lon": 75.8179027
  },
  {
    "partId": 3227,
    "stateCode": "U08",
    "stateName": "Jammu and Kashmir",
    "districtCode": "U0816",
    "districtName": "KATHUA",
    "acNumber": 65,
    "acName": "BASOHLI",
    "partNumber": 19,
    "partName": "NAGALI",
    "lat": 32.4985409,
    "lon": 75.8179027
  },
  {
    "partId": 3229,
    "stateCode": "U08",
    "stateName": "Jammu and Kashmir",
    "districtCode": "U0816",
    "districtName": "KATHUA",
    "acNumber": 65,
    "acName": "BASOHLI",
    "partNumber": 20,
    "partName": "SIALG",
    "lat": 32.4985409,
    "lon": 75.8179027
  },
  {
    "partId": 3230,
    "stateCode": "U08",
    "stateName": "Jammu and Kashmir",
    "districtCode": "U0816",
    "districtName": "KATHUA",
    "acNumber": 65,
    "acName": "BASOHLI",
    "partNumber": 21,
    "partName": "BHIKER",
    "lat": 32.4985409,
    "lon": 75.8179027
  },
  {
    "partId": 2099,
    "stateCode": "U08",
    "stateName": "Jammu and Kashmir",
    "districtCode": "U0816",
    "districtName": "KATHUA",
    "acNumber": 65,
    "acName": "BASOHLI",
    "partNumber": 22,
    "partName": "BHOOND",
    "lat": 32.6093685,
    "lon": 75.8180457
  },
  {
    "partId": 1548,
    "stateCode": "U08",
    "stateName": "Jammu and Kashmir",
    "districtCode": "U0816",
    "districtName": "KATHUA",
    "acNumber": 65,
    "acName": "BASOHLI",
    "partNumber": 23,
    "partName": "KOTE",
    "lat": 32.4985409,
    "lon": 75.8179027
  },
  {
    "partId": 2096,
    "stateCode": "U08",
    "stateName": "Jammu and Kashmir",
    "districtCode": "U0816",
    "districtName": "KATHUA",
    "acNumber": 65,
    "acName": "BASOHLI",
    "partNumber": 24,
    "partName": "JANU A",
    "lat": 32.6036988,
    "lon": 75.8375957
  },
  {
    "partId": 2097,
    "stateCode": "U08",
    "stateName": "Jammu and Kashmir",
    "districtCode": "U0816",
    "districtName": "KATHUA",
    "acNumber": 65,
    "acName": "BASOHLI",
    "partNumber": 25,
    "partName": "JANU B",
    "lat": 32.6036988,
    "lon": 75.8375957
  },
  {
    "partId": 2098,
    "stateCode": "U08",
    "stateName": "Jammu and Kashmir",
    "districtCode": "U0816",
    "districtName": "KATHUA",
    "acNumber": 65,
    "acName": "BASOHLI",
    "partNumber": 26,
    "partName": "DANNA",
    "lat": 32.4985409,
    "lon": 75.8179027
  },
  {
    "partId": 2101,
    "stateCode": "U08",
    "stateName": "Jammu and Kashmir",
    "districtCode": "U0816",
    "districtName": "KATHUA",
    "acNumber": 65,
    "acName": "BASOHLI",
    "partNumber": 27,
    "partName": "DRAMAN A",
    "lat": 32.4985409,
    "lon": 75.8179027
  },
  {
    "partId": 2103,
    "stateCode": "U08",
    "stateName": "Jammu and Kashmir",
    "districtCode": "U0816",
    "districtName": "KATHUA",
    "acNumber": 65,
    "acName": "BASOHLI",
    "partNumber": 28,
    "partName": "HUTT A",
    "lat": 32.4985409,
    "lon": 75.8179027
  },
  {
    "partId": 1549,
    "stateCode": "U08",
    "stateName": "Jammu and Kashmir",
    "districtCode": "U0816",
    "districtName": "KATHUA",
    "acNumber": 65,
    "acName": "BASOHLI",
    "partNumber": 29,
    "partName": "HUTT",
    "lat": 32.4985409,
    "lon": 75.8179027
  },
  {
    "partId": 2105,
    "stateCode": "U08",
    "stateName": "Jammu and Kashmir",
    "districtCode": "U0816",
    "districtName": "KATHUA",
    "acNumber": 65,
    "acName": "BASOHLI",
    "partNumber": 30,
    "partName": "KHADDI",
    "lat": 32.4985409,
    "lon": 75.8179027
  },
  {
    "partId": 2104,
    "stateCode": "U08",
    "stateName": "Jammu and Kashmir",
    "districtCode": "U0816",
    "districtName": "KATHUA",
    "acNumber": 65,
    "acName": "BASOHLI",
    "partNumber": 31,
    "partName": "HUTT B",
    "lat": 32.4985409,
    "lon": 75.8179027
  },
  {
    "partId": 2102,
    "stateCode": "U08",
    "stateName": "Jammu and Kashmir",
    "districtCode": "U0816",
    "districtName": "KATHUA",
    "acNumber": 65,
    "acName": "BASOHLI",
    "partNumber": 32,
    "partName": "DRAMAN B",
    "lat": 32.4985409,
    "lon": 75.8179027
  },
  {
    "partId": 2093,
    "stateCode": "U08",
    "stateName": "Jammu and Kashmir",
    "districtCode": "U0816",
    "districtName": "KATHUA",
    "acNumber": 65,
    "acName": "BASOHLI",
    "partNumber": 33,
    "partName": "SANDAR A",
    "lat": 32.5865243,
    "lon": 75.8343369
  },
  {
    "partId": 2094,
    "stateCode": "U08",
    "stateName": "Jammu and Kashmir",
    "districtCode": "U0816",
    "districtName": "KATHUA",
    "acNumber": 65,
    "acName": "BASOHLI",
    "partNumber": 34,
    "partName": "SANDAR B",
    "lat": 32.4985409,
    "lon": 75.8179027
  },
  {
    "partId": 4812,
    "stateCode": "U08",
    "stateName": "Jammu and Kashmir",
    "districtCode": "U0816",
    "districtName": "KATHUA",
    "acNumber": 65,
    "acName": "BASOHLI",
    "partNumber": 35,
    "partName": "SANDHAR",
    "lat": 32.5493307,
    "lon": 75.8522134
  },
  {
    "partId": 2095,
    "stateCode": "U08",
    "stateName": "Jammu and Kashmir",
    "districtCode": "U0816",
    "districtName": "KATHUA",
    "acNumber": 65,
    "acName": "BASOHLI",
    "partNumber": 36,
    "partName": "SANDAR C",
    "lat": 32.4985409,
    "lon": 75.8179027
  },
  {
    "partId": 2092,
    "stateCode": "U08",
    "stateName": "Jammu and Kashmir",
    "districtCode": "U0816",
    "districtName": "KATHUA",
    "acNumber": 65,
    "acName": "BASOHLI",
    "partNumber": 37,
    "partName": "DODLA",
    "lat": 32.4985409,
    "lon": 75.8179027
  },
  {
    "partId": 2100,
    "stateCode": "U08",
    "stateName": "Jammu and Kashmir",
    "districtCode": "U0816",
    "districtName": "KATHUA",
    "acNumber": 65,
    "acName": "BASOHLI",
    "partNumber": 38,
    "partName": "JANDRAHLI",
    "lat": 32.4985409,
    "lon": 75.8179027
  },
  {
    "partId": 2087,
    "stateCode": "U08",
    "stateName": "Jammu and Kashmir",
    "districtCode": "U0816",
    "districtName": "KATHUA",
    "acNumber": 65,
    "acName": "BASOHLI",
    "partNumber": 39,
    "partName": "SAMAN A",
    "lat": 32.4985409,
    "lon": 75.8179027
  },
  {
    "partId": 2088,
    "stateCode": "U08",
    "stateName": "Jammu and Kashmir",
    "districtCode": "U0816",
    "districtName": "KATHUA",
    "acNumber": 65,
    "acName": "BASOHLI",
    "partNumber": 40,
    "partName": "SAMAN B",
    "lat": 32.4985409,
    "lon": 75.8179027
  },
  {
    "partId": 2086,
    "stateCode": "U08",
    "stateName": "Jammu and Kashmir",
    "districtCode": "U0816",
    "districtName": "KATHUA",
    "acNumber": 65,
    "acName": "BASOHLI",
    "partNumber": 41,
    "partName": "MANDLA A",
    "lat": 32.4985409,
    "lon": 75.8179027
  },
  {
    "partId": 2089,
    "stateCode": "U08",
    "stateName": "Jammu and Kashmir",
    "districtCode": "U0816",
    "districtName": "KATHUA",
    "acNumber": 65,
    "acName": "BASOHLI",
    "partNumber": 42,
    "partName": "MANDLA B",
    "lat": 32.4985409,
    "lon": 75.8179027
  },
  {
    "partId": 2084,
    "stateCode": "U08",
    "stateName": "Jammu and Kashmir",
    "districtCode": "U0816",
    "districtName": "KATHUA",
    "acNumber": 65,
    "acName": "BASOHLI",
    "partNumber": 43,
    "partName": "REHAN",
    "lat": 32.4985409,
    "lon": 75.8179027
  },
  {
    "partId": 2111,
    "stateCode": "U08",
    "stateName": "Jammu and Kashmir",
    "districtCode": "U0816",
    "districtName": "KATHUA",
    "acNumber": 65,
    "acName": "BASOHLI",
    "partNumber": 44,
    "partName": "BATARA",
    "lat": 32.500799657142856,
    "lon": 75.7978774687316
  },
  {
    "partId": 2085,
    "stateCode": "U08",
    "stateName": "Jammu and Kashmir",
    "districtCode": "U0816",
    "districtName": "KATHUA",
    "acNumber": 65,
    "acName": "BASOHLI",
    "partNumber": 45,
    "partName": "DALOH",
    "lat": 32.4985409,
    "lon": 75.8179027
  },
  {
    "partId": 2090,
    "stateCode": "U08",
    "stateName": "Jammu and Kashmir",
    "districtCode": "U0816",
    "districtName": "KATHUA",
    "acNumber": 65,
    "acName": "BASOHLI",
    "partNumber": 46,
    "partName": "JANKHER A",
    "lat": 32.4985409,
    "lon": 75.8179027
  },
  {
    "partId": 1550,
    "stateCode": "U08",
    "stateName": "Jammu and Kashmir",
    "districtCode": "U0816",
    "districtName": "KATHUA",
    "acNumber": 65,
    "acName": "BASOHLI",
    "partNumber": 47,
    "partName": "JANKHER",
    "lat": 32.4985409,
    "lon": 75.8179027
  },
  {
    "partId": 2091,
    "stateCode": "U08",
    "stateName": "Jammu and Kashmir",
    "districtCode": "U0816",
    "districtName": "KATHUA",
    "acNumber": 65,
    "acName": "BASOHLI",
    "partNumber": 48,
    "partName": "JANKER B",
    "lat": 32.4985409,
    "lon": 75.8179027
  },
  {
    "partId": 2082,
    "stateCode": "U08",
    "stateName": "Jammu and Kashmir",
    "districtCode": "U0816",
    "districtName": "KATHUA",
    "acNumber": 65,
    "acName": "BASOHLI",
    "partNumber": 49,
    "partName": "KAGRORE A",
    "lat": 32.4985409,
    "lon": 75.8179027
  },
  {
    "partId": 2083,
    "stateCode": "U08",
    "stateName": "Jammu and Kashmir",
    "districtCode": "U0816",
    "districtName": "KATHUA",
    "acNumber": 65,
    "acName": "BASOHLI",
    "partNumber": 50,
    "partName": "KAGRORE B",
    "lat": 32.4985409,
    "lon": 75.8179027
  },
  {
    "partId": 4811,
    "stateCode": "U08",
    "stateName": "Jammu and Kashmir",
    "districtCode": "U0816",
    "districtName": "KATHUA",
    "acNumber": 65,
    "acName": "BASOHLI",
    "partNumber": 51,
    "partName": "KAGRORE C",
    "lat": 32.4985409,
    "lon": 75.8179027
  },
  {
    "partId": 2049,
    "stateCode": "U08",
    "stateName": "Jammu and Kashmir",
    "districtCode": "U0816",
    "districtName": "KATHUA",
    "acNumber": 65,
    "acName": "BASOHLI",
    "partNumber": 52,
    "partName": "PRETHA B",
    "lat": 32.4985409,
    "lon": 75.8179027
  },
  {
    "partId": 2048,
    "stateCode": "U08",
    "stateName": "Jammu and Kashmir",
    "districtCode": "U0816",
    "districtName": "KATHUA",
    "acNumber": 65,
    "acName": "BASOHLI",
    "partNumber": 53,
    "partName": "PRETHA A",
    "lat": 32.4985409,
    "lon": 75.8179027
  },
  {
    "partId": 4813,
    "stateCode": "U08",
    "stateName": "Jammu and Kashmir",
    "districtCode": "U0816",
    "districtName": "KATHUA",
    "acNumber": 65,
    "acName": "BASOHLI",
    "partNumber": 54,
    "partName": "PRETHA",
    "lat": 32.4985409,
    "lon": 75.8179027
  },
  {
    "partId": 2050,
    "stateCode": "U08",
    "stateName": "Jammu and Kashmir",
    "districtCode": "U0816",
    "districtName": "KATHUA",
    "acNumber": 65,
    "acName": "BASOHLI",
    "partNumber": 55,
    "partName": "PRETHA C",
    "lat": 32.4985409,
    "lon": 75.8179027
  },
  {
    "partId": 9599,
    "stateCode": "U08",
    "stateName": "Jammu and Kashmir",
    "districtCode": "U0816",
    "districtName": "KATHUA",
    "acNumber": 65,
    "acName": "BASOHLI",
    "partNumber": 56,
    "partName": "POONDA B",
    "lat": 32.500799657142856,
    "lon": 75.7978774687316
  },
  {
    "partId": 9598,
    "stateCode": "U08",
    "stateName": "Jammu and Kashmir",
    "districtCode": "U0816",
    "districtName": "KATHUA",
    "acNumber": 65,
    "acName": "BASOHLI",
    "partNumber": 57,
    "partName": "POONDA A",
    "lat": 32.4985409,
    "lon": 75.8179027
  },
  {
    "partId": 2054,
    "stateCode": "U08",
    "stateName": "Jammu and Kashmir",
    "districtCode": "U0816",
    "districtName": "KATHUA",
    "acNumber": 65,
    "acName": "BASOHLI",
    "partNumber": 58,
    "partName": "ADHAT B",
    "lat": 32.4985409,
    "lon": 75.8179027
  },
  {
    "partId": 2053,
    "stateCode": "U08",
    "stateName": "Jammu and Kashmir",
    "districtCode": "U0816",
    "districtName": "KATHUA",
    "acNumber": 65,
    "acName": "BASOHLI",
    "partNumber": 59,
    "partName": "ADHAT A",
    "lat": 32.4985409,
    "lon": 75.8179027
  },
  {
    "partId": 1523,
    "stateCode": "U08",
    "stateName": "Jammu and Kashmir",
    "districtCode": "U0816",
    "districtName": "KATHUA",
    "acNumber": 65,
    "acName": "BASOHLI",
    "partNumber": 60,
    "partName": "PATTI A",
    "lat": 32.4985409,
    "lon": 75.8179027
  },
  {
    "partId": 1554,
    "stateCode": "U08",
    "stateName": "Jammu and Kashmir",
    "districtCode": "U0816",
    "districtName": "KATHUA",
    "acNumber": 65,
    "acName": "BASOHLI",
    "partNumber": 61,
    "partName": "PATTI B",
    "lat": 32.4985409,
    "lon": 75.8179027
  },
  {
    "partId": 1553,
    "stateCode": "U08",
    "stateName": "Jammu and Kashmir",
    "districtCode": "U0816",
    "districtName": "KATHUA",
    "acNumber": 65,
    "acName": "BASOHLI",
    "partNumber": 62,
    "partName": "PATTI",
    "lat": 32.500799657142856,
    "lon": 75.7978774687316
  },
  {
    "partId": 2055,
    "stateCode": "U08",
    "stateName": "Jammu and Kashmir",
    "districtCode": "U0816",
    "districtName": "KATHUA",
    "acNumber": 65,
    "acName": "BASOHLI",
    "partNumber": 63,
    "partName": "KALARI",
    "lat": 32.4985409,
    "lon": 75.8179027
  },
  {
    "partId": 4815,
    "stateCode": "U08",
    "stateName": "Jammu and Kashmir",
    "districtCode": "U0816",
    "districtName": "KATHUA",
    "acNumber": 65,
    "acName": "BASOHLI",
    "partNumber": 64,
    "partName": "KHELARI",
    "lat": 32.4985409,
    "lon": 75.8179027
  },
  {
    "partId": 1522,
    "stateCode": "U08",
    "stateName": "Jammu and Kashmir",
    "districtCode": "U0816",
    "districtName": "KATHUA",
    "acNumber": 65,
    "acName": "BASOHLI",
    "partNumber": 65,
    "partName": "NOWSHEHRA B",
    "lat": 32.4985409,
    "lon": 75.8179027
  },
  {
    "partId": 1521,
    "stateCode": "U08",
    "stateName": "Jammu and Kashmir",
    "districtCode": "U0816",
    "districtName": "KATHUA",
    "acNumber": 65,
    "acName": "BASOHLI",
    "partNumber": 66,
    "partName": "NOWSHERA A",
    "lat": 32.4985409,
    "lon": 75.8179027
  },
  {
    "partId": 1519,
    "stateCode": "U08",
    "stateName": "Jammu and Kashmir",
    "districtCode": "U0816",
    "districtName": "KATHUA",
    "acNumber": 65,
    "acName": "BASOHLI",
    "partNumber": 67,
    "partName": "MAHANPUR C",
    "lat": 32.5363641,
    "lon": 75.6495921
  },
  {
    "partId": 1518,
    "stateCode": "U08",
    "stateName": "Jammu and Kashmir",
    "districtCode": "U0816",
    "districtName": "KATHUA",
    "acNumber": 65,
    "acName": "BASOHLI",
    "partNumber": 68,
    "partName": "MAHANPUR B",
    "lat": 32.500799657142856,
    "lon": 75.7978774687316
  },
  {
    "partId": 2066,
    "stateCode": "U08",
    "stateName": "Jammu and Kashmir",
    "districtCode": "U0816",
    "districtName": "KATHUA",
    "acNumber": 65,
    "acName": "BASOHLI",
    "partNumber": 69,
    "partName": "MAHANPUR A",
    "lat": 32.5363641,
    "lon": 75.6495921
  },
  {
    "partId": 1520,
    "stateCode": "U08",
    "stateName": "Jammu and Kashmir",
    "districtCode": "U0816",
    "districtName": "KATHUA",
    "acNumber": 65,
    "acName": "BASOHLI",
    "partNumber": 70,
    "partName": "MAHANPUR D",
    "lat": 32.5363641,
    "lon": 75.6495921
  },
  {
    "partId": 2065,
    "stateCode": "U08",
    "stateName": "Jammu and Kashmir",
    "districtCode": "U0816",
    "districtName": "KATHUA",
    "acNumber": 65,
    "acName": "BASOHLI",
    "partNumber": 71,
    "partName": "MAHANPUR",
    "lat": 32.5363641,
    "lon": 75.6495921
  },
  {
    "partId": 2063,
    "stateCode": "U08",
    "stateName": "Jammu and Kashmir",
    "districtCode": "U0816",
    "districtName": "KATHUA",
    "acNumber": 65,
    "acName": "BASOHLI",
    "partNumber": 72,
    "partName": "DAMBRA B",
    "lat": 32.4985409,
    "lon": 75.8179027
  },
  {
    "partId": 2062,
    "stateCode": "U08",
    "stateName": "Jammu and Kashmir",
    "districtCode": "U0816",
    "districtName": "KATHUA",
    "acNumber": 65,
    "acName": "BASOHLI",
    "partNumber": 73,
    "partName": "DAMBRA A",
    "lat": 32.3875673,
    "lon": 75.458551
  },
  {
    "partId": 2064,
    "stateCode": "U08",
    "stateName": "Jammu and Kashmir",
    "districtCode": "U0816",
    "districtName": "KATHUA",
    "acNumber": 65,
    "acName": "BASOHLI",
    "partNumber": 74,
    "partName": "DAMBRA C",
    "lat": 32.4985409,
    "lon": 75.8179027
  },
  {
    "partId": 9603,
    "stateCode": "U08",
    "stateName": "Jammu and Kashmir",
    "districtCode": "U0816",
    "districtName": "KATHUA",
    "acNumber": 65,
    "acName": "BASOHLI",
    "partNumber": 75,
    "partName": "SULARI",
    "lat": 32.4985409,
    "lon": 75.8179027
  },
  {
    "partId": 63,
    "stateCode": "U08",
    "stateName": "Jammu and Kashmir",
    "districtCode": "U0816",
    "districtName": "KATHUA",
    "acNumber": 65,
    "acName": "BASOHLI",
    "partNumber": 76,
    "partName": "ATHYALTA A",
    "lat": 32.500799657142856,
    "lon": 75.7978774687316
  },
  {
    "partId": 64,
    "stateCode": "U08",
    "stateName": "Jammu and Kashmir",
    "districtCode": "U0816",
    "districtName": "KATHUA",
    "acNumber": 65,
    "acName": "BASOHLI",
    "partNumber": 77,
    "partName": "ATHYALTA B",
    "lat": 32.4985409,
    "lon": 75.8179027
  },
  {
    "partId": 65,
    "stateCode": "U08",
    "stateName": "Jammu and Kashmir",
    "districtCode": "U0816",
    "districtName": "KATHUA",
    "acNumber": 65,
    "acName": "BASOHLI",
    "partNumber": 78,
    "partName": "ATHOON A",
    "lat": 32.4985409,
    "lon": 75.8179027
  },
  {
    "partId": 66,
    "stateCode": "U08",
    "stateName": "Jammu and Kashmir",
    "districtCode": "U0816",
    "districtName": "KATHUA",
    "acNumber": 65,
    "acName": "BASOHLI",
    "partNumber": 79,
    "partName": "ATHOON B",
    "lat": 32.4985409,
    "lon": 75.8179027
  },
  {
    "partId": 67,
    "stateCode": "U08",
    "stateName": "Jammu and Kashmir",
    "districtCode": "U0816",
    "districtName": "KATHUA",
    "acNumber": 65,
    "acName": "BASOHLI",
    "partNumber": 80,
    "partName": "ATHOON C",
    "lat": 32.4985409,
    "lon": 75.8179027
  },
  {
    "partId": 4814,
    "stateCode": "U08",
    "stateName": "Jammu and Kashmir",
    "districtCode": "U0816",
    "districtName": "KATHUA",
    "acNumber": 65,
    "acName": "BASOHLI",
    "partNumber": 81,
    "partName": "ATHOON",
    "lat": 32.4288215,
    "lon": 75.56286458392415
  },
  {
    "partId": 9600,
    "stateCode": "U08",
    "stateName": "Jammu and Kashmir",
    "districtCode": "U0816",
    "districtName": "KATHUA",
    "acNumber": 65,
    "acName": "BASOHLI",
    "partNumber": 82,
    "partName": "SABAR A",
    "lat": 32.4985409,
    "lon": 75.8179027
  },
  {
    "partId": 9601,
    "stateCode": "U08",
    "stateName": "Jammu and Kashmir",
    "districtCode": "U0816",
    "districtName": "KATHUA",
    "acNumber": 65,
    "acName": "BASOHLI",
    "partNumber": 83,
    "partName": "SABAR B",
    "lat": 32.4985409,
    "lon": 75.8179027
  },
  {
    "partId": 9602,
    "stateCode": "U08",
    "stateName": "Jammu and Kashmir",
    "districtCode": "U0816",
    "districtName": "KATHUA",
    "acNumber": 65,
    "acName": "BASOHLI",
    "partNumber": 84,
    "partName": "SABAR C",
    "lat": 32.4288215,
    "lon": 75.56286458392415
  },
  {
    "partId": 2067,
    "stateCode": "U08",
    "stateName": "Jammu and Kashmir",
    "districtCode": "U0816",
    "districtName": "KATHUA",
    "acNumber": 65,
    "acName": "BASOHLI",
    "partNumber": 85,
    "partName": "DOMAR",
    "lat": 32.4288215,
    "lon": 75.56286458392415
  },
  {
    "partId": 4816,
    "stateCode": "U08",
    "stateName": "Jammu and Kashmir",
    "districtCode": "U0816",
    "districtName": "KATHUA",
    "acNumber": 65,
    "acName": "BASOHLI",
    "partNumber": 86,
    "partName": "TUKKAR",
    "lat": 32.4985409,
    "lon": 75.8179027
  },
  {
    "partId": 1526,
    "stateCode": "U08",
    "stateName": "Jammu and Kashmir",
    "districtCode": "U0816",
    "districtName": "KATHUA",
    "acNumber": 65,
    "acName": "BASOHLI",
    "partNumber": 87,
    "partName": "KALMARI",
    "lat": 32.4985409,
    "lon": 75.8179027
  },
  {
    "partId": 81,
    "stateCode": "U08",
    "stateName": "Jammu and Kashmir",
    "districtCode": "U0816",
    "districtName": "KATHUA",
    "acNumber": 65,
    "acName": "BASOHLI",
    "partNumber": 88,
    "partName": "BARNI A",
    "lat": 32.4985409,
    "lon": 75.8179027
  },
  {
    "partId": 80,
    "stateCode": "U08",
    "stateName": "Jammu and Kashmir",
    "districtCode": "U0816",
    "districtName": "KATHUA",
    "acNumber": 65,
    "acName": "BASOHLI",
    "partNumber": 89,
    "partName": "BARNI B",
    "lat": 32.4985409,
    "lon": 75.8179027
  },
  {
    "partId": 115,
    "stateCode": "U08",
    "stateName": "Jammu and Kashmir",
    "districtCode": "U0816",
    "districtName": "KATHUA",
    "acNumber": 65,
    "acName": "BASOHLI",
    "partNumber": 90,
    "partName": "BASANTPUR B",
    "lat": 32.4985409,
    "lon": 75.8179027
  },
  {
    "partId": 114,
    "stateCode": "U08",
    "stateName": "Jammu and Kashmir",
    "districtCode": "U0816",
    "districtName": "KATHUA",
    "acNumber": 65,
    "acName": "BASOHLI",
    "partNumber": 91,
    "partName": "BASANTPUR A",
    "lat": 32.4985409,
    "lon": 75.8179027
  },
  {
    "partId": 116,
    "stateCode": "U08",
    "stateName": "Jammu and Kashmir",
    "districtCode": "U0816",
    "districtName": "KATHUA",
    "acNumber": 65,
    "acName": "BASOHLI",
    "partNumber": 92,
    "partName": "THEIN",
    "lat": 32.4985409,
    "lon": 75.8179027
  },
  {
    "partId": 2068,
    "stateCode": "U08",
    "stateName": "Jammu and Kashmir",
    "districtCode": "U0816",
    "districtName": "KATHUA",
    "acNumber": 65,
    "acName": "BASOHLI",
    "partNumber": 93,
    "partName": "KOTHI",
    "lat": 32.4985409,
    "lon": 75.8179027
  },
  {
    "partId": 2070,
    "stateCode": "U08",
    "stateName": "Jammu and Kashmir",
    "districtCode": "U0816",
    "districtName": "KATHUA",
    "acNumber": 65,
    "acName": "BASOHLI",
    "partNumber": 94,
    "partName": "PLASSI B",
    "lat": 32.4985409,
    "lon": 75.8179027
  },
  {
    "partId": 2069,
    "stateCode": "U08",
    "stateName": "Jammu and Kashmir",
    "districtCode": "U0816",
    "districtName": "KATHUA",
    "acNumber": 65,
    "acName": "BASOHLI",
    "partNumber": 95,
    "partName": "PLASSI A",
    "lat": 32.4985409,
    "lon": 75.8179027
  },
  {
    "partId": 2071,
    "stateCode": "U08",
    "stateName": "Jammu and Kashmir",
    "districtCode": "U0816",
    "districtName": "KATHUA",
    "acNumber": 65,
    "acName": "BASOHLI",
    "partNumber": 96,
    "partName": "PLAKH A",
    "lat": 32.4985409,
    "lon": 75.8179027
  },
  {
    "partId": 2073,
    "stateCode": "U08",
    "stateName": "Jammu and Kashmir",
    "districtCode": "U0816",
    "districtName": "KATHUA",
    "acNumber": 65,
    "acName": "BASOHLI",
    "partNumber": 97,
    "partName": "PLAKH C",
    "lat": 32.4985409,
    "lon": 75.8179027
  },
  {
    "partId": 2072,
    "stateCode": "U08",
    "stateName": "Jammu and Kashmir",
    "districtCode": "U0816",
    "districtName": "KATHUA",
    "acNumber": 65,
    "acName": "BASOHLI",
    "partNumber": 98,
    "partName": "PLAKH B",
    "lat": 32.4985409,
    "lon": 75.8179027
  },
  {
    "partId": 2074,
    "stateCode": "U08",
    "stateName": "Jammu and Kashmir",
    "districtCode": "U0816",
    "districtName": "KATHUA",
    "acNumber": 65,
    "acName": "BASOHLI",
    "partNumber": 99,
    "partName": "PLAHI A",
    "lat": 32.4985409,
    "lon": 75.8179027
  },
  {
    "partId": 2075,
    "stateCode": "U08",
    "stateName": "Jammu and Kashmir",
    "districtCode": "U0816",
    "districtName": "KATHUA",
    "acNumber": 65,
    "acName": "BASOHLI",
    "partNumber": 100,
    "partName": "PLAHI B",
    "lat": 32.4985409,
    "lon": 75.8179027
  },
  {
    "partId": 2076,
    "stateCode": "U08",
    "stateName": "Jammu and Kashmir",
    "districtCode": "U0816",
    "districtName": "KATHUA",
    "acNumber": 65,
    "acName": "BASOHLI",
    "partNumber": 101,
    "partName": "PLAHI C",
    "lat": 32.4985409,
    "lon": 75.8179027
  },
  {
    "partId": 2110,
    "stateCode": "U08",
    "stateName": "Jammu and Kashmir",
    "districtCode": "U0816",
    "districtName": "KATHUA",
    "acNumber": 65,
    "acName": "BASOHLI",
    "partNumber": 102,
    "partName": "MADRAKHI",
    "lat": 32.4985409,
    "lon": 75.8179027
  },
  {
    "partId": 2077,
    "stateCode": "U08",
    "stateName": "Jammu and Kashmir",
    "districtCode": "U0816",
    "districtName": "KATHUA",
    "acNumber": 65,
    "acName": "BASOHLI",
    "partNumber": 103,
    "partName": "BASOHLI A",
    "lat": 32.4985409,
    "lon": 75.8179027
  },
  {
    "partId": 2078,
    "stateCode": "U08",
    "stateName": "Jammu and Kashmir",
    "districtCode": "U0816",
    "districtName": "KATHUA",
    "acNumber": 65,
    "acName": "BASOHLI",
    "partNumber": 104,
    "partName": "BASOHLI B",
    "lat": 32.4985409,
    "lon": 75.8179027
  },
  {
    "partId": 2079,
    "stateCode": "U08",
    "stateName": "Jammu and Kashmir",
    "districtCode": "U0816",
    "districtName": "KATHUA",
    "acNumber": 65,
    "acName": "BASOHLI",
    "partNumber": 105,
    "partName": "BASOHLI C",
    "lat": 32.4985409,
    "lon": 75.8179027
  },
  {
    "partId": 2080,
    "stateCode": "U08",
    "stateName": "Jammu and Kashmir",
    "districtCode": "U0816",
    "districtName": "KATHUA",
    "acNumber": 65,
    "acName": "BASOHLI",
    "partNumber": 106,
    "partName": "BASOHLI D",
    "lat": 32.4985409,
    "lon": 75.8179027
  },
  {
    "partId": 2081,
    "stateCode": "U08",
    "stateName": "Jammu and Kashmir",
    "districtCode": "U0816",
    "districtName": "KATHUA",
    "acNumber": 65,
    "acName": "BASOHLI",
    "partNumber": 107,
    "partName": "BASOHLI E",
    "lat": 32.4985409,
    "lon": 75.8179027
  },
  {
    "partId": 3123,
    "stateCode": "U08",
    "stateName": "Jammu and Kashmir",
    "districtCode": "U0816",
    "districtName": "KATHUA",
    "acNumber": 64,
    "acName": "BILLAWAR",
    "partNumber": 1,
    "partName": "LAKHARI A",
    "lat": 32.657171250000005,
    "lon": 75.53666001503413
  },
  {
    "partId": 3125,
    "stateCode": "U08",
    "stateName": "Jammu and Kashmir",
    "districtCode": "U0816",
    "districtName": "KATHUA",
    "acNumber": 64,
    "acName": "BILLAWAR",
    "partNumber": 2,
    "partName": "LAKHARI B",
    "lat": 32.657171250000005,
    "lon": 75.53666001503413
  },
  {
    "partId": 3124,
    "stateCode": "U08",
    "stateName": "Jammu and Kashmir",
    "districtCode": "U0816",
    "districtName": "KATHUA",
    "acNumber": 64,
    "acName": "BILLAWAR",
    "partNumber": 3,
    "partName": "LAKHARI C",
    "lat": 32.657171250000005,
    "lon": 75.53666001503413
  },
  {
    "partId": 3282,
    "stateCode": "U08",
    "stateName": "Jammu and Kashmir",
    "districtCode": "U0816",
    "districtName": "KATHUA",
    "acNumber": 64,
    "acName": "BILLAWAR",
    "partNumber": 4,
    "partName": "UCHAPIND A",
    "lat": 32.657171250000005,
    "lon": 75.53666001503413
  },
  {
    "partId": 2385,
    "stateCode": "U08",
    "stateName": "Jammu and Kashmir",
    "districtCode": "U0816",
    "districtName": "KATHUA",
    "acNumber": 64,
    "acName": "BILLAWAR",
    "partNumber": 5,
    "partName": "UNCHAPIND B",
    "lat": 32.657171250000005,
    "lon": 75.53666001503413
  },
  {
    "partId": 3283,
    "stateCode": "U08",
    "stateName": "Jammu and Kashmir",
    "districtCode": "U0816",
    "districtName": "KATHUA",
    "acNumber": 64,
    "acName": "BILLAWAR",
    "partNumber": 6,
    "partName": "UCHAPIND C",
    "lat": 32.657171250000005,
    "lon": 75.53666001503413
  },
  {
    "partId": 3273,
    "stateCode": "U08",
    "stateName": "Jammu and Kashmir",
    "districtCode": "U0816",
    "districtName": "KATHUA",
    "acNumber": 64,
    "acName": "BILLAWAR",
    "partNumber": 7,
    "partName": "KOMLA",
    "lat": 32.657171250000005,
    "lon": 75.53666001503413
  },
  {
    "partId": 3275,
    "stateCode": "U08",
    "stateName": "Jammu and Kashmir",
    "districtCode": "U0816",
    "districtName": "KATHUA",
    "acNumber": 64,
    "acName": "BILLAWAR",
    "partNumber": 8,
    "partName": "KALYAL A",
    "lat": 32.657171250000005,
    "lon": 75.53666001503413
  },
  {
    "partId": 3274,
    "stateCode": "U08",
    "stateName": "Jammu and Kashmir",
    "districtCode": "U0816",
    "districtName": "KATHUA",
    "acNumber": 64,
    "acName": "BILLAWAR",
    "partNumber": 9,
    "partName": "KALYAL B",
    "lat": 32.657171250000005,
    "lon": 75.53666001503413
  },
  {
    "partId": 3278,
    "stateCode": "U08",
    "stateName": "Jammu and Kashmir",
    "districtCode": "U0816",
    "districtName": "KATHUA",
    "acNumber": 64,
    "acName": "BILLAWAR",
    "partNumber": 10,
    "partName": "LUDERA",
    "lat": 32.657171250000005,
    "lon": 75.53666001503413
  },
  {
    "partId": 3276,
    "stateCode": "U08",
    "stateName": "Jammu and Kashmir",
    "districtCode": "U0816",
    "districtName": "KATHUA",
    "acNumber": 64,
    "acName": "BILLAWAR",
    "partNumber": 11,
    "partName": "KALYAL C",
    "lat": 32.657171250000005,
    "lon": 75.53666001503413
  },
  {
    "partId": 3277,
    "stateCode": "U08",
    "stateName": "Jammu and Kashmir",
    "districtCode": "U0816",
    "districtName": "KATHUA",
    "acNumber": 64,
    "acName": "BILLAWAR",
    "partNumber": 12,
    "partName": "KALYAL D",
    "lat": 32.657171250000005,
    "lon": 75.53666001503413
  },
  {
    "partId": 3257,
    "stateCode": "U08",
    "stateName": "Jammu and Kashmir",
    "districtCode": "U0816",
    "districtName": "KATHUA",
    "acNumber": 64,
    "acName": "BILLAWAR",
    "partNumber": 13,
    "partName": "DHANU PAROLE A",
    "lat": 32.657171250000005,
    "lon": 75.53666001503413
  },
  {
    "partId": 3255,
    "stateCode": "U08",
    "stateName": "Jammu and Kashmir",
    "districtCode": "U0816",
    "districtName": "KATHUA",
    "acNumber": 64,
    "acName": "BILLAWAR",
    "partNumber": 14,
    "partName": "DHANU PAROLE B",
    "lat": 32.657171250000005,
    "lon": 75.53666001503413
  },
  {
    "partId": 3256,
    "stateCode": "U08",
    "stateName": "Jammu and Kashmir",
    "districtCode": "U0816",
    "districtName": "KATHUA",
    "acNumber": 64,
    "acName": "BILLAWAR",
    "partNumber": 15,
    "partName": "DHANU PAROLE C",
    "lat": 32.657171250000005,
    "lon": 75.53666001503413
  },
  {
    "partId": 3258,
    "stateCode": "U08",
    "stateName": "Jammu and Kashmir",
    "districtCode": "U0816",
    "districtName": "KATHUA",
    "acNumber": 64,
    "acName": "BILLAWAR",
    "partNumber": 16,
    "partName": "DHANU PAROLE D",
    "lat": 32.657171250000005,
    "lon": 75.53666001503413
  },
  {
    "partId": 3252,
    "stateCode": "U08",
    "stateName": "Jammu and Kashmir",
    "districtCode": "U0816",
    "districtName": "KATHUA",
    "acNumber": 64,
    "acName": "BILLAWAR",
    "partNumber": 17,
    "partName": "LAHARI A",
    "lat": 32.6667073,
    "lon": 75.5580617
  },
  {
    "partId": 3253,
    "stateCode": "U08",
    "stateName": "Jammu and Kashmir",
    "districtCode": "U0816",
    "districtName": "KATHUA",
    "acNumber": 64,
    "acName": "BILLAWAR",
    "partNumber": 18,
    "partName": "LAHARI B",
    "lat": 32.657171250000005,
    "lon": 75.53666001503413
  },
  {
    "partId": 3254,
    "stateCode": "U08",
    "stateName": "Jammu and Kashmir",
    "districtCode": "U0816",
    "districtName": "KATHUA",
    "acNumber": 64,
    "acName": "BILLAWAR",
    "partNumber": 19,
    "partName": "LAHARI C",
    "lat": 32.657171250000005,
    "lon": 75.53666001503413
  },
  {
    "partId": 3250,
    "stateCode": "U08",
    "stateName": "Jammu and Kashmir",
    "districtCode": "U0816",
    "districtName": "KATHUA",
    "acNumber": 64,
    "acName": "BILLAWAR",
    "partNumber": 20,
    "partName": "BATHARI",
    "lat": 32.4288215,
    "lon": 75.56286458392415
  },
  {
    "partId": 1589,
    "stateCode": "U08",
    "stateName": "Jammu and Kashmir",
    "districtCode": "U0816",
    "districtName": "KATHUA",
    "acNumber": 64,
    "acName": "BILLAWAR",
    "partNumber": 21,
    "partName": "SUKRAL",
    "lat": 32.657171250000005,
    "lon": 75.53666001503413
  },
  {
    "partId": 1590,
    "stateCode": "U08",
    "stateName": "Jammu and Kashmir",
    "districtCode": "U0816",
    "districtName": "KATHUA",
    "acNumber": 64,
    "acName": "BILLAWAR",
    "partNumber": 22,
    "partName": "BILLAWAR A",
    "lat": 32.4288215,
    "lon": 75.56286458392415
  },
  {
    "partId": 4810,
    "stateCode": "U08",
    "stateName": "Jammu and Kashmir",
    "districtCode": "U0816",
    "districtName": "KATHUA",
    "acNumber": 64,
    "acName": "BILLAWAR",
    "partNumber": 23,
    "partName": "BILLAWAR",
    "lat": 32.657171250000005,
    "lon": 75.53666001503413
  },
  {
    "partId": 1591,
    "stateCode": "U08",
    "stateName": "Jammu and Kashmir",
    "districtCode": "U0816",
    "districtName": "KATHUA",
    "acNumber": 64,
    "acName": "BILLAWAR",
    "partNumber": 24,
    "partName": "BILLAWAR B",
    "lat": 32.6148156,
    "lon": 75.6032967
  },
  {
    "partId": 1592,
    "stateCode": "U08",
    "stateName": "Jammu and Kashmir",
    "districtCode": "U0816",
    "districtName": "KATHUA",
    "acNumber": 64,
    "acName": "BILLAWAR",
    "partNumber": 25,
    "partName": "BILLAWAR C",
    "lat": 32.4288215,
    "lon": 75.56286458392415
  },
  {
    "partId": 1580,
    "stateCode": "U08",
    "stateName": "Jammu and Kashmir",
    "districtCode": "U0816",
    "districtName": "KATHUA",
    "acNumber": 64,
    "acName": "BILLAWAR",
    "partNumber": 26,
    "partName": "BAGGAN A",
    "lat": 32.6645787,
    "lon": 75.6732337
  },
  {
    "partId": 1582,
    "stateCode": "U08",
    "stateName": "Jammu and Kashmir",
    "districtCode": "U0816",
    "districtName": "KATHUA",
    "acNumber": 64,
    "acName": "BILLAWAR",
    "partNumber": 27,
    "partName": "BAGGAN B",
    "lat": 32.6645787,
    "lon": 75.6732337
  },
  {
    "partId": 1583,
    "stateCode": "U08",
    "stateName": "Jammu and Kashmir",
    "districtCode": "U0816",
    "districtName": "KATHUA",
    "acNumber": 64,
    "acName": "BILLAWAR",
    "partNumber": 28,
    "partName": "BAGGAN C",
    "lat": 32.6645787,
    "lon": 75.6732337
  },
  {
    "partId": 1584,
    "stateCode": "U08",
    "stateName": "Jammu and Kashmir",
    "districtCode": "U0816",
    "districtName": "KATHUA",
    "acNumber": 64,
    "acName": "BILLAWAR",
    "partNumber": 29,
    "partName": "BAGGAN D",
    "lat": 32.6645787,
    "lon": 75.6732337
  },
  {
    "partId": 1581,
    "stateCode": "U08",
    "stateName": "Jammu and Kashmir",
    "districtCode": "U0816",
    "districtName": "KATHUA",
    "acNumber": 64,
    "acName": "BILLAWAR",
    "partNumber": 30,
    "partName": "THAMNAL BAGGAN",
    "lat": 32.657171250000005,
    "lon": 75.53666001503413
  },
  {
    "partId": 1585,
    "stateCode": "U08",
    "stateName": "Jammu and Kashmir",
    "districtCode": "U0816",
    "districtName": "KATHUA",
    "acNumber": 64,
    "acName": "BILLAWAR",
    "partNumber": 31,
    "partName": "BAGGAN E",
    "lat": 32.6645787,
    "lon": 75.6732337
  },
  {
    "partId": 1577,
    "stateCode": "U08",
    "stateName": "Jammu and Kashmir",
    "districtCode": "U0816",
    "districtName": "KATHUA",
    "acNumber": 64,
    "acName": "BILLAWAR",
    "partNumber": 32,
    "partName": "MARHOON A",
    "lat": 32.6823091,
    "lon": 75.7011828
  },
  {
    "partId": 1544,
    "stateCode": "U08",
    "stateName": "Jammu and Kashmir",
    "districtCode": "U0816",
    "districtName": "KATHUA",
    "acNumber": 64,
    "acName": "BILLAWAR",
    "partNumber": 33,
    "partName": "MARHOON",
    "lat": 32.6823091,
    "lon": 75.7011828
  },
  {
    "partId": 1578,
    "stateCode": "U08",
    "stateName": "Jammu and Kashmir",
    "districtCode": "U0816",
    "districtName": "KATHUA",
    "acNumber": 64,
    "acName": "BILLAWAR",
    "partNumber": 34,
    "partName": "MARHOON B",
    "lat": 32.6823091,
    "lon": 75.7011828
  },
  {
    "partId": 1579,
    "stateCode": "U08",
    "stateName": "Jammu and Kashmir",
    "districtCode": "U0816",
    "districtName": "KATHUA",
    "acNumber": 64,
    "acName": "BILLAWAR",
    "partNumber": 35,
    "partName": "MARHOON C",
    "lat": 32.6823091,
    "lon": 75.7011828
  },
  {
    "partId": 3224,
    "stateCode": "U08",
    "stateName": "Jammu and Kashmir",
    "districtCode": "U0816",
    "districtName": "KATHUA",
    "acNumber": 64,
    "acName": "BILLAWAR",
    "partNumber": 36,
    "partName": "DEHOTA A",
    "lat": 32.657171250000005,
    "lon": 75.53666001503413
  },
  {
    "partId": 3225,
    "stateCode": "U08",
    "stateName": "Jammu and Kashmir",
    "districtCode": "U0816",
    "districtName": "KATHUA",
    "acNumber": 64,
    "acName": "BILLAWAR",
    "partNumber": 37,
    "partName": "DEHOTA B",
    "lat": 32.657171250000005,
    "lon": 75.53666001503413
  },
  {
    "partId": 3236,
    "stateCode": "U08",
    "stateName": "Jammu and Kashmir",
    "districtCode": "U0816",
    "districtName": "KATHUA",
    "acNumber": 64,
    "acName": "BILLAWAR",
    "partNumber": 38,
    "partName": "DHAR DUGNUU A",
    "lat": 32.657171250000005,
    "lon": 75.53666001503413
  },
  {
    "partId": 1546,
    "stateCode": "U08",
    "stateName": "Jammu and Kashmir",
    "districtCode": "U0816",
    "districtName": "KATHUA",
    "acNumber": 64,
    "acName": "BILLAWAR",
    "partNumber": 39,
    "partName": "DHAR DUGNUU A1",
    "lat": 32.4288215,
    "lon": 75.56286458392415
  },
  {
    "partId": 2045,
    "stateCode": "U08",
    "stateName": "Jammu and Kashmir",
    "districtCode": "U0816",
    "districtName": "KATHUA",
    "acNumber": 64,
    "acName": "BILLAWAR",
    "partNumber": 40,
    "partName": "DHAR DUGNUU B",
    "lat": 32.657171250000005,
    "lon": 75.53666001503413
  },
  {
    "partId": 2044,
    "stateCode": "U08",
    "stateName": "Jammu and Kashmir",
    "districtCode": "U0816",
    "districtName": "KATHUA",
    "acNumber": 64,
    "acName": "BILLAWAR",
    "partNumber": 41,
    "partName": "DHAR DUGNUU C",
    "lat": 32.657171250000005,
    "lon": 75.53666001503413
  },
  {
    "partId": 1547,
    "stateCode": "U08",
    "stateName": "Jammu and Kashmir",
    "districtCode": "U0816",
    "districtName": "KATHUA",
    "acNumber": 64,
    "acName": "BILLAWAR",
    "partNumber": 42,
    "partName": "DHAR DUGNUU C1",
    "lat": 32.657171250000005,
    "lon": 75.53666001503413
  },
  {
    "partId": 2043,
    "stateCode": "U08",
    "stateName": "Jammu and Kashmir",
    "districtCode": "U0816",
    "districtName": "KATHUA",
    "acNumber": 64,
    "acName": "BILLAWAR",
    "partNumber": 43,
    "partName": "DHAR DUGNUU D",
    "lat": 32.4288215,
    "lon": 75.56286458392415
  },
  {
    "partId": 1594,
    "stateCode": "U08",
    "stateName": "Jammu and Kashmir",
    "districtCode": "U0816",
    "districtName": "KATHUA",
    "acNumber": 64,
    "acName": "BILLAWAR",
    "partNumber": 44,
    "partName": "KISHANPUR A",
    "lat": 32.4288215,
    "lon": 75.56286458392415
  },
  {
    "partId": 1595,
    "stateCode": "U08",
    "stateName": "Jammu and Kashmir",
    "districtCode": "U0816",
    "districtName": "KATHUA",
    "acNumber": 64,
    "acName": "BILLAWAR",
    "partNumber": 45,
    "partName": "KISHANPUR B",
    "lat": 32.608611,
    "lon": 75.6220461
  },
  {
    "partId": 1597,
    "stateCode": "U08",
    "stateName": "Jammu and Kashmir",
    "districtCode": "U0816",
    "districtName": "KATHUA",
    "acNumber": 64,
    "acName": "BILLAWAR",
    "partNumber": 46,
    "partName": "KISHANPUR C",
    "lat": 32.608611,
    "lon": 75.6220461
  },
  {
    "partId": 1596,
    "stateCode": "U08",
    "stateName": "Jammu and Kashmir",
    "districtCode": "U0816",
    "districtName": "KATHUA",
    "acNumber": 64,
    "acName": "BILLAWAR",
    "partNumber": 47,
    "partName": "LODNU",
    "lat": 32.657171250000005,
    "lon": 75.53666001503413
  },
  {
    "partId": 1593,
    "stateCode": "U08",
    "stateName": "Jammu and Kashmir",
    "districtCode": "U0816",
    "districtName": "KATHUA",
    "acNumber": 64,
    "acName": "BILLAWAR",
    "partNumber": 48,
    "partName": "BILLAWAR D",
    "lat": 32.6148156,
    "lon": 75.6032967
  },
  {
    "partId": 1598,
    "stateCode": "U08",
    "stateName": "Jammu and Kashmir",
    "districtCode": "U0816",
    "districtName": "KATHUA",
    "acNumber": 64,
    "acName": "BILLAWAR",
    "partNumber": 49,
    "partName": "TILLA  A",
    "lat": 32.6160041,
    "lon": 75.5914438
  },
  {
    "partId": 1599,
    "stateCode": "U08",
    "stateName": "Jammu and Kashmir",
    "districtCode": "U0816",
    "districtName": "KATHUA",
    "acNumber": 64,
    "acName": "BILLAWAR",
    "partNumber": 50,
    "partName": "TILLA B",
    "lat": 32.6160041,
    "lon": 75.5914438
  },
  {
    "partId": 3247,
    "stateCode": "U08",
    "stateName": "Jammu and Kashmir",
    "districtCode": "U0816",
    "districtName": "KATHUA",
    "acNumber": 64,
    "acName": "BILLAWAR",
    "partNumber": 51,
    "partName": "DEWAL A",
    "lat": 32.657171250000005,
    "lon": 75.53666001503413
  },
  {
    "partId": 3248,
    "stateCode": "U08",
    "stateName": "Jammu and Kashmir",
    "districtCode": "U0816",
    "districtName": "KATHUA",
    "acNumber": 64,
    "acName": "BILLAWAR",
    "partNumber": 52,
    "partName": "DEWAL B",
    "lat": 32.657171250000005,
    "lon": 75.53666001503413
  },
  {
    "partId": 2377,
    "stateCode": "U08",
    "stateName": "Jammu and Kashmir",
    "districtCode": "U0816",
    "districtName": "KATHUA",
    "acNumber": 64,
    "acName": "BILLAWAR",
    "partNumber": 53,
    "partName": "KATTAL",
    "lat": 32.657171250000005,
    "lon": 75.53666001503413
  },
  {
    "partId": 3251,
    "stateCode": "U08",
    "stateName": "Jammu and Kashmir",
    "districtCode": "U0816",
    "districtName": "KATHUA",
    "acNumber": 64,
    "acName": "BILLAWAR",
    "partNumber": 54,
    "partName": "MALTI A",
    "lat": 32.6099062,
    "lon": 75.5525216
  },
  {
    "partId": 3249,
    "stateCode": "U08",
    "stateName": "Jammu and Kashmir",
    "districtCode": "U0816",
    "districtName": "KATHUA",
    "acNumber": 64,
    "acName": "BILLAWAR",
    "partNumber": 55,
    "partName": "MALTI B",
    "lat": 32.6099062,
    "lon": 75.5525216
  },
  {
    "partId": 3262,
    "stateCode": "U08",
    "stateName": "Jammu and Kashmir",
    "districtCode": "U0816",
    "districtName": "KATHUA",
    "acNumber": 64,
    "acName": "BILLAWAR",
    "partNumber": 56,
    "partName": "RAMPUR A",
    "lat": 32.657171250000005,
    "lon": 75.53666001503413
  },
  {
    "partId": 3263,
    "stateCode": "U08",
    "stateName": "Jammu and Kashmir",
    "districtCode": "U0816",
    "districtName": "KATHUA",
    "acNumber": 64,
    "acName": "BILLAWAR",
    "partNumber": 57,
    "partName": "RAMPUR B",
    "lat": 32.657171250000005,
    "lon": 75.53666001503413
  },
  {
    "partId": 3261,
    "stateCode": "U08",
    "stateName": "Jammu and Kashmir",
    "districtCode": "U0816",
    "districtName": "KATHUA",
    "acNumber": 64,
    "acName": "BILLAWAR",
    "partNumber": 58,
    "partName": "KOHAG A",
    "lat": 32.657171250000005,
    "lon": 75.53666001503413
  },
  {
    "partId": 3259,
    "stateCode": "U08",
    "stateName": "Jammu and Kashmir",
    "districtCode": "U0816",
    "districtName": "KATHUA",
    "acNumber": 64,
    "acName": "BILLAWAR",
    "partNumber": 59,
    "partName": "KOHAG B",
    "lat": 32.657171250000005,
    "lon": 75.53666001503413
  },
  {
    "partId": 3260,
    "stateCode": "U08",
    "stateName": "Jammu and Kashmir",
    "districtCode": "U0816",
    "districtName": "KATHUA",
    "acNumber": 64,
    "acName": "BILLAWAR",
    "partNumber": 60,
    "partName": "KOHAG C",
    "lat": 32.657171250000005,
    "lon": 75.53666001503413
  },
  {
    "partId": 3264,
    "stateCode": "U08",
    "stateName": "Jammu and Kashmir",
    "districtCode": "U0816",
    "districtName": "KATHUA",
    "acNumber": 64,
    "acName": "BILLAWAR",
    "partNumber": 61,
    "partName": "MANDLI",
    "lat": 32.6228668,
    "lon": 75.510111
  },
  {
    "partId": 3280,
    "stateCode": "U08",
    "stateName": "Jammu and Kashmir",
    "districtCode": "U0816",
    "districtName": "KATHUA",
    "acNumber": 64,
    "acName": "BILLAWAR",
    "partNumber": 62,
    "partName": "THANTHU",
    "lat": 32.657171250000005,
    "lon": 75.53666001503413
  },
  {
    "partId": 3284,
    "stateCode": "U08",
    "stateName": "Jammu and Kashmir",
    "districtCode": "U0816",
    "districtName": "KATHUA",
    "acNumber": 64,
    "acName": "BILLAWAR",
    "partNumber": 63,
    "partName": "THARAKALWAL A",
    "lat": 32.657171250000005,
    "lon": 75.53666001503413
  },
  {
    "partId": 3285,
    "stateCode": "U08",
    "stateName": "Jammu and Kashmir",
    "districtCode": "U0816",
    "districtName": "KATHUA",
    "acNumber": 64,
    "acName": "BILLAWAR",
    "partNumber": 64,
    "partName": "THARAKALWAL B",
    "lat": 32.657171250000005,
    "lon": 75.53666001503413
  },
  {
    "partId": 3287,
    "stateCode": "U08",
    "stateName": "Jammu and Kashmir",
    "districtCode": "U0816",
    "districtName": "KATHUA",
    "acNumber": 64,
    "acName": "BILLAWAR",
    "partNumber": 65,
    "partName": "SIALNA A",
    "lat": 32.657171250000005,
    "lon": 75.53666001503413
  },
  {
    "partId": 3286,
    "stateCode": "U08",
    "stateName": "Jammu and Kashmir",
    "districtCode": "U0816",
    "districtName": "KATHUA",
    "acNumber": 64,
    "acName": "BILLAWAR",
    "partNumber": 66,
    "partName": "SIALNA B",
    "lat": 32.657171250000005,
    "lon": 75.53666001503413
  },
  {
    "partId": 2386,
    "stateCode": "U08",
    "stateName": "Jammu and Kashmir",
    "districtCode": "U0816",
    "districtName": "KATHUA",
    "acNumber": 64,
    "acName": "BILLAWAR",
    "partNumber": 67,
    "partName": "THARAKALWAL C",
    "lat": 32.657171250000005,
    "lon": 75.53666001503413
  },
  {
    "partId": 3291,
    "stateCode": "U08",
    "stateName": "Jammu and Kashmir",
    "districtCode": "U0816",
    "districtName": "KATHUA",
    "acNumber": 64,
    "acName": "BILLAWAR",
    "partNumber": 68,
    "partName": "DERLI",
    "lat": 32.657171250000005,
    "lon": 75.53666001503413
  },
  {
    "partId": 3122,
    "stateCode": "U08",
    "stateName": "Jammu and Kashmir",
    "districtCode": "U0816",
    "districtName": "KATHUA",
    "acNumber": 64,
    "acName": "BILLAWAR",
    "partNumber": 69,
    "partName": "DHANJASDHER A",
    "lat": 32.657171250000005,
    "lon": 75.53666001503413
  },
  {
    "partId": 3121,
    "stateCode": "U08",
    "stateName": "Jammu and Kashmir",
    "districtCode": "U0816",
    "districtName": "KATHUA",
    "acNumber": 64,
    "acName": "BILLAWAR",
    "partNumber": 70,
    "partName": "DHANJASDHAR B",
    "lat": 32.657171250000005,
    "lon": 75.53666001503413
  },
  {
    "partId": 3120,
    "stateCode": "U08",
    "stateName": "Jammu and Kashmir",
    "districtCode": "U0816",
    "districtName": "KATHUA",
    "acNumber": 64,
    "acName": "BILLAWAR",
    "partNumber": 71,
    "partName": "DHANJASDHER C",
    "lat": 32.657171250000005,
    "lon": 75.53666001503413
  },
  {
    "partId": 3119,
    "stateCode": "U08",
    "stateName": "Jammu and Kashmir",
    "districtCode": "U0816",
    "districtName": "KATHUA",
    "acNumber": 64,
    "acName": "BILLAWAR",
    "partNumber": 72,
    "partName": "KOHNOO",
    "lat": 32.657171250000005,
    "lon": 75.53666001503413
  },
  {
    "partId": 3133,
    "stateCode": "U08",
    "stateName": "Jammu and Kashmir",
    "districtCode": "U0816",
    "districtName": "KATHUA",
    "acNumber": 64,
    "acName": "BILLAWAR",
    "partNumber": 73,
    "partName": "KANDARNOO A",
    "lat": 32.657171250000005,
    "lon": 75.53666001503413
  },
  {
    "partId": 3132,
    "stateCode": "U08",
    "stateName": "Jammu and Kashmir",
    "districtCode": "U0816",
    "districtName": "KATHUA",
    "acNumber": 64,
    "acName": "BILLAWAR",
    "partNumber": 74,
    "partName": "KANDARNOO B",
    "lat": 32.657171250000005,
    "lon": 75.53666001503413
  },
  {
    "partId": 3131,
    "stateCode": "U08",
    "stateName": "Jammu and Kashmir",
    "districtCode": "U0816",
    "districtName": "KATHUA",
    "acNumber": 64,
    "acName": "BILLAWAR",
    "partNumber": 75,
    "partName": "SALORE A",
    "lat": 32.657171250000005,
    "lon": 75.53666001503413
  },
  {
    "partId": 3130,
    "stateCode": "U08",
    "stateName": "Jammu and Kashmir",
    "districtCode": "U0816",
    "districtName": "KATHUA",
    "acNumber": 64,
    "acName": "BILLAWAR",
    "partNumber": 76,
    "partName": "SALORE B",
    "lat": 32.657171250000005,
    "lon": 75.53666001503413
  },
  {
    "partId": 3126,
    "stateCode": "U08",
    "stateName": "Jammu and Kashmir",
    "districtCode": "U0816",
    "districtName": "KATHUA",
    "acNumber": 64,
    "acName": "BILLAWAR",
    "partNumber": 77,
    "partName": "KAH",
    "lat": 32.657171250000005,
    "lon": 75.53666001503413
  },
  {
    "partId": 3127,
    "stateCode": "U08",
    "stateName": "Jammu and Kashmir",
    "districtCode": "U0816",
    "districtName": "KATHUA",
    "acNumber": 64,
    "acName": "BILLAWAR",
    "partNumber": 78,
    "partName": "KASHEER A",
    "lat": 32.657171250000005,
    "lon": 75.53666001503413
  },
  {
    "partId": 3129,
    "stateCode": "U08",
    "stateName": "Jammu and Kashmir",
    "districtCode": "U0816",
    "districtName": "KATHUA",
    "acNumber": 64,
    "acName": "BILLAWAR",
    "partNumber": 79,
    "partName": "KASHEER B",
    "lat": 32.657171250000005,
    "lon": 75.53666001503413
  },
  {
    "partId": 3128,
    "stateCode": "U08",
    "stateName": "Jammu and Kashmir",
    "districtCode": "U0816",
    "districtName": "KATHUA",
    "acNumber": 64,
    "acName": "BILLAWAR",
    "partNumber": 80,
    "partName": "KASHEER C",
    "lat": 32.657171250000005,
    "lon": 75.53666001503413
  },
  {
    "partId": 3135,
    "stateCode": "U08",
    "stateName": "Jammu and Kashmir",
    "districtCode": "U0816",
    "districtName": "KATHUA",
    "acNumber": 64,
    "acName": "BILLAWAR",
    "partNumber": 81,
    "partName": "MAKWAL A",
    "lat": 32.657171250000005,
    "lon": 75.53666001503413
  },
  {
    "partId": 3136,
    "stateCode": "U08",
    "stateName": "Jammu and Kashmir",
    "districtCode": "U0816",
    "districtName": "KATHUA",
    "acNumber": 64,
    "acName": "BILLAWAR",
    "partNumber": 82,
    "partName": "MAKWAL B",
    "lat": 32.657171250000005,
    "lon": 75.53666001503413
  },
  {
    "partId": 3134,
    "stateCode": "U08",
    "stateName": "Jammu and Kashmir",
    "districtCode": "U0816",
    "districtName": "KATHUA",
    "acNumber": 64,
    "acName": "BILLAWAR",
    "partNumber": 83,
    "partName": "MAKWAL C",
    "lat": 32.657171250000005,
    "lon": 75.53666001503413
  },
  {
    "partId": 3137,
    "stateCode": "U08",
    "stateName": "Jammu and Kashmir",
    "districtCode": "U0816",
    "districtName": "KATHUA",
    "acNumber": 64,
    "acName": "BILLAWAR",
    "partNumber": 84,
    "partName": "AMUWALA",
    "lat": 32.657171250000005,
    "lon": 75.53666001503413
  },
  {
    "partId": 3138,
    "stateCode": "U08",
    "stateName": "Jammu and Kashmir",
    "districtCode": "U0816",
    "districtName": "KATHUA",
    "acNumber": 64,
    "acName": "BILLAWAR",
    "partNumber": 85,
    "partName": "RAMKOTE A",
    "lat": 32.6411178,
    "lon": 75.3356667
  },
  {
    "partId": 3139,
    "stateCode": "U08",
    "stateName": "Jammu and Kashmir",
    "districtCode": "U0816",
    "districtName": "KATHUA",
    "acNumber": 64,
    "acName": "BILLAWAR",
    "partNumber": 86,
    "partName": "RAMKOTE B",
    "lat": 32.657171250000005,
    "lon": 75.53666001503413
  },
  {
    "partId": 2379,
    "stateCode": "U08",
    "stateName": "Jammu and Kashmir",
    "districtCode": "U0816",
    "districtName": "KATHUA",
    "acNumber": 64,
    "acName": "BILLAWAR",
    "partNumber": 87,
    "partName": "BERAL(AMUWALA)",
    "lat": 32.657171250000005,
    "lon": 75.53666001503413
  },
  {
    "partId": 3140,
    "stateCode": "U08",
    "stateName": "Jammu and Kashmir",
    "districtCode": "U0816",
    "districtName": "KATHUA",
    "acNumber": 64,
    "acName": "BILLAWAR",
    "partNumber": 88,
    "partName": "RAMKOTE C",
    "lat": 32.657171250000005,
    "lon": 75.53666001503413
  },
  {
    "partId": 3141,
    "stateCode": "U08",
    "stateName": "Jammu and Kashmir",
    "districtCode": "U0816",
    "districtName": "KATHUA",
    "acNumber": 64,
    "acName": "BILLAWAR",
    "partNumber": 89,
    "partName": "RAMKOTE D",
    "lat": 32.657171250000005,
    "lon": 75.53666001503413
  },
  {
    "partId": 3142,
    "stateCode": "U08",
    "stateName": "Jammu and Kashmir",
    "districtCode": "U0816",
    "districtName": "KATHUA",
    "acNumber": 64,
    "acName": "BILLAWAR",
    "partNumber": 90,
    "partName": "GALAK A",
    "lat": 32.657171250000005,
    "lon": 75.53666001503413
  },
  {
    "partId": 3143,
    "stateCode": "U08",
    "stateName": "Jammu and Kashmir",
    "districtCode": "U0816",
    "districtName": "KATHUA",
    "acNumber": 64,
    "acName": "BILLAWAR",
    "partNumber": 91,
    "partName": "GALAK B",
    "lat": 32.657171250000005,
    "lon": 75.53666001503413
  },
  {
    "partId": 3292,
    "stateCode": "U08",
    "stateName": "Jammu and Kashmir",
    "districtCode": "U0816",
    "districtName": "KATHUA",
    "acNumber": 64,
    "acName": "BILLAWAR",
    "partNumber": 92,
    "partName": "RAJWALTA A",
    "lat": 32.657171250000005,
    "lon": 75.53666001503413
  },
  {
    "partId": 3293,
    "stateCode": "U08",
    "stateName": "Jammu and Kashmir",
    "districtCode": "U0816",
    "districtName": "KATHUA",
    "acNumber": 64,
    "acName": "BILLAWAR",
    "partNumber": 93,
    "partName": "RAJWALTA B",
    "lat": 32.657171250000005,
    "lon": 75.53666001503413
  },
  {
    "partId": 3288,
    "stateCode": "U08",
    "stateName": "Jammu and Kashmir",
    "districtCode": "U0816",
    "districtName": "KATHUA",
    "acNumber": 64,
    "acName": "BILLAWAR",
    "partNumber": 94,
    "partName": "AGLIDHAR A",
    "lat": 32.657171250000005,
    "lon": 75.53666001503413
  },
  {
    "partId": 3289,
    "stateCode": "U08",
    "stateName": "Jammu and Kashmir",
    "districtCode": "U0816",
    "districtName": "KATHUA",
    "acNumber": 64,
    "acName": "BILLAWAR",
    "partNumber": 95,
    "partName": "AGLIDHAR B",
    "lat": 32.657171250000005,
    "lon": 75.53666001503413
  },
  {
    "partId": 3290,
    "stateCode": "U08",
    "stateName": "Jammu and Kashmir",
    "districtCode": "U0816",
    "districtName": "KATHUA",
    "acNumber": 64,
    "acName": "BILLAWAR",
    "partNumber": 96,
    "partName": "AGLIDHAR C",
    "lat": 32.657171250000005,
    "lon": 75.53666001503413
  },
  {
    "partId": 3281,
    "stateCode": "U08",
    "stateName": "Jammu and Kashmir",
    "districtCode": "U0816",
    "districtName": "KATHUA",
    "acNumber": 64,
    "acName": "BILLAWAR",
    "partNumber": 97,
    "partName": "BAROTA A",
    "lat": 32.657171250000005,
    "lon": 75.53666001503413
  },
  {
    "partId": 3279,
    "stateCode": "U08",
    "stateName": "Jammu and Kashmir",
    "districtCode": "U0816",
    "districtName": "KATHUA",
    "acNumber": 64,
    "acName": "BILLAWAR",
    "partNumber": 98,
    "partName": "BAROTA B",
    "lat": 32.657171250000005,
    "lon": 75.53666001503413
  },
  {
    "partId": 3270,
    "stateCode": "U08",
    "stateName": "Jammu and Kashmir",
    "districtCode": "U0816",
    "districtName": "KATHUA",
    "acNumber": 64,
    "acName": "BILLAWAR",
    "partNumber": 99,
    "partName": "DUNGARA A",
    "lat": 32.657171250000005,
    "lon": 75.53666001503413
  },
  {
    "partId": 3271,
    "stateCode": "U08",
    "stateName": "Jammu and Kashmir",
    "districtCode": "U0816",
    "districtName": "KATHUA",
    "acNumber": 64,
    "acName": "BILLAWAR",
    "partNumber": 100,
    "partName": "DUNGARA B",
    "lat": 32.657171250000005,
    "lon": 75.53666001503413
  },
  {
    "partId": 2378,
    "stateCode": "U08",
    "stateName": "Jammu and Kashmir",
    "districtCode": "U0816",
    "districtName": "KATHUA",
    "acNumber": 64,
    "acName": "BILLAWAR",
    "partNumber": 101,
    "partName": "DUNGARA C",
    "lat": 32.657171250000005,
    "lon": 75.53666001503413
  },
  {
    "partId": 3272,
    "stateCode": "U08",
    "stateName": "Jammu and Kashmir",
    "districtCode": "U0816",
    "districtName": "KATHUA",
    "acNumber": 64,
    "acName": "BILLAWAR",
    "partNumber": 102,
    "partName": "K P DUNGARA",
    "lat": 32.657171250000005,
    "lon": 75.53666001503413
  },
  {
    "partId": 3267,
    "stateCode": "U08",
    "stateName": "Jammu and Kashmir",
    "districtCode": "U0816",
    "districtName": "KATHUA",
    "acNumber": 64,
    "acName": "BILLAWAR",
    "partNumber": 103,
    "partName": "DURANG A",
    "lat": 32.657171250000005,
    "lon": 75.53666001503413
  },
  {
    "partId": 3269,
    "stateCode": "U08",
    "stateName": "Jammu and Kashmir",
    "districtCode": "U0816",
    "districtName": "KATHUA",
    "acNumber": 64,
    "acName": "BILLAWAR",
    "partNumber": 104,
    "partName": "DURANG B",
    "lat": 32.657171250000005,
    "lon": 75.53666001503413
  },
  {
    "partId": 3268,
    "stateCode": "U08",
    "stateName": "Jammu and Kashmir",
    "districtCode": "U0816",
    "districtName": "KATHUA",
    "acNumber": 64,
    "acName": "BILLAWAR",
    "partNumber": 105,
    "partName": "DURANG C",
    "lat": 32.657171250000005,
    "lon": 75.53666001503413
  },
  {
    "partId": 3265,
    "stateCode": "U08",
    "stateName": "Jammu and Kashmir",
    "districtCode": "U0816",
    "districtName": "KATHUA",
    "acNumber": 64,
    "acName": "BILLAWAR",
    "partNumber": 106,
    "partName": "DHARAMKOT A",
    "lat": 32.5971861,
    "lon": 75.5393571
  },
  {
    "partId": 3266,
    "stateCode": "U08",
    "stateName": "Jammu and Kashmir",
    "districtCode": "U0816",
    "districtName": "KATHUA",
    "acNumber": 64,
    "acName": "BILLAWAR",
    "partNumber": 107,
    "partName": "DHARAMKOT B",
    "lat": 32.5971861,
    "lon": 75.5393571
  },
  {
    "partId": 3239,
    "stateCode": "U08",
    "stateName": "Jammu and Kashmir",
    "districtCode": "U0816",
    "districtName": "KATHUA",
    "acNumber": 64,
    "acName": "BILLAWAR",
    "partNumber": 108,
    "partName": "BHADDU A",
    "lat": 32.5797149,
    "lon": 75.5267127
  },
  {
    "partId": 3241,
    "stateCode": "U08",
    "stateName": "Jammu and Kashmir",
    "districtCode": "U0816",
    "districtName": "KATHUA",
    "acNumber": 64,
    "acName": "BILLAWAR",
    "partNumber": 109,
    "partName": "BHADDU B",
    "lat": 32.5797149,
    "lon": 75.5267127
  },
  {
    "partId": 3243,
    "stateCode": "U08",
    "stateName": "Jammu and Kashmir",
    "districtCode": "U0816",
    "districtName": "KATHUA",
    "acNumber": 64,
    "acName": "BILLAWAR",
    "partNumber": 110,
    "partName": "BHADDU C",
    "lat": 32.5797149,
    "lon": 75.5267127
  },
  {
    "partId": 3240,
    "stateCode": "U08",
    "stateName": "Jammu and Kashmir",
    "districtCode": "U0816",
    "districtName": "KATHUA",
    "acNumber": 64,
    "acName": "BILLAWAR",
    "partNumber": 111,
    "partName": "BHADDU D",
    "lat": 32.5797149,
    "lon": 75.5267127
  },
  {
    "partId": 3242,
    "stateCode": "U08",
    "stateName": "Jammu and Kashmir",
    "districtCode": "U0816",
    "districtName": "KATHUA",
    "acNumber": 64,
    "acName": "BILLAWAR",
    "partNumber": 112,
    "partName": "BHADDU E",
    "lat": 32.5797149,
    "lon": 75.5267127
  },
  {
    "partId": 3245,
    "stateCode": "U08",
    "stateName": "Jammu and Kashmir",
    "districtCode": "U0816",
    "districtName": "KATHUA",
    "acNumber": 64,
    "acName": "BILLAWAR",
    "partNumber": 113,
    "partName": "KHUNAI",
    "lat": 32.4288215,
    "lon": 75.56286458392415
  },
  {
    "partId": 3244,
    "stateCode": "U08",
    "stateName": "Jammu and Kashmir",
    "districtCode": "U0816",
    "districtName": "KATHUA",
    "acNumber": 64,
    "acName": "BILLAWAR",
    "partNumber": 114,
    "partName": "DHER A",
    "lat": 32.657171250000005,
    "lon": 75.53666001503413
  },
  {
    "partId": 3246,
    "stateCode": "U08",
    "stateName": "Jammu and Kashmir",
    "districtCode": "U0816",
    "districtName": "KATHUA",
    "acNumber": 64,
    "acName": "BILLAWAR",
    "partNumber": 115,
    "partName": "DHER B",
    "lat": 32.657171250000005,
    "lon": 75.53666001503413
  },
  {
    "partId": 3238,
    "stateCode": "U08",
    "stateName": "Jammu and Kashmir",
    "districtCode": "U0816",
    "districtName": "KATHUA",
    "acNumber": 64,
    "acName": "BILLAWAR",
    "partNumber": 116,
    "partName": "BERAL(PHINTER)",
    "lat": 32.657171250000005,
    "lon": 75.53666001503413
  },
  {
    "partId": 1608,
    "stateCode": "U08",
    "stateName": "Jammu and Kashmir",
    "districtCode": "U0816",
    "districtName": "KATHUA",
    "acNumber": 64,
    "acName": "BILLAWAR",
    "partNumber": 117,
    "partName": "DRAHALTA A",
    "lat": 32.657171250000005,
    "lon": 75.53666001503413
  },
  {
    "partId": 1609,
    "stateCode": "U08",
    "stateName": "Jammu and Kashmir",
    "districtCode": "U0816",
    "districtName": "KATHUA",
    "acNumber": 64,
    "acName": "BILLAWAR",
    "partNumber": 118,
    "partName": "DRAHALTA B",
    "lat": 32.657171250000005,
    "lon": 75.53666001503413
  },
  {
    "partId": 3237,
    "stateCode": "U08",
    "stateName": "Jammu and Kashmir",
    "districtCode": "U0816",
    "districtName": "KATHUA",
    "acNumber": 64,
    "acName": "BILLAWAR",
    "partNumber": 119,
    "partName": "DRAHALTA C",
    "lat": 32.657171250000005,
    "lon": 75.53666001503413
  },
  {
    "partId": 1600,
    "stateCode": "U08",
    "stateName": "Jammu and Kashmir",
    "districtCode": "U0816",
    "districtName": "KATHUA",
    "acNumber": 64,
    "acName": "BILLAWAR",
    "partNumber": 120,
    "partName": "PARNALA A",
    "lat": 32.5606473,
    "lon": 75.5907801
  },
  {
    "partId": 1601,
    "stateCode": "U08",
    "stateName": "Jammu and Kashmir",
    "districtCode": "U0816",
    "districtName": "KATHUA",
    "acNumber": 64,
    "acName": "BILLAWAR",
    "partNumber": 121,
    "partName": "PARNALA B",
    "lat": 32.5606473,
    "lon": 75.5907801
  },
  {
    "partId": 1602,
    "stateCode": "U08",
    "stateName": "Jammu and Kashmir",
    "districtCode": "U0816",
    "districtName": "KATHUA",
    "acNumber": 64,
    "acName": "BILLAWAR",
    "partNumber": 122,
    "partName": "PARNALA C",
    "lat": 32.5606473,
    "lon": 75.5907801
  },
  {
    "partId": 1607,
    "stateCode": "U08",
    "stateName": "Jammu and Kashmir",
    "districtCode": "U0816",
    "districtName": "KATHUA",
    "acNumber": 64,
    "acName": "BILLAWAR",
    "partNumber": 123,
    "partName": "PALLAN A",
    "lat": 32.657171250000005,
    "lon": 75.53666001503413
  },
  {
    "partId": 1606,
    "stateCode": "U08",
    "stateName": "Jammu and Kashmir",
    "districtCode": "U0816",
    "districtName": "KATHUA",
    "acNumber": 64,
    "acName": "BILLAWAR",
    "partNumber": 124,
    "partName": "PALLAN B",
    "lat": 32.657171250000005,
    "lon": 75.53666001503413
  },
  {
    "partId": 1605,
    "stateCode": "U08",
    "stateName": "Jammu and Kashmir",
    "districtCode": "U0816",
    "districtName": "KATHUA",
    "acNumber": 64,
    "acName": "BILLAWAR",
    "partNumber": 125,
    "partName": "SERI A",
    "lat": 32.5848185,
    "lon": 75.6043524
  },
  {
    "partId": 1604,
    "stateCode": "U08",
    "stateName": "Jammu and Kashmir",
    "districtCode": "U0816",
    "districtName": "KATHUA",
    "acNumber": 64,
    "acName": "BILLAWAR",
    "partNumber": 126,
    "partName": "SERI B",
    "lat": 32.5848185,
    "lon": 75.6043524
  },
  {
    "partId": 1603,
    "stateCode": "U08",
    "stateName": "Jammu and Kashmir",
    "districtCode": "U0816",
    "districtName": "KATHUA",
    "acNumber": 64,
    "acName": "BILLAWAR",
    "partNumber": 127,
    "partName": "MOONI",
    "lat": 32.4288215,
    "lon": 75.56286458392415
  },
  {
    "partId": 2059,
    "stateCode": "U08",
    "stateName": "Jammu and Kashmir",
    "districtCode": "U0816",
    "districtName": "KATHUA",
    "acNumber": 64,
    "acName": "BILLAWAR",
    "partNumber": 128,
    "partName": "HOTTAR A",
    "lat": 32.657171250000005,
    "lon": 75.53666001503413
  },
  {
    "partId": 2060,
    "stateCode": "U08",
    "stateName": "Jammu and Kashmir",
    "districtCode": "U0816",
    "districtName": "KATHUA",
    "acNumber": 64,
    "acName": "BILLAWAR",
    "partNumber": 129,
    "partName": "HOTTAR B",
    "lat": 32.657171250000005,
    "lon": 75.53666001503413
  },
  {
    "partId": 2106,
    "stateCode": "U08",
    "stateName": "Jammu and Kashmir",
    "districtCode": "U0816",
    "districtName": "KATHUA",
    "acNumber": 64,
    "acName": "BILLAWAR",
    "partNumber": 130,
    "partName": "BAKALI",
    "lat": 32.657171250000005,
    "lon": 75.53666001503413
  },
  {
    "partId": 20966,
    "stateCode": "U08",
    "stateName": "Jammu and Kashmir",
    "districtCode": "U0816",
    "districtName": "KATHUA",
    "acNumber": 68,
    "acName": "HIRANAGAR",
    "partNumber": 1,
    "partName": "KOOTAH B",
    "lat": 32.46361605,
    "lon": 75.32060565473498
  },
  {
    "partId": 20967,
    "stateCode": "U08",
    "stateName": "Jammu and Kashmir",
    "districtCode": "U0816",
    "districtName": "KATHUA",
    "acNumber": 68,
    "acName": "HIRANAGAR",
    "partNumber": 2,
    "partName": "KOOTAH A",
    "lat": 32.46361605,
    "lon": 75.32060565473498
  },
  {
    "partId": 20968,
    "stateCode": "U08",
    "stateName": "Jammu and Kashmir",
    "districtCode": "U0816",
    "districtName": "KATHUA",
    "acNumber": 68,
    "acName": "HIRANAGAR",
    "partNumber": 3,
    "partName": "KOOTAH C",
    "lat": 32.46361605,
    "lon": 75.32060565473498
  },
  {
    "partId": 20969,
    "stateCode": "U08",
    "stateName": "Jammu and Kashmir",
    "districtCode": "U0816",
    "districtName": "KATHUA",
    "acNumber": 68,
    "acName": "HIRANAGAR",
    "partNumber": 4,
    "partName": "KOOTAH D",
    "lat": 32.46361605,
    "lon": 75.32060565473498
  },
  {
    "partId": 20970,
    "stateCode": "U08",
    "stateName": "Jammu and Kashmir",
    "districtCode": "U0816",
    "districtName": "KATHUA",
    "acNumber": 68,
    "acName": "HIRANAGAR",
    "partNumber": 5,
    "partName": "KANAH",
    "lat": 32.46361605,
    "lon": 75.32060565473498
  },