[
  {
    "partId": 3388,
    "stateCode": "S18",
    "stateName": "Odisha",
    "districtCode": "S1815",
    "districtName": "Nuapada",
    "acNumber": 72,
    "acName": "Khariar",
    "partNumber": 1,
    "partName": "Kotamal",
    "lat": 20.1925726,
    "lon": 82.7686357
  },
  {
    "partId": 3389,
    "stateCode": "S18",
    "stateName": "Odisha",
    "districtCode": "S1815",
    "districtName": "Nuapada",
    "acNumber": 72,
    "acName": "Khariar",
    "partNumber": 2,
    "partName": "Kireikela",
    "lat": 20.2700878,
    "lon": 82.74788762720786
  },
  {
    "partId": 3390,
    "stateCode": "S18",
    "stateName": "Odisha",
    "districtCode": "S1815",
    "districtName": "Nuapada",
    "acNumber": 72,
    "acName": "Khariar",
    "partNumber": 3,
    "partName": "Bolda",
    "lat": 20.4271335,
    "lon": 82.6152563
  },
  {
    "partId": 3391,
    "stateCode": "S18",
    "stateName": "Odisha",
    "districtCode": "S1815",
    "districtName": "Nuapada",
    "acNumber": 72,
    "acName": "Khariar",
    "partNumber": 4,
    "partName": "Nagpada",
    "lat": 20.4055255,
    "lon": 82.5852692
  },
  {
    "partId": 3392,
    "stateCode": "S18",
    "stateName": "Odisha",
    "districtCode": "S1815",
    "districtName": "Nuapada",
    "acNumber": 72,
    "acName": "Khariar",
    "partNumber": 5,
    "partName": "Bhuinpani",
    "lat": 20.4122124,
    "lon": 82.5558185
  },
  {
    "partId": 3393,
    "stateCode": "S18",
    "stateName": "Odisha",
    "districtCode": "S1815",
    "districtName": "Nuapada",
    "acNumber": 72,
    "acName": "Khariar",
    "partNumber": 6,
    "partName": "Jharanamal",
    "lat": 20.2700878,
    "lon": 82.74788762720786
  },
  {
    "partId": 3394,
    "stateCode": "S18",
    "stateName": "Odisha",
    "districtCode": "S1815",
    "districtName": "Nuapada",
    "acNumber": 72,
    "acName": "Khariar",
    "partNumber": 7,
    "partName": "Sirli",
    "lat": 20.3785114,
    "lon": 82.5832495
  },
  {
    "partId": 3395,
    "stateCode": "S18",
    "stateName": "Odisha",
    "districtCode": "S1815",
    "districtName": "Nuapada",
    "acNumber": 72,
    "acName": "Khariar",
    "partNumber": 8,
    "partName": "Karlakote-1",
    "lat": 20.3807969,
    "lon": 82.6248962
  },
  {
    "partId": 3396,
    "stateCode": "S18",
    "stateName": "Odisha",
    "districtCode": "S1815",
    "districtName": "Nuapada",
    "acNumber": 72,
    "acName": "Khariar",
    "partNumber": 9,
    "partName": "Karlakote-II",
    "lat": 20.3807969,
    "lon": 82.6248962
  },
  {
    "partId": 3397,
    "stateCode": "S18",
    "stateName": "Odisha",
    "districtCode": "S1815",
    "districtName": "Nuapada",
    "acNumber": 72,
    "acName": "Khariar",
    "partNumber": 10,
    "partName": "Daragaon",
    "lat": 20.2700878,
    "lon": 82.74788762720786
  },
  {
    "partId": 3398,
    "stateCode": "S18",
    "stateName": "Odisha",
    "districtCode": "S1815",
    "districtName": "Nuapada",
    "acNumber": 72,
    "acName": "Khariar",
    "partNumber": 11,
    "partName": "Jholpathar",
    "lat": 20.3774981,
    "lon": 82.7192616
  },
  {
    "partId": 3399,
    "stateCode": "S18",
    "stateName": "Odisha",
    "districtCode": "S1815",
    "districtName": "Nuapada",
    "acNumber": 72,
    "acName": "Khariar",
    "partNumber": 12,
    "partName": "Badmaheswar",
    "lat": 20.3772466,
    "lon": 82.6839745
  },
  {
    "partId": 3400,
    "stateCode": "S18",
    "stateName": "Odisha",
    "districtCode": "S1815",
    "districtName": "Nuapada",
    "acNumber": 72,
    "acName": "Khariar",
    "partNumber": 13,
    "partName": "Kuligaon",
    "lat": 20.3669676,
    "lon": 82.6720762
  },
  {
    "partId": 3401,
    "stateCode": "S18",
    "stateName": "Odisha",
    "districtCode": "S1815",
    "districtName": "Nuapada",
    "acNumber": 72,
    "acName": "Khariar",
    "partNumber": 14,
    "partName": "Deobahal",
    "lat": 20.3607214,
    "lon": 82.7014571
  },
  {
    "partId": 3402,
    "stateCode": "S18",
    "stateName": "Odisha",
    "districtCode": "S1815",
    "districtName": "Nuapada",
    "acNumber": 72,
    "acName": "Khariar",
    "partNumber": 15,
    "partName": "Ghardhara",
    "lat": 20.3570425,
    "lon": 82.6766601
  },
  {
    "partId": 3403,
    "stateCode": "S18",
    "stateName": "Odisha",
    "districtCode": "S1815",
    "districtName": "Nuapada",
    "acNumber": 72,
    "acName": "Khariar",
    "partNumber": 16,
    "partName": "Bendrabahal",
    "lat": 20.3460504,
    "lon": 82.6998425
  },
  {
    "partId": 3404,
    "stateCode": "S18",
    "stateName": "Odisha",
    "districtCode": "S1815",
    "districtName": "Nuapada",
    "acNumber": 72,
    "acName": "Khariar",
    "partNumber": 17,
    "partName": "Bargaon-I",
    "lat": 20.1215066,
    "lon": 82.6794362
  },
  {
    "partId": 3405,
    "stateCode": "S18",
    "stateName": "Odisha",
    "districtCode": "S1815",
    "districtName": "Nuapada",
    "acNumber": 72,
    "acName": "Khariar",
    "partNumber": 18,
    "partName": "Bargaon-II",
    "lat": 20.1215066,
    "lon": 82.6794362
  },
  {
    "partId": 3406,
    "stateCode": "S18",
    "stateName": "Odisha",
    "districtCode": "S1815",
    "districtName": "Nuapada",
    "acNumber": 72,
    "acName": "Khariar",
    "partNumber": 19,
    "partName": "Rajamunda",
    "lat": 20.3648805,
    "lon": 82.6829231
  },
  {
    "partId": 3407,
    "stateCode": "S18",
    "stateName": "Odisha",
    "districtCode": "S1815",
    "districtName": "Nuapada",
    "acNumber": 72,
    "acName": "Khariar",
    "partNumber": 20,
    "partName": "Damjhar-I",
    "lat": 20.3325047,
    "lon": 82.6703221
  },
  {
    "partId": 3408,
    "stateCode": "S18",
    "stateName": "Odisha",
    "districtCode": "S1815",
    "districtName": "Nuapada",
    "acNumber": 72,
    "acName": "Khariar",
    "partNumber": 21,
    "partName": "Damjhar-II",
    "lat": 20.3325047,
    "lon": 82.6703221
  },
  {
    "partId": 3409,
    "stateCode": "S18",
    "stateName": "Odisha",
    "districtCode": "S1815",
    "districtName": "Nuapada",
    "acNumber": 72,
    "acName": "Khariar",
    "partNumber": 22,
    "partName": "Amera",
    "lat": 20.3351707,
    "lon": 82.6219404
  },
  {
    "partId": 3410,
    "stateCode": "S18",
    "stateName": "Odisha",
    "districtCode": "S1815",
    "districtName": "Nuapada",
    "acNumber": 72,
    "acName": "Khariar",
    "partNumber": 23,
    "partName": "Kireijhola-1",
    "lat": 20.2700878,
    "lon": 82.74788762720786
  },
  {
    "partId": 3411,
    "stateCode": "S18",
    "stateName": "Odisha",
    "districtCode": "S1815",
    "districtName": "Nuapada",
    "acNumber": 72,
    "acName": "Khariar",
    "partNumber": 24,
    "partName": "Kireijhola-II",
    "lat": 20.2700878,
    "lon": 82.74788762720786
  },
  {
    "partId": 3412,
    "stateCode": "S18",
    "stateName": "Odisha",
    "districtCode": "S1815",
    "districtName": "Nuapada",
    "acNumber": 72,
    "acName": "Khariar",
    "partNumber": 25,
    "partName": "Khaira-1",
    "lat": 20.3183693,
    "lon": 82.6075691
  },
  {
    "partId": 3413,
    "stateCode": "S18",
    "stateName": "Odisha",
    "districtCode": "S1815",
    "districtName": "Nuapada",
    "acNumber": 72,
    "acName": "Khariar",
    "partNumber": 26,
    "partName": "Khaira-II",
    "lat": 20.3183693,
    "lon": 82.6075691
  },
  {
    "partId": 3414,
    "stateCode": "S18",
    "stateName": "Odisha",
    "districtCode": "S1815",
    "districtName": "Nuapada",
    "acNumber": 72,
    "acName": "Khariar",
    "partNumber": 27,
    "partName": "Dabri",
    "lat": 20.2158413,
    "lon": 82.7150372
  },
  {
    "partId": 3415,
    "stateCode": "S18",
    "stateName": "Odisha",
    "districtCode": "S1815",
    "districtName": "Nuapada",
    "acNumber": 72,
    "acName": "Khariar",
    "partNumber": 28,
    "partName": "Patadaraha",
    "lat": 20.3448533,
    "lon": 82.4611688
  },
  {
    "partId": 3416,
    "stateCode": "S18",
    "stateName": "Odisha",
    "districtCode": "S1815",
    "districtName": "Nuapada",
    "acNumber": 72,
    "acName": "Khariar",
    "partNumber": 29,
    "partName": "Rundi",
    "lat": 20.3171619,
    "lon": 82.5199842
  },
  {
    "partId": 3417,
    "stateCode": "S18",
    "stateName": "Odisha",
    "districtCode": "S1815",
    "districtName": "Nuapada",
    "acNumber": 72,
    "acName": "Khariar",
    "partNumber": 30,
    "partName": "Dhobei",
    "lat": 20.2724529,
    "lon": 82.531051
  },
  {
    "partId": 3418,
    "stateCode": "S18",
    "stateName": "Odisha",
    "districtCode": "S1815",
    "districtName": "Nuapada",
    "acNumber": 72,
    "acName": "Khariar",
    "partNumber": 31,
    "partName": "Temri-1",
    "lat": 20.2666357,
    "lon": 82.5695032
  },
  {
    "partId": 3419,
    "stateCode": "S18",
    "stateName": "Odisha",
    "districtCode": "S1815",
    "districtName": "Nuapada",
    "acNumber": 72,
    "acName": "Khariar",
    "partNumber": 32,
    "partName": "Bagbahal",
    "lat": 20.309007,
    "lon": 82.5953382
  },
  {
    "partId": 3420,
    "stateCode": "S18",
    "stateName": "Odisha",
    "districtCode": "S1815",
    "districtName": "Nuapada",
    "acNumber": 72,
    "acName": "Khariar",
    "partNumber": 33,
    "partName": "Temri-2",
    "lat": 20.2666357,
    "lon": 82.5695032
  },
  {
    "partId": 3421,
    "stateCode": "S18",
    "stateName": "Odisha",
    "districtCode": "S1815",
    "districtName": "Nuapada",
    "acNumber": 72,
    "acName": "Khariar",
    "partNumber": 34,
    "partName": "Makarbirli",
    "lat": 20.3267224,
    "lon": 82.563597
  },
  {
    "partId": 3422,
    "stateCode": "S18",
    "stateName": "Odisha",
    "districtCode": "S1815",
    "districtName": "Nuapada",
    "acNumber": 72,
    "acName": "Khariar",
    "partNumber": 35,
    "partName": "Mahulapadar",
    "lat": 20.2700878,
    "lon": 82.74788762720786
  },
  {
    "partId": 3423,
    "stateCode": "S18",
    "stateName": "Odisha",
    "districtCode": "S1815",
    "districtName": "Nuapada",
    "acNumber": 72,
    "acName": "Khariar",
    "partNumber": 36,
    "partName": "Sunapur-1",
    "lat": 20.2742494,
    "lon": 82.5977361
  },
  {
    "partId": 3424,
    "stateCode": "S18",
    "stateName": "Odisha",
    "districtCode": "S1815",
    "districtName": "Nuapada",
    "acNumber": 72,
    "acName": "Khariar",
    "partNumber": 37,
    "partName": "Sunapur-II",
    "lat": 20.2742494,
    "lon": 82.5977361
  },
  {
    "partId": 3425,
    "stateCode": "S18",
    "stateName": "Odisha",
    "districtCode": "S1815",
    "districtName": "Nuapada",
    "acNumber": 72,
    "acName": "Khariar",
    "partNumber": 38,
    "partName": "Kesrajpur",
    "lat": 20.2995083,
    "lon": 82.6126894
  },
  {
    "partId": 3426,
    "stateCode": "S18",
    "stateName": "Odisha",
    "districtCode": "S1815",
    "districtName": "Nuapada",
    "acNumber": 72,
    "acName": "Khariar",
    "partNumber": 39,
    "partName": "Banjibahal",
    "lat": 20.3019912,
    "lon": 82.6205014
  },
  {
    "partId": 3427,
    "stateCode": "S18",
    "stateName": "Odisha",
    "districtCode": "S1815",
    "districtName": "Nuapada",
    "acNumber": 72,
    "acName": "Khariar",
    "partNumber": 40,
    "partName": "Palasada-1",
    "lat": 20.3076134,
    "lon": 82.681126
  },
  {
    "partId": 3428,
    "stateCode": "S18",
    "stateName": "Odisha",
    "districtCode": "S1815",
    "districtName": "Nuapada",
    "acNumber": 72,
    "acName": "Khariar",
    "partNumber": 41,
    "partName": "Palasada-II",
    "lat": 20.3076134,
    "lon": 82.681126
  },
  {
    "partId": 3429,
    "stateCode": "S18",
    "stateName": "Odisha",
    "districtCode": "S1815",
    "districtName": "Nuapada",
    "acNumber": 72,
    "acName": "Khariar",
    "partNumber": 42,
    "partName": "Durkamunda",
    "lat": 20.2967763,
    "lon": 82.6439023
  },
  {
    "partId": 3430,
    "stateCode": "S18",
    "stateName": "Odisha",
    "districtCode": "S1815",
    "districtName": "Nuapada",
    "acNumber": 72,
    "acName": "Khariar",
    "partNumber": 43,
    "partName": "Margaon",
    "lat": 20.3200294,
    "lon": 82.6569593
  },
  {
    "partId": 3431,
    "stateCode": "S18",
    "stateName": "Odisha",
    "districtCode": "S1815",
    "districtName": "Nuapada",
    "acNumber": 72,
    "acName": "Khariar",
    "partNumber": 44,
    "partName": "Khudpej",
    "lat": 20.3146516,
    "lon": 82.6943868
  },
  {
    "partId": 3432,
    "stateCode": "S18",
    "stateName": "Odisha",
    "districtCode": "S1815",
    "districtName": "Nuapada",
    "acNumber": 72,
    "acName": "Khariar",
    "partNumber": 45,
    "partName": "Thagapali",
    "lat": 20.2700878,
    "lon": 82.74788762720786
  },
  {
    "partId": 3433,
    "stateCode": "S18",
    "stateName": "Odisha",
    "districtCode": "S1815",
    "districtName": "Nuapada",
    "acNumber": 72,
    "acName": "Khariar",
    "partNumber": 46,
    "partName": "Kikiribeda",
    "lat": 20.2962078,
    "lon": 82.6972407
  },
  {
    "partId": 3434,
    "stateCode": "S18",
    "stateName": "Odisha",
    "districtCode": "S1815",
    "districtName": "Nuapada",
    "acNumber": 72,
    "acName": "Khariar",
    "partNumber": 47,
    "partName": "Dumerbahal",
    "lat": 20.3264131,
    "lon": 82.7124649
  },
  {
    "partId": 3435,
    "stateCode": "S18",
    "stateName": "Odisha",
    "districtCode": "S1815",
    "districtName": "Nuapada",
    "acNumber": 72,
    "acName": "Khariar",
    "partNumber": 48,
    "partName": "Kashipala",
    "lat": 20.2700878,
    "lon": 82.74788762720786
  },
  {
    "partId": 3436,
    "stateCode": "S18",
    "stateName": "Odisha",
    "districtCode": "S1815",
    "districtName": "Nuapada",
    "acNumber": 72,
    "acName": "Khariar",
    "partNumber": 49,
    "partName": "Chalanapada",
    "lat": 20.2700878,
    "lon": 82.74788762720786
  },
  {
    "partId": 3437,
    "stateCode": "S18",
    "stateName": "Odisha",
    "districtCode": "S1815",
    "districtName": "Nuapada",
    "acNumber": 72,
    "acName": "Khariar",
    "partNumber": 50,
    "partName": "Goimundi",
    "lat": 20.3262823,
    "lon": 82.7261442
  },
  {
    "partId": 3438,
    "stateCode": "S18",
    "stateName": "Odisha",
    "districtCode": "S1815",
    "districtName": "Nuapada",
    "acNumber": 72,
    "acName": "Khariar",
    "partNumber": 51,
    "partName": "Podapali",
    "lat": 20.3425346,
    "lon": 82.7241647
  },
  {
    "partId": 3439,
    "stateCode": "S18",
    "stateName": "Odisha",
    "districtCode": "S1815",
    "districtName": "Nuapada",
    "acNumber": 72,
    "acName": "Khariar",
    "partNumber": 52,
    "partName": "Chanabeda-1",
    "lat": 20.8633383,
    "lon": 82.5551641
  },
  {
    "partId": 3440,
    "stateCode": "S18",
    "stateName": "Odisha",
    "districtCode": "S1815",
    "districtName": "Nuapada",
    "acNumber": 72,
    "acName": "Khariar",
    "partNumber": 53,
    "partName": "Chanabeda-2",
    "lat": 20.8633383,
    "lon": 82.5551641
  },
  {
    "partId": 3441,
    "stateCode": "S18",
    "stateName": "Odisha",
    "districtCode": "S1815",
    "districtName": "Nuapada",
    "acNumber": 72,
    "acName": "Khariar",
    "partNumber": 54,
    "partName": "Rohenpadar",
    "lat": 20.2700878,
    "lon": 82.74788762720786
  },
  {
    "partId": 3442,
    "stateCode": "S18",
    "stateName": "Odisha",
    "districtCode": "S1815",
    "districtName": "Nuapada",
    "acNumber": 72,
    "acName": "Khariar",
    "partNumber": 55,
    "partName": "Barapadar",
    "lat": 20.2700878,
    "lon": 82.74788762720786
  },
  {
    "partId": 3443,
    "stateCode": "S18",
    "stateName": "Odisha",
    "districtCode": "S1815",
    "districtName": "Nuapada",
    "acNumber": 72,
    "acName": "Khariar",
    "partNumber": 56,
    "partName": "Bhojpur",
    "lat": 20.334044,
    "lon": 82.7661037
  },
  {
    "partId": 3444,
    "stateCode": "S18",
    "stateName": "Odisha",
    "districtCode": "S1815",
    "districtName": "Nuapada",
    "acNumber": 72,
    "acName": "Khariar",
    "partNumber": 57,
    "partName": "Jhitridhoda",
    "lat": 20.2700878,
    "lon": 82.74788762720786
  },
  {
    "partId": 3445,
    "stateCode": "S18",
    "stateName": "Odisha",
    "districtCode": "S1815",
    "districtName": "Nuapada",
    "acNumber": 72,
    "acName": "Khariar",
    "partNumber": 58,
    "partName": "Bhuliasikuan-I",
    "lat": 20.361848,
    "lon": 82.7888917
  },
  {
    "partId": 3446,
    "stateCode": "S18",
    "stateName": "Odisha",
    "districtCode": "S1815",
    "districtName": "Nuapada",
    "acNumber": 72,
    "acName": "Khariar",
    "partNumber": 59,
    "partName": "Bhuliasikuan-III",
    "lat": 20.2700878,
    "lon": 82.74788762720786
  },
  {
    "partId": 3447,
    "stateCode": "S18",
    "stateName": "Odisha",
    "districtCode": "S1815",
    "districtName": "Nuapada",
    "acNumber": 72,
    "acName": "Khariar",
    "partNumber": 60,
    "partName": "Bhuliasikuan-II",
    "lat": 20.361848,
    "lon": 82.7888917
  },
  {
    "partId": 3448,
    "stateCode": "S18",
    "stateName": "Odisha",
    "districtCode": "S1815",
    "districtName": "Nuapada",
    "acNumber": 72,
    "acName": "Khariar",
    "partNumber": 61,
    "partName": "Baresbahali",
    "lat": 20.3667966,
    "lon": 82.8070128
  },
  {
    "partId": 3449,
    "stateCode": "S18",
    "stateName": "Odisha",
    "districtCode": "S1815",
    "districtName": "Nuapada",
    "acNumber": 72,
    "acName": "Khariar",
    "partNumber": 62,
    "partName": "Chhata",
    "lat": 20.3370016,
    "lon": 82.7875614
  },
  {
    "partId": 3450,
    "stateCode": "S18",
    "stateName": "Odisha",
    "districtCode": "S1815",
    "districtName": "Nuapada",
    "acNumber": 72,
    "acName": "Khariar",
    "partNumber": 63,
    "partName": "Kotipadar",
    "lat": 20.312262,
    "lon": 82.7619731
  },
  {
    "partId": 3451,
    "stateCode": "S18",
    "stateName": "Odisha",
    "districtCode": "S1815",
    "districtName": "Nuapada",
    "acNumber": 72,
    "acName": "Khariar",
    "partNumber": 64,
    "partName": "Bhaludongri",
    "lat": 20.2410493,
    "lon": 82.7339119
  },
  {
    "partId": 3452,
    "stateCode": "S18",
    "stateName": "Odisha",
    "districtCode": "S1815",
    "districtName": "Nuapada",
    "acNumber": 72,
    "acName": "Khariar",
    "partNumber": 65,
    "partName": "Kotenmunda",
    "lat": 20.3472525,
    "lon": 82.78813
  },
  {
    "partId": 3453,
    "stateCode": "S18",
    "stateName": "Odisha",
    "districtCode": "S1815",
    "districtName": "Nuapada",
    "acNumber": 72,
    "acName": "Khariar",
    "partNumber": 66,
    "partName": "Badamula",
    "lat": 20.3389533,
    "lon": 82.8206062
  },
  {
    "partId": 3454,
    "stateCode": "S18",
    "stateName": "Odisha",
    "districtCode": "S1815",
    "districtName": "Nuapada",
    "acNumber": 72,
    "acName": "Khariar",
    "partNumber": 67,
    "partName": "Amalapali",
    "lat": 20.3328166,
    "lon": 82.8414845
  },
  {
    "partId": 3455,
    "stateCode": "S18",
    "stateName": "Odisha",
    "districtCode": "S1815",
    "districtName": "Nuapada",
    "acNumber": 72,
    "acName": "Khariar",
    "partNumber": 68,
    "partName": "Mahura",
    "lat": 20.3145661,
    "lon": 82.8454113
  },
  {
    "partId": 3456,
    "stateCode": "S18",
    "stateName": "Odisha",
    "districtCode": "S1815",
    "districtName": "Nuapada",
    "acNumber": 72,
    "acName": "Khariar",
    "partNumber": 69,
    "partName": "Chanatamala",
    "lat": 20.2700878,
    "lon": 82.74788762720786
  },
  {
    "partId": 3457,
    "stateCode": "S18",
    "stateName": "Odisha",
    "districtCode": "S1815",
    "districtName": "Nuapada",
    "acNumber": 72,
    "acName": "Khariar",
    "partNumber": 70,
    "partName": "Junena",
    "lat": 20.2700878,
    "lon": 82.74788762720786
  },
  {
    "partId": 3458,
    "stateCode": "S18",
    "stateName": "Odisha",
    "districtCode": "S1815",
    "districtName": "Nuapada",
    "acNumber": 72,
    "acName": "Khariar",
    "partNumber": 71,
    "partName": "Areda",
    "lat": 20.3227761,
    "lon": 82.815113
  },
  {
    "partId": 3459,
    "stateCode": "S18",
    "stateName": "Odisha",
    "districtCode": "S1815",
    "districtName": "Nuapada",
    "acNumber": 72,
    "acName": "Khariar",
    "partNumber": 72,
    "partName": "Badi-1",
    "lat": 20.3158942,
    "lon": 82.7857375
  },
  {
    "partId": 3460,
    "stateCode": "S18",
    "stateName": "Odisha",
    "districtCode": "S1815",
    "districtName": "Nuapada",
    "acNumber": 72,
    "acName": "Khariar",
    "partNumber": 73,
    "partName": "Badi-II",
    "lat": 20.2700878,
    "lon": 82.74788762720786
  },
  {
    "partId": 3461,
    "stateCode": "S18",
    "stateName": "Odisha",
    "districtCode": "S1815",
    "districtName": "Nuapada",
    "acNumber": 72,
    "acName": "Khariar",
    "partNumber": 74,
    "partName": "Padampur",
    "lat": 21.1301809,
    "lon": 82.9314991
  },
  {
    "partId": 3462,
    "stateCode": "S18",
    "stateName": "Odisha",
    "districtCode": "S1815",
    "districtName": "Nuapada",
    "acNumber": 72,
    "acName": "Khariar",
    "partNumber": 75,
    "partName": "Khariar-I",
    "lat": 20.2930499,
    "lon": 82.7610406
  },
  {
    "partId": 3463,
    "stateCode": "S18",
    "stateName": "Odisha",
    "districtCode": "S1815",
    "districtName": "Nuapada",
    "acNumber": 72,
    "acName": "Khariar",
    "partNumber": 76,
    "partName": "Khariar-XI",
    "lat": 20.2930499,
    "lon": 82.7610406
  },
  {
    "partId": 3464,
    "stateCode": "S18",
    "stateName": "Odisha",
    "districtCode": "S1815",
    "districtName": "Nuapada",
    "acNumber": 72,
    "acName": "Khariar",
    "partNumber": 77,
    "partName": "Khariar-II",
    "lat": 20.2930499,
    "lon": 82.7610406
  },
  {
    "partId": 3465,
    "stateCode": "S18",
    "stateName": "Odisha",
    "districtCode": "S1815",
    "districtName": "Nuapada",
    "acNumber": 72,
    "acName": "Khariar",
    "partNumber": 78,
    "partName": "Khariar-III",
    "lat": 20.2700878,
    "lon": 82.74788762720786
  },
  {
    "partId": 3466,
    "stateCode": "S18",
    "stateName": "Odisha",
    "districtCode": "S1815",
    "districtName": "Nuapada",
    "acNumber": 72,
    "acName": "Khariar",
    "partNumber": 79,
    "partName": "Khariar-IV",
    "lat": 20.2700878,
    "lon": 82.74788762720786
  },
  {
    "partId": 3467,
    "stateCode": "S18",
    "stateName": "Odisha",
    "districtCode": "S1815",
    "districtName": "Nuapada",
    "acNumber": 72,
    "acName": "Khariar",
    "partNumber": 80,
    "partName": "Khariar- V",
    "lat": 20.2930499,
    "lon": 82.7610406
  },
  {
    "partId": 3468,
    "stateCode": "S18",
    "stateName": "Odisha",
    "districtCode": "S1815",
    "districtName": "Nuapada",
    "acNumber": 72,
    "acName": "Khariar",
    "partNumber": 81,
    "partName": "Khariar- VI",
    "lat": 20.2930499,
    "lon": 82.7610406
  },
  {
    "partId": 3469,
    "stateCode": "S18",
    "stateName": "Odisha",
    "districtCode": "S1815",
    "districtName": "Nuapada",
    "acNumber": 72,
    "acName": "Khariar",
    "partNumber": 82,
    "partName": "Khariar-VII",
    "lat": 20.2700878,
    "lon": 82.74788762720786
  },
  {
    "partId": 3470,
    "stateCode": "S18",
    "stateName": "Odisha",
    "districtCode": "S1815",
    "districtName": "Nuapada",
    "acNumber": 72,
    "acName": "Khariar",
    "partNumber": 83,
    "partName": "Khariar-X",
    "lat": 20.2700878,
    "lon": 82.74788762720786
  },
  {
    "partId": 3471,
    "stateCode": "S18",
    "stateName": "Odisha",
    "districtCode": "S1815",
    "districtName": "Nuapada",
    "acNumber": 72,
    "acName": "Khariar",
    "partNumber": 84,
    "partName": "Khariar-VIII",
    "lat": 20.2700878,
    "lon": 82.74788762720786
  },
  {
    "partId": 3472,
    "stateCode": "S18",
    "stateName": "Odisha",
    "districtCode": "S1815",
    "districtName": "Nuapada",
    "acNumber": 72,
    "acName": "Khariar",
    "partNumber": 85,
    "partName": "Khariar-12",
    "lat": 20.2930499,
    "lon": 82.7610406
  },
  {
    "partId": 3473,
    "stateCode": "S18",
    "stateName": "Odisha",
    "districtCode": "S1815",
    "districtName": "Nuapada",
    "acNumber": 72,
    "acName": "Khariar",
    "partNumber": 86,
    "partName": "Khariar-IX",
    "lat": 20.2700878,
    "lon": 82.74788762720786
  },
  {
    "partId": 3474,
    "stateCode": "S18",
    "stateName": "Odisha",
    "districtCode": "S1815",
    "districtName": "Nuapada",
    "acNumber": 72,
    "acName": "Khariar",
    "partNumber": 87,
    "partName": "Gadramunda",
    "lat": 20.2988794,
    "lon": 82.7446622
  },
  {
    "partId": 3475,
    "stateCode": "S18",
    "stateName": "Odisha",
    "districtCode": "S1815",
    "districtName": "Nuapada",
    "acNumber": 72,
    "acName": "Khariar",
    "partNumber": 88,
    "partName": "Gadramunda",
    "lat": 20.2988794,
    "lon": 82.7446622
  },
  {
    "partId": 3476,
    "stateCode": "S18",
    "stateName": "Odisha",
    "districtCode": "S1815",
    "districtName": "Nuapada",
    "acNumber": 72,
    "acName": "Khariar",
    "partNumber": 89,
    "partName": "Loharapali",
    "lat": 20.035199,
    "lon": 82.6343429
  },
  {
    "partId": 3477,
    "stateCode": "S18",
    "stateName": "Odisha",
    "districtCode": "S1815",
    "districtName": "Nuapada",
    "acNumber": 72,
    "acName": "Khariar",
    "partNumber": 90,
    "partName": "Chindaguda",
    "lat": 20.2974807,
    "lon": 82.7287459
  },
  {
    "partId": 21104,
    "stateCode": "S18",
    "stateName": "Odisha",
    "districtCode": "S1815",
    "districtName": "Nuapada",
    "acNumber": 72,
    "acName": "Khariar",
    "partNumber": 91,
    "partName": "Khairpadar",
    "lat": 20.0911709,
    "lon": 82.5481903
  },
  {
    "partId": 21105,
    "stateCode": "S18",
    "stateName": "Odisha",
    "districtCode": "S1815",
    "districtName": "Nuapada",
    "acNumber": 72,
    "acName": "Khariar",
    "partNumber": 92,
    "partName": "Damapala",
    "lat": 20.2992517,
    "lon": 82.7294433
  },
  {
    "partId": 21106,
    "stateCode": "S18",
    "stateName": "Odisha",
    "districtCode": "S1815",
    "districtName": "Nuapada",
    "acNumber": 72,
    "acName": "Khariar",
    "partNumber": 93,
    "partName": "Modosil",
    "lat": 20.2700878,
    "lon": 82.74788762720786
  },
  {
    "partId": 21107,
    "stateCode": "S18",
    "stateName": "Odisha",
    "districtCode": "S1815",
    "districtName": "Nuapada",
    "acNumber": 72,
    "acName": "Khariar",
    "partNumber": 94,
    "partName": "Bijepur",
    "lat": 20.2869347,
    "lon": 82.7480793
  },
  {
    "partId": 21108,
    "stateCode": "S18",
    "stateName": "Odisha",
    "districtCode": "S1815",
    "districtName": "Nuapada",
    "acNumber": 72,
    "acName": "Khariar",
    "partNumber": 95,
    "partName": "Kushamal",
    "lat": 20.2700878,
    "lon": 82.74788762720786
  },
  {
    "partId": 21109,
    "stateCode": "S18",
    "stateName": "Odisha",
    "districtCode": "S1815",
    "districtName": "Nuapada",
    "acNumber": 72,
    "acName": "Khariar",
    "partNumber": 96,
    "partName": "Kendupati-1",
    "lat": 20.2860089,
    "lon": 82.6819682
  },
  {
    "partId": 21110,
    "stateCode": "S18",
    "stateName": "Odisha",
    "districtCode": "S1815",
    "districtName": "Nuapada",
    "acNumber": 72,
    "acName": "Khariar",
    "partNumber": 97,
    "partName": "Kendupati-2",
    "lat": 20.2860089,
    "lon": 82.6819682
  },
  {
    "partId": 13554,
    "stateCode": "S18",
    "stateName": "Odisha",
    "districtCode": "S1815",
    "districtName": "Nuapada",
    "acNumber": 72,
    "acName": "Khariar",
    "partNumber": 98,
    "partName": "Dumerjore",
    "lat": 20.251525752640845,
    "lon": 82.6872931579397
  },
  {
    "partId": 13555,
    "stateCode": "S18",
    "stateName": "Odisha",
    "districtCode": "S1815",
    "districtName": "Nuapada",
    "acNumber": 72,
    "acName": "Khariar",
    "partNumber": 99,
    "partName": "Lanji",
    "lat": 20.251525752640845,
    "lon": 82.6872931579397
  },
  {
    "partId": 13556,
    "stateCode": "S18",
    "stateName": "Odisha",
    "districtCode": "S1815",
    "districtName": "Nuapada",
    "acNumber": 72,
    "acName": "Khariar",
    "partNumber": 100,
    "partName": "Upperpita",
    "lat": 20.251525752640845,
    "lon": 82.6872931579397
  },
  {
    "partId": 13557,
    "stateCode": "S18",
    "stateName": "Odisha",
    "districtCode": "S1815",
    "districtName": "Nuapada",
    "acNumber": 72,
    "acName": "Khariar",
    "partNumber": 101,
    "partName": "Bhimapadar",
    "lat": 20.2560977,
    "lon": 82.6427007
  },
  {
    "partId": 13558,
    "stateCode": "S18",
    "stateName": "Odisha",
    "districtCode": "S1815",
    "districtName": "Nuapada",
    "acNumber": 72,
    "acName": "Khariar",
    "partNumber": 102,
    "partName": "Mantritarai",
    "lat": 20.2223753,
    "lon": 82.6851225
  },
  {
    "partId": 13559,
    "stateCode": "S18",
    "stateName": "Odisha",
    "districtCode": "S1815",
    "districtName": "Nuapada",
    "acNumber": 72,
    "acName": "Khariar",
    "partNumber": 103,
    "partName": "Mantritarai Khurd",
    "lat": 20.2700878,
    "lon": 82.74788762720786
  },
  {
    "partId": 13560,
    "stateCode": "S18",
    "stateName": "Odisha",
    "districtCode": "S1815",
    "districtName": "Nuapada",
    "acNumber": 72,
    "acName": "Khariar",
    "partNumber": 104,
    "partName": "Rokal",
    "lat": 20.218323,
    "lon": 82.6403189
  },
  {
    "partId": 13561,
    "stateCode": "S18",
    "stateName": "Odisha",
    "districtCode": "S1815",
    "districtName": "Nuapada",
    "acNumber": 72,
    "acName": "Khariar",
    "partNumber": 105,
    "partName": "Tarapur",
    "lat": 20.208265,
    "lon": 82.6373148
  },
  {
    "partId": 13562,
    "stateCode": "S18",
    "stateName": "Odisha",
    "districtCode": "S1815",
    "districtName": "Nuapada",
    "acNumber": 72,
    "acName": "Khariar",
    "partNumber": 106,
    "partName": "Kamalamal",
    "lat": 20.224434,
    "lon": 82.6534214
  },
  {
    "partId": 13563,
    "stateCode": "S18",
    "stateName": "Odisha",
    "districtCode": "S1815",
    "districtName": "Nuapada",
    "acNumber": 72,
    "acName": "Khariar",
    "partNumber": 107,
    "partName": "Amaguda",
    "lat": 20.2700878,
    "lon": 82.74788762720786
  },
  {
    "partId": 13564,
    "stateCode": "S18",
    "stateName": "Odisha",
    "districtCode": "S1815",
    "districtName": "Nuapada",
    "acNumber": 72,
    "acName": "Khariar",
    "partNumber": 108,
    "partName": "Tetelpada",
    "lat": 20.655088,
    "lon": 82.5677571
  },
  {
    "partId": 13565,
    "stateCode": "S18",
    "stateName": "Odisha",
    "districtCode": "S1815",
    "districtName": "Nuapada",
    "acNumber": 72,
    "acName": "Khariar",
    "partNumber": 109,
    "partName": "Binopur",
    "lat": 20.2505189,
    "lon": 82.5845128
  },
  {
    "partId": 13566,
    "stateCode": "S18",
    "stateName": "Odisha",
    "districtCode": "S1815",
    "districtName": "Nuapada",
    "acNumber": 72,
    "acName": "Khariar",
    "partNumber": 110,
    "partName": "Boden",
    "lat": 20.2618075,
    "lon": 82.52096117777283
  },
  {
    "partId": 13567,
    "stateCode": "S18",
    "stateName": "Odisha",
    "districtCode": "S1815",
    "districtName": "Nuapada",
    "acNumber": 72,
    "acName": "Khariar",
    "partNumber": 111,
    "partName": "Boden",
    "lat": 20.2618075,
    "lon": 82.52096117777283
  },
  {
    "partId": 13568,
    "stateCode": "S18",
    "stateName": "Odisha",
    "districtCode": "S1815",
    "districtName": "Nuapada",
    "acNumber": 72,
    "acName": "Khariar",
    "partNumber": 112,
    "partName": "Kerapadar",
    "lat": 20.251525752640845,
    "lon": 82.6872931579397
  },
  {
    "partId": 13569,
    "stateCode": "S18",
    "stateName": "Odisha",
    "districtCode": "S1815",
    "districtName": "Nuapada",
    "acNumber": 72,
    "acName": "Khariar",
    "partNumber": 113,
    "partName": "Bireshkela",
    "lat": 20.251525752640845,
    "lon": 82.6872931579397
  },
  {
    "partId": 13570,
    "stateCode": "S18",
    "stateName": "Odisha",
    "districtCode": "S1815",
    "districtName": "Nuapada",
    "acNumber": 72,
    "acName": "Khariar",
    "partNumber": 114,
    "partName": "Kushumkhunta",
    "lat": 20.2700878,
    "lon": 82.74788762720786
  },
  {
    "partId": 13571,
    "stateCode": "S18",
    "stateName": "Odisha",
    "districtCode": "S1815",
    "districtName": "Nuapada",
    "acNumber": 72,
    "acName": "Khariar",
    "partNumber": 115,
    "partName": "Chikalachuan",
    "lat": 20.2700878,
    "lon": 82.74788762720786
  },
  {
    "partId": 13572,
    "stateCode": "S18",
    "stateName": "Odisha",
    "districtCode": "S1815",
    "districtName": "Nuapada",
    "acNumber": 72,
    "acName": "Khariar",
    "partNumber": 116,
    "partName": "Khadupani",
    "lat": 20.2122823,
    "lon": 82.4872291
  },
  {
    "partId": 13573,
    "stateCode": "S18",
    "stateName": "Odisha",
    "districtCode": "S1815",
    "districtName": "Nuapada",
    "acNumber": 72,
    "acName": "Khariar",
    "partNumber": 117,
    "partName": "Kathaphar",
    "lat": 20.2700878,
    "lon": 82.74788762720786
  },
  {
    "partId": 13574,
    "stateCode": "S18",
    "stateName": "Odisha",
    "districtCode": "S1815",
    "districtName": "Nuapada",
    "acNumber": 72,
    "acName": "Khariar",
    "partNumber": 118,
    "partName": "Boiragaon",
    "lat": 20.2700878,
    "lon": 82.74788762720786
  },
  {
    "partId": 13575,
    "stateCode": "S18",
    "stateName": "Odisha",
    "districtCode": "S1815",
    "districtName": "Nuapada",
    "acNumber": 72,
    "acName": "Khariar",
    "partNumber": 119,
    "partName": "Baglore",
    "lat": 20.2185093,
    "lon": 82.5125384
  },
  {
    "partId": 13576,
    "stateCode": "S18",
    "stateName": "Odisha",
    "districtCode": "S1815",
    "districtName": "Nuapada",
    "acNumber": 72,
    "acName": "Khariar",
    "partNumber": 120,
    "partName": "Nimna",
    "lat": 20.2331722,
    "lon": 82.5489789
  },
  {
    "partId": 13577,
    "stateCode": "S18",
    "stateName": "Odisha",
    "districtCode": "S1815",
    "districtName": "Nuapada",
    "acNumber": 72,
    "acName": "Khariar",
    "partNumber": 121,
    "partName": "Mahulpadar",
    "lat": 20.3028565,
    "lon": 82.5697258
  },
  {
    "partId": 13578,
    "stateCode": "S18",
    "stateName": "Odisha",
    "districtCode": "S1815",
    "districtName": "Nuapada",
    "acNumber": 72,
    "acName": "Khariar",
    "partNumber": 122,
    "partName": "Jamgaon",
    "lat": 20.1321243,
    "lon": 82.6470566
  },
  {
    "partId": 13579,
    "stateCode": "S18",
    "stateName": "Odisha",
    "districtCode": "S1815",
    "districtName": "Nuapada",
    "acNumber": 72,
    "acName": "Khariar",
    "partNumber": 123,
    "partName": "Litisargi",
    "lat": 20.1749904,
    "lon": 82.5836921
  },
  {
    "partId": 13580,
    "stateCode": "S18",
    "stateName": "Odisha",
    "districtCode": "S1815",
    "districtName": "Nuapada",
    "acNumber": 72,
    "acName": "Khariar",
    "partNumber": 124,
    "partName": "Ainlabhata",
    "lat": 20.1857504,
    "lon": 82.5915027
  },
  {
    "partId": 13581,
    "stateCode": "S18",
    "stateName": "Odisha",
    "districtCode": "S1815",
    "districtName": "Nuapada",
    "acNumber": 72,
    "acName": "Khariar",
    "partNumber": 125,
    "partName": "Farsara-I",
    "lat": 20.2179102,
    "lon": 82.5885415
  },
  {
    "partId": 13582,
    "stateCode": "S18",
    "stateName": "Odisha",
    "districtCode": "S1815",
    "districtName": "Nuapada",
    "acNumber": 72,
    "acName": "Khariar",
    "partNumber": 126,
    "partName": "Farsara-III",
    "lat": 20.2700878,
    "lon": 82.74788762720786
  },
  {
    "partId": 13583,
    "stateCode": "S18",
    "stateName": "Odisha",
    "districtCode": "S1815",
    "districtName": "Nuapada",
    "acNumber": 72,
    "acName": "Khariar",
    "partNumber": 127,
    "partName": "Farsara-II",
    "lat": 20.2700878,
    "lon": 82.74788762720786
  },
  {
    "partId": 13584,
    "stateCode": "S18",
    "stateName": "Odisha",
    "districtCode": "S1815",
    "districtName": "Nuapada",
    "acNumber": 72,
    "acName": "Khariar",
    "partNumber": 128,
    "partName": "Rajapur",
    "lat": 20.2700878,
    "lon": 82.74788762720786
  },
  {
    "partId": 13585,
    "stateCode": "S18",
    "stateName": "Odisha",
    "districtCode": "S1815",
    "districtName": "Nuapada",
    "acNumber": 72,
    "acName": "Khariar",
    "partNumber": 129,
    "partName": "Putupada",
    "lat": 20.2076559,
    "lon": 82.6108145
  },
  {
    "partId": 13586,
    "stateCode": "S18",
    "stateName": "Odisha",
    "districtCode": "S1815",
    "districtName": "Nuapada",
    "acNumber": 72,
    "acName": "Khariar",
    "partNumber": 130,
    "partName": "Bakulikhunti",
    "lat": 20.2210765,
    "lon": 82.6144302
  },
  {
    "partId": 13587,
    "stateCode": "S18",
    "stateName": "Odisha",
    "districtCode": "S1815",
    "districtName": "Nuapada",
    "acNumber": 72,
    "acName": "Khariar",
    "partNumber": 131,
    "partName": "Dotto",
    "lat": 20.1728655,
    "lon": 82.6371109
  },
  {
    "partId": 13588,
    "stateCode": "S18",
    "stateName": "Odisha",
    "districtCode": "S1815",
    "districtName": "Nuapada",
    "acNumber": 72,
    "acName": "Khariar",
    "partNumber": 132,
    "partName": "Lesunpali",
    "lat": 20.251525752640845,
    "lon": 82.6872931579397
  },
  {
    "partId": 13589,
    "stateCode": "S18",
    "stateName": "Odisha",
    "districtCode": "S1815",
    "districtName": "Nuapada",
    "acNumber": 72,
    "acName": "Khariar",
    "partNumber": 133,
    "partName": "Kulekela",
    "lat": 20.1740539,
    "lon": 82.6141217
  },
  {
    "partId": 13590,
    "stateCode": "S18",
    "stateName": "Odisha",
    "districtCode": "S1815",
    "districtName": "Nuapada",
    "acNumber": 72,
    "acName": "Khariar",
    "partNumber": 134,
    "partName": "Khiramal",
    "lat": 20.2700878,
    "lon": 82.74788762720786
  },
  {
    "partId": 13591,
    "stateCode": "S18",
    "stateName": "Odisha",
    "districtCode": "S1815",
    "districtName": "Nuapada",
    "acNumber": 72,
    "acName": "Khariar",
    "partNumber": 135,
    "partName": "Jayabahal",
    "lat": 20.2001849,
    "lon": 82.6401579
  },
  {
    "partId": 13592,
    "stateCode": "S18",
    "stateName": "Odisha",
    "districtCode": "S1815",
    "districtName": "Nuapada",
    "acNumber": 72,
    "acName": "Khariar",
    "partNumber": 136,
    "partName": "Larka",
    "lat": 20.1976526,
    "lon": 82.6685035
  },
  {
    "partId": 13593,
    "stateCode": "S18",
    "stateName": "Odisha",
    "districtCode": "S1815",
    "districtName": "Nuapada",
    "acNumber": 72,
    "acName": "Khariar",
    "partNumber": 137,
    "partName": "Ankapur",
    "lat": 20.1876486,
    "lon": 82.6623988
  },
  {
    "partId": 13594,
    "stateCode": "S18",
    "stateName": "Odisha",
    "districtCode": "S1815",
    "districtName": "Nuapada",
    "acNumber": 72,
    "acName": "Khariar",
    "partNumber": 138,
    "partName": "Kamapur",
    "lat": 20.2700878,
    "lon": 82.74788762720786
  },
  {
    "partId": 13595,
    "stateCode": "S18",
    "stateName": "Odisha",
    "districtCode": "S1815",
    "districtName": "Nuapada",
    "acNumber": 72,
    "acName": "Khariar",
    "partNumber": 139,
    "partName": "Khorla",
    "lat": 20.163147,
    "lon": 82.6561117
  },
  {
    "partId": 13596,
    "stateCode": "S18",
    "stateName": "Odisha",
    "districtCode": "S1815",
    "districtName": "Nuapada",
    "acNumber": 72,
    "acName": "Khariar",
    "partNumber": 140,
    "partName": "Sunarisikuan",
    "lat": 20.2700878,
    "lon": 82.74788762720786
  },
  {
    "partId": 13597,
    "stateCode": "S18",
    "stateName": "Odisha",
    "districtCode": "S1815",
    "districtName": "Nuapada",
    "acNumber": 72,
    "acName": "Khariar",
    "partNumber": 141,
    "partName": "Bhoirajpur",
    "lat": 20.2700878,
    "lon": 82.74788762720786
  },
  {
    "partId": 13598,
    "stateCode": "S18",
    "stateName": "Odisha",
    "districtCode": "S1815",
    "districtName": "Nuapada",
    "acNumber": 72,
    "acName": "Khariar",
    "partNumber": 142,
    "partName": "Dabri (Khariar)",
    "lat": 20.251525752640845,
    "lon": 82.6872931579397
  },
  {
    "partId": 13599,
    "stateCode": "S18",
    "stateName": "Odisha",
    "districtCode": "S1815",
    "districtName": "Nuapada",
    "acNumber": 72,
    "acName": "Khariar",
    "partNumber": 143,
    "partName": "Khamtarai",
    "lat": 20.2700878,
    "lon": 82.74788762720786
  },
  {
    "partId": 13600,
    "stateCode": "S18",
    "stateName": "Odisha",
    "districtCode": "S1815",
    "districtName": "Nuapada",
    "acNumber": 72,
    "acName": "Khariar",
    "partNumber": 144,
    "partName": "Samserpadar",
    "lat": 20.2149453,
    "lon": 82.7468294
  },
  {
    "partId": 13601,
    "stateCode": "S18",
    "stateName": "Odisha",
    "districtCode": "S1815",
    "districtName": "Nuapada",
    "acNumber": 72,
    "acName": "Khariar",
    "partNumber": 145,
    "partName": "Junapani",
    "lat": 20.5097063,
    "lon": 82.4310315
  },
  {
    "partId": 13602,
    "stateCode": "S18",
    "stateName": "Odisha",
    "districtCode": "S1815",
    "districtName": "Nuapada",
    "acNumber": 72,
    "acName": "Khariar",
    "partNumber": 146,
    "partName": "Duajhar-I",
    "lat": 20.2341336,
    "lon": 82.7483046
  },
  {
    "partId": 13603,
    "stateCode": "S18",
    "stateName": "Odisha",
    "districtCode": "S1815",
    "districtName": "Nuapada",
    "acNumber": 72,
    "acName": "Khariar",
    "partNumber": 147,
    "partName": "Duajhar-III",
    "lat": 20.2700878,
    "lon": 82.74788762720786
  },
  {
    "partId": 13604,
    "stateCode": "S18",
    "stateName": "Odisha",
    "districtCode": "S1815",
    "districtName": "Nuapada",
    "acNumber": 72,
    "acName": "Khariar",
    "partNumber": 148,
    "partName": "Gudabheli",
    "lat": 20.251525752640845,
    "lon": 82.6872931579397
  },
  {
    "partId": 13605,
    "stateCode": "S18",
    "stateName": "Odisha",
    "districtCode": "S1815",
    "districtName": "Nuapada",
    "acNumber": 72,
    "acName": "Khariar",
    "partNumber": 149,
    "partName": "Duajhar-II",
    "lat": 20.2341336,
    "lon": 82.7483046
  },
  {
    "partId": 13606,
    "stateCode": "S18",
    "stateName": "Odisha",
    "districtCode": "S1815",
    "districtName": "Nuapada",
    "acNumber": 72,
    "acName": "Khariar",
    "partNumber": 150,
    "partName": "Duajhar-4",
    "lat": 20.2341336,
    "lon": 82.7483046
  },
  {
    "partId": 13607,
    "stateCode": "S18",
    "stateName": "Odisha",
    "districtCode": "S1815",
    "districtName": "Nuapada",
    "acNumber": 72,
    "acName": "Khariar",
    "partNumber": 151,
    "partName": "Birighat-I",
    "lat": 20.2586341,
    "lon": 82.7254495
  },
  {
    "partId": 13608,
    "stateCode": "S18",
    "stateName": "Odisha",
    "districtCode": "S1815",
    "districtName": "Nuapada",
    "acNumber": 72,
    "acName": "Khariar",
    "partNumber": 152,
    "partName": "Birighat-II",
    "lat": 20.2586341,
    "lon": 82.7254495
  },
  {
    "partId": 13609,
    "stateCode": "S18",
    "stateName": "Odisha",
    "districtCode": "S1815",
    "districtName": "Nuapada",
    "acNumber": 72,
    "acName": "Khariar",
    "partNumber": 153,
    "partName": "Bhaludongri",
    "lat": 20.2410493,
    "lon": 82.7339119
  },
  {
    "partId": 13610,
    "stateCode": "S18",
    "stateName": "Odisha",
    "districtCode": "S1815",
    "districtName": "Nuapada",
    "acNumber": 72,
    "acName": "Khariar",
    "partNumber": 154,
    "partName": "Goddhuapadar",
    "lat": 20.251525752640845,
    "lon": 82.6872931579397
  },
  {
    "partId": 13611,
    "stateCode": "S18",
    "stateName": "Odisha",
    "districtCode": "S1815",
    "districtName": "Nuapada",
    "acNumber": 72,
    "acName": "Khariar",
    "partNumber": 155,
    "partName": "Chicher",
    "lat": 20.2639384,
    "lon": 82.7572417
  },
  {
    "partId": 13612,
    "stateCode": "S18",
    "stateName": "Odisha",
    "districtCode": "S1815",
    "districtName": "Nuapada",
    "acNumber": 72,
    "acName": "Khariar",
    "partNumber": 156,
    "partName": "Bichhanapali",
    "lat": 20.2472198,
    "lon": 82.7627563
  },
  {
    "partId": 13613,
    "stateCode": "S18",
    "stateName": "Odisha",
    "districtCode": "S1815",
    "districtName": "Nuapada",
    "acNumber": 72,
    "acName": "Khariar",
    "partNumber": 157,
    "partName": "Nehena",
    "lat": 20.2586543,
    "lon": 82.7692794
  },
  {
    "partId": 13614,
    "stateCode": "S18",
    "stateName": "Odisha",
    "districtCode": "S1815",
    "districtName": "Nuapada",
    "acNumber": 72,
    "acName": "Khariar",
    "partNumber": 158,
    "partName": "Lachhipur",
    "lat": 20.2702489,
    "lon": 82.7934837
  },
  {
    "partId": 13615,
    "stateCode": "S18",
    "stateName": "Odisha",
    "districtCode": "S1815",
    "districtName": "Nuapada",
    "acNumber": 72,
    "acName": "Khariar",
    "partNumber": 159,
    "partName": "Sandohel",
    "lat": 20.2662633,
    "lon": 82.7800941
  },
  {
    "partId": 13616,
    "stateCode": "S18",
    "stateName": "Odisha",
    "districtCode": "S1815",
    "districtName": "Nuapada",
    "acNumber": 72,
    "acName": "Khariar",
    "partNumber": 160,
    "partName": "Ranipur",
    "lat": 20.2766497,
    "lon": 82.7758241
  },
  {
    "partId": 13617,
    "stateCode": "S18",
    "stateName": "Odisha",
    "districtCode": "S1815",
    "districtName": "Nuapada",
    "acNumber": 72,
    "acName": "Khariar",
    "partNumber": 161,
    "partName": "Badadohel",
    "lat": 20.2591273,
    "lon": 82.7980435
  },
  {
    "partId": 13618,
    "stateCode": "S18",
    "stateName": "Odisha",
    "districtCode": "S1815",
    "districtName": "Nuapada",
    "acNumber": 72,
    "acName": "Khariar",
    "partNumber": 162,
    "partName": "Pakhansar",
    "lat": 20.2535209,
    "lon": 82.8066802
  },
  {
    "partId": 13619,
    "stateCode": "S18",
    "stateName": "Odisha",
    "districtCode": "S1815",
    "districtName": "Nuapada",
    "acNumber": 72,
    "acName": "Khariar",
    "partNumber": 163,
    "partName": "Sargadi",
    "lat": 20.2775554,
    "lon": 82.8045773
  },
  {
    "partId": 13620,
    "stateCode": "S18",
    "stateName": "Odisha",
    "districtCode": "S1815",
    "districtName": "Nuapada",
    "acNumber": 72,
    "acName": "Khariar",
    "partNumber": 164,
    "partName": "Risgaon",
    "lat": 20.2653575,
    "lon": 82.8203058
  },
  {
    "partId": 13621,
    "stateCode": "S18",
    "stateName": "Odisha",
    "districtCode": "S1815",
    "districtName": "Nuapada",
    "acNumber": 72,
    "acName": "Khariar",
    "partNumber": 165,
    "partName": "Tukula-I",
    "lat": 20.2667062,
    "lon": 82.8381156
  },
  {
    "partId": 13622,
    "stateCode": "S18",
    "stateName": "Odisha",
    "districtCode": "S1815",
    "districtName": "Nuapada",
    "acNumber": 72,
    "acName": "Khariar",
    "partNumber": 166,
    "partName": "Tukula-IV",
    "lat": 20.2700878,
    "lon": 82.74788762720786
  },
  {
    "partId": 13623,
    "stateCode": "S18",
    "stateName": "Odisha",
    "districtCode": "S1815",
    "districtName": "Nuapada",
    "acNumber": 72,
    "acName": "Khariar",
    "partNumber": 167,
    "partName": "Tukula-II",
    "lat": 20.2667062,
    "lon": 82.8381156
  },
  {
    "partId": 13624,
    "stateCode": "S18",
    "stateName": "Odisha",
    "districtCode": "S1815",
    "districtName": "Nuapada",
    "acNumber": 72,
    "acName": "Khariar",
    "partNumber": 168,
    "partName": "Tukula-V",
    "lat": 20.2667062,
    "lon": 82.8381156
  },
  {
    "partId": 13625,
    "stateCode": "S18",
    "stateName": "Odisha",
    "districtCode": "S1815",
    "districtName": "Nuapada",
    "acNumber": 72,
    "acName": "Khariar",
    "partNumber": 169,
    "partName": "Tukula-III",
    "lat": 20.2700878,
    "lon": 82.74788762720786
  },
  {
    "partId": 13626,
    "stateCode": "S18",
    "stateName": "Odisha",
    "districtCode": "S1815",
    "districtName": "Nuapada",
    "acNumber": 72,
    "acName": "Khariar",
    "partNumber": 170,
    "partName": "Tukula-6",
    "lat": 20.2667062,
    "lon": 82.8381156
  },
  {
    "partId": 13627,
    "stateCode": "S18",
    "stateName": "Odisha",
    "districtCode": "S1815",
    "districtName": "Nuapada",
    "acNumber": 72,
    "acName": "Khariar",
    "partNumber": 171,
    "partName": "Chandel",
    "lat": 20.251525752640845,
    "lon": 82.6872931579397
  },
  {
    "partId": 13628,
    "stateCode": "S18",
    "stateName": "Odisha",
    "districtCode": "S1815",
    "districtName": "Nuapada",
    "acNumber": 72,
    "acName": "Khariar",
    "partNumber": 172,
    "partName": "Anchalpur",
    "lat": 20.2410795,
    "lon": 82.7999639
  },
  {
    "partId": 13629,
    "stateCode": "S18",
    "stateName": "Odisha",
    "districtCode": "S1815",
    "districtName": "Nuapada",
    "acNumber": 72,
    "acName": "Khariar",
    "partNumber": 173,
    "partName": "Chandagiri",
    "lat": 20.2496155,
    "lon": 82.8213787
  },
  {
    "partId": 13630,
    "stateCode": "S18",
    "stateName": "Odisha",
    "districtCode": "S1815",
    "districtName": "Nuapada",
    "acNumber": 72,
    "acName": "Khariar",
    "partNumber": 174,
    "partName": "Godatola",
    "lat": 20.2700878,
    "lon": 82.74788762720786
  },
  {
    "partId": 13631,
    "stateCode": "S18",
    "stateName": "Odisha",
    "districtCode": "S1815",
    "districtName": "Nuapada",
    "acNumber": 72,
    "acName": "Khariar",
    "partNumber": 175,
    "partName": "Bankapur",
    "lat": 20.2230196,
    "lon": 82.8494882
  },
  {
    "partId": 13632,
    "stateCode": "S18",
    "stateName": "Odisha",
    "districtCode": "S1815",
    "districtName": "Nuapada",
    "acNumber": 72,
    "acName": "Khariar",
    "partNumber": 176,
    "partName": "Duhelpada",
    "lat": 20.2700878,
    "lon": 82.74788762720786
  },
  {
    "partId": 13633,
    "stateCode": "S18",
    "stateName": "Odisha",
    "districtCode": "S1815",
    "districtName": "Nuapada",
    "acNumber": 72,
    "acName": "Khariar",
    "partNumber": 177,
    "partName": "Chacharabhata",
    "lat": 20.0852763,
    "lon": 82.7159089
  },
  {
    "partId": 13634,
    "stateCode": "S18",
    "stateName": "Odisha",
    "districtCode": "S1815",
    "districtName": "Nuapada",
    "acNumber": 72,
    "acName": "Khariar",
    "partNumber": 178,
    "partName": "Khairbhadi",
    "lat": 20.5689926,
    "lon": 82.6227987
  },
  {
    "partId": 13635,
    "stateCode": "S18",
    "stateName": "Odisha",
    "districtCode": "S1815",
    "districtName": "Nuapada",
    "acNumber": 72,
    "acName": "Khariar",
    "partNumber": 179,
    "partName": "Khasbahal",
    "lat": 20.2213282,
    "lon": 82.8293824
  },
  {
    "partId": 13636,
    "stateCode": "S18",
    "stateName": "Odisha",
    "districtCode": "S1815",
    "districtName": "Nuapada",
    "acNumber": 72,
    "acName": "Khariar",
    "partNumber": 180,
    "partName": "Dhanksar",
    "lat": 20.2373952,
    "lon": 82.7778411
  },
  {
    "partId": 13637,
    "stateCode": "S18",
    "stateName": "Odisha",
    "districtCode": "S1815",
    "districtName": "Nuapada",
    "acNumber": 72,
    "acName": "Khariar",
    "partNumber": 181,
    "partName": "Sardhapur",
    "lat": 20.9709772,
    "lon": 82.620964
  },
  {
    "partId": 13638,
    "stateCode": "S18",
    "stateName": "Odisha",
    "districtCode": "S1815",
    "districtName": "Nuapada",
    "acNumber": 72,
    "acName": "Khariar",
    "partNumber": 182,
    "partName": "Ranimunda-I",
    "lat": 20.1654886,
    "lon": 82.580409
  },
  {
    "partId": 13639,
    "stateCode": "S18",
    "stateName": "Odisha",
    "districtCode": "S1815",
    "districtName": "Nuapada",
    "acNumber": 72,
    "acName": "Khariar",
    "partNumber": 183,
    "partName": "Ranimunda-III",
    "lat": 20.2700878,
    "lon": 82.74788762720786
  },
  {
    "partId": 13640,
    "stateCode": "S18",
    "stateName": "Odisha",
    "districtCode": "S1815",
    "districtName": "Nuapada",
    "acNumber": 72,
    "acName": "Khariar",
    "partNumber": 184,
    "partName": "Ranimunda-II",
    "lat": 20.1654886,
    "lon": 82.580409
  },
  {
    "partId": 13641,
    "stateCode": "S18",
    "stateName": "Odisha",
    "districtCode": "S1815",
    "districtName": "Nuapada",
    "acNumber": 72,
    "acName": "Khariar",
    "partNumber": 185,
    "partName": "Kotamal-I",
    "lat": 20.251525752640845,
    "lon": 82.6872931579397
  },
  {
    "partId": 13642,
    "stateCode": "S18",
    "stateName": "Odisha",
    "districtCode": "S1815",
    "districtName": "Nuapada",
    "acNumber": 72,
    "acName": "Khariar",
    "partNumber": 186,
    "partName": "Kotamal-II",
    "lat": 20.1925726,
    "lon": 82.7686357
  },
  {
    "partId": 13643,
    "stateCode": "S18",
    "stateName": "Odisha",
    "districtCode": "S1815",
    "districtName": "Nuapada",
    "acNumber": 72,
    "acName": "Khariar",
    "partNumber": 187,
    "partName": "Mahulkote",
    "lat": 20.2019772,
    "lon": 82.7493238
  },
  {
    "partId": 13644,
    "stateCode": "S18",
    "stateName": "Odisha",
    "districtCode": "S1815",
    "districtName": "Nuapada",
    "acNumber": 72,
    "acName": "Khariar",
    "partNumber": 188,
    "partName": "Kirkita",
    "lat": 20.1545207,
    "lon": 82.7208495
  },
  {
    "partId": 13645,
    "stateCode": "S18",
    "stateName": "Odisha",
    "districtCode": "S1815",
    "districtName": "Nuapada",
    "acNumber": 72,
    "acName": "Khariar",
    "partNumber": 189,
    "partName": "Gandabahali-I",
    "lat": 20.1341389,
    "lon": 82.6924395
  },
  {
    "partId": 13646,
    "stateCode": "S18",
    "stateName": "Odisha",
    "districtCode": "S1815",
    "districtName": "Nuapada",
    "acNumber": 72,
    "acName": "Khariar",
    "partNumber": 190,
    "partName": "Gandabahali-II",
    "lat": 20.1341389,
    "lon": 82.6924395
  },
  {
    "partId": 13647,
    "stateCode": "S18",
    "stateName": "Odisha",
    "districtCode": "S1815",
    "districtName": "Nuapada",
    "acNumber": 72,
    "acName": "Khariar",
    "partNumber": 191,
    "partName": "Gambhariguda-I",
    "lat": 20.1450679,
    "lon": 82.6805413
  },
  {
    "partId": 13648,
    "stateCode": "S18",
    "stateName": "Odisha",
    "districtCode": "S1815",
    "districtName": "Nuapada",
    "acNumber": 72,
    "acName": "Khariar",
    "partNumber": 192,
    "partName": "Gambhariguda-II",
    "lat": 20.1450679,
    "lon": 82.6805413
  },
  {
    "partId": 13649,
    "stateCode": "S18",
    "stateName": "Odisha",
    "districtCode": "S1815",
    "districtName": "Nuapada",
    "acNumber": 72,
    "acName": "Khariar",
    "partNumber": 193,
    "partName": "Botopali",
    "lat": 20.1320135,
    "lon": 82.6760405
  },
  {
    "partId": 13650,
    "stateCode": "S18",
    "stateName": "Odisha",
    "districtCode": "S1815",
    "districtName": "Nuapada",
    "acNumber": 72,
    "acName": "Khariar",
    "partNumber": 194,
    "partName": "Karangamal",
    "lat": 20.154702,
    "lon": 82.6308024
  },
  {
    "partId": 13651,
    "stateCode": "S18",
    "stateName": "Odisha",
    "districtCode": "S1815",
    "districtName": "Nuapada",
    "acNumber": 72,
    "acName": "Khariar",
    "partNumber": 195,
    "partName": "Kulingamal",
    "lat": 20.1403036,
    "lon": 82.6597166
  },
  {
    "partId": 13652,
    "stateCode": "S18",
    "stateName": "Odisha",
    "districtCode": "S1815",
    "districtName": "Nuapada",
    "acNumber": 72,
    "acName": "Khariar",
    "partNumber": 196,
    "partName": "Babebir-I",
    "lat": 20.1451385,
    "lon": 82.6159858
  },
  {
    "partId": 13653,
    "stateCode": "S18",
    "stateName": "Odisha",
    "districtCode": "S1815",
    "districtName": "Nuapada",
    "acNumber": 72,
    "acName": "Khariar",
    "partNumber": 197,
    "partName": "Babebir-II",
    "lat": 20.1451385,
    "lon": 82.6159858
  },
  {
    "partId": 13654,
    "stateCode": "S18",
    "stateName": "Odisha",
    "districtCode": "S1815",
    "districtName": "Nuapada",
    "acNumber": 72,
    "acName": "Khariar",
    "partNumber": 198,
    "partName": "Dharanimal",
    "lat": 20.2700878,
    "lon": 82.74788762720786
  },
  {
    "partId": 13655,
    "stateCode": "S18",
    "stateName": "Odisha",
    "districtCode": "S1815",
    "districtName": "Nuapada",
    "acNumber": 72,
    "acName": "Khariar",
    "partNumber": 199,
    "partName": "Khairbhadi",
    "lat": 20.2700878,
    "lon": 82.74788762720786
  },
  {
    "partId": 13656,
    "stateCode": "S18",
    "stateName": "Odisha",
    "districtCode": "S1815",
    "districtName": "Nuapada",
    "acNumber": 72,
    "acName": "Khariar",
    "partNumber": 200,
    "partName": "Dahanapali",
    "lat": 20.1660072,
    "lon": 82.5972318
  },
  {
    "partId": 13657,
    "stateCode": "S18",
    "stateName": "Odisha",
    "districtCode": "S1815",
    "districtName": "Nuapada",
    "acNumber": 72,
    "acName": "Khariar",
    "partNumber": 201,
    "partName": "Timanpur",
    "lat": 20.1377702,
    "lon": 82.5750232
  },
  {
    "partId": 13658,
    "stateCode": "S18",
    "stateName": "Odisha",
    "districtCode": "S1815",
    "districtName": "Nuapada",
    "acNumber": 72,
    "acName": "Khariar",
    "partNumber": 202,
    "partName": "Khiprimal",
    "lat": 20.1231361,
    "lon": 82.54951
  },
  {
    "partId": 13659,
    "stateCode": "S18",
    "stateName": "Odisha",
    "districtCode": "S1815",
    "districtName": "Nuapada",
    "acNumber": 72,
    "acName": "Khariar",
    "partNumber": 203,
    "partName": "Ranimunda-1",
    "lat": 20.1654886,
    "lon": 82.580409
  },
  {
    "partId": 13660,
    "stateCode": "S18",
    "stateName": "Odisha",
    "districtCode": "S1815",
    "districtName": "Nuapada",
    "acNumber": 72,
    "acName": "Khariar",
    "partNumber": 204,
    "partName": "Ranimunda-2",
    "lat": 20.1654886,
    "lon": 82.580409
  },
  {
    "partId": 13661,
    "stateCode": "S18",
    "stateName": "Odisha",
    "districtCode": "S1815",
    "districtName": "Nuapada",
    "acNumber": 72,
    "acName": "Khariar",
    "partNumber": 205,
    "partName": "Hirapur",
    "lat": 20.1468709,
    "lon": 82.5533402
  },
  {
    "partId": 13662,
    "stateCode": "S18",
    "stateName": "Odisha",
    "districtCode": "S1815",
    "districtName": "Nuapada",
    "acNumber": 72,
    "acName": "Khariar",
    "partNumber": 206,
    "partName": "Mandiarucha",
    "lat": 20.1553264,
    "lon": 82.5509047
  },
  {
    "partId": 13663,
    "stateCode": "S18",
    "stateName": "Odisha",
    "districtCode": "S1815",
    "districtName": "Nuapada",
    "acNumber": 72,
    "acName": "Khariar",
    "partNumber": 207,
    "partName": "Gobindpur",
    "lat": 20.1476968,
    "lon": 82.5363564
  },
  {
    "partId": 13664,
    "stateCode": "S18",
    "stateName": "Odisha",
    "districtCode": "S1815",
    "districtName": "Nuapada",
    "acNumber": 72,
    "acName": "Khariar",
    "partNumber": 208,
    "partName": "Malpada",
    "lat": 20.114505,
    "lon": 82.7548814
  },
  {
    "partId": 13665,
    "stateCode": "S18",
    "stateName": "Odisha",
    "districtCode": "S1815",
    "districtName": "Nuapada",
    "acNumber": 72,
    "acName": "Khariar",
    "partNumber": 209,
    "partName": "Maheswar",
    "lat": 20.1595666,
    "lon": 82.5378638
  },
  {
    "partId": 13666,
    "stateCode": "S18",
    "stateName": "Odisha",
    "districtCode": "S1815",
    "districtName": "Nuapada",
    "acNumber": 72,
    "acName": "Khariar",
    "partNumber": 210,
    "partName": "Gorla",
    "lat": 20.251525752640845,
    "lon": 82.6872931579397
  },
  {
    "partId": 13667,
    "stateCode": "S18",
    "stateName": "Odisha",
    "districtCode": "S1815",
    "districtName": "Nuapada",
    "acNumber": 72,
    "acName": "Khariar",
    "partNumber": 211,
    "partName": "Kusumkhunta",
    "lat": 20.1282913,
    "lon": 82.5171786
  },
  {
    "partId": 13668,
    "stateCode": "S18",
    "stateName": "Odisha",
    "districtCode": "S1815",
    "districtName": "Nuapada",
    "acNumber": 72,
    "acName": "Khariar",
    "partNumber": 212,
    "partName": "Kharsel",
    "lat": 20.1184542,
    "lon": 82.5788426
  },
  {
    "partId": 13669,
    "stateCode": "S18",
    "stateName": "Odisha",
    "districtCode": "S1815",
    "districtName": "Nuapada",
    "acNumber": 72,
    "acName": "Khariar",
    "partNumber": 213,
    "partName": "Karlakhamar",
    "lat": 20.251525752640845,
    "lon": 82.6872931579397
  },
  {
    "partId": 13670,
    "stateCode": "S18",
    "stateName": "Odisha",
    "districtCode": "S1815",
    "districtName": "Nuapada",
    "acNumber": 72,
    "acName": "Khariar",
    "partNumber": 214,
    "partName": "Rebdi",
    "lat": 20.2700878,
    "lon": 82.74788762720786
  },
  {
    "partId": 13671,
    "stateCode": "S18",
    "stateName": "Odisha",
    "districtCode": "S1815",
    "districtName": "Nuapada",
    "acNumber": 72,
    "acName": "Khariar",
    "partNumber": 215,
    "partName": "Baigapada",
    "lat": 20.2700878,
    "lon": 82.74788762720786
  },
  {
    "partId": 13672,
    "stateCode": "S18",
    "stateName": "Odisha",
    "districtCode": "S1815",
    "districtName": "Nuapada",
    "acNumber": 72,
    "acName": "Khariar",
    "partNumber": 216,
    "partName": "Nilji-1",
    "lat": 20.102254,
    "lon": 82.5936216
  },
  {
    "partId": 13673,
    "stateCode": "S18",
    "stateName": "Odisha",
    "districtCode": "S1815",
    "districtName": "Nuapada",
    "acNumber": 72,
    "acName": "Khariar",
    "partNumber": 217,
    "partName": "Nilji-2",
    "lat": 20.102254,
    "lon": 82.5936216
  },
  {
    "partId": 13674,
    "stateCode": "S18",
    "stateName": "Odisha",
    "districtCode": "S1815",
    "districtName": "Nuapada",
    "acNumber": 72,
    "acName": "Khariar",
    "partNumber": 218,
    "partName": "Gadaramal",
    "lat": 20.2700878,
    "lon": 82.74788762720786
  },
  {
    "partId": 13675,
    "stateCode": "S18",
    "stateName": "Odisha",
    "districtCode": "S1815",
    "districtName": "Nuapada",
    "acNumber": 72,
    "acName": "Khariar",
    "partNumber": 219,
    "partName": "Chatiaguda-I",
    "lat": 20.1063042,
    "lon": 82.6197249
  },
  {
    "partId": 13676,
    "stateCode": "S18",
    "stateName": "Odisha",
    "districtCode": "S1815",
    "districtName": "Nuapada",
    "acNumber": 72,
    "acName": "Khariar",
    "partNumber": 220,
    "partName": "Chatiaguda-II",
    "lat": 20.1063042,
    "lon": 82.6197249
  },
  {
    "partId": 13677,
    "stateCode": "S18",
    "stateName": "Odisha",
    "districtCode": "S1815",
    "districtName": "Nuapada",
    "acNumber": 72,
    "acName": "Khariar",
    "partNumber": 221,
    "partName": "Bartansil",
    "lat": 20.2700878,
    "lon": 82.74788762720786
  },
  {
    "partId": 13678,
    "stateCode": "S18",
    "stateName": "Odisha",
    "districtCode": "S1815",
    "districtName": "Nuapada",
    "acNumber": 72,
    "acName": "Khariar",
    "partNumber": 222,
    "partName": "Sagunbhadi",
    "lat": 20.1105004,
    "lon": 82.6336509
  },
  {
    "partId": 13679,
    "stateCode": "S18",
    "stateName": "Odisha",
    "districtCode": "S1815",
    "districtName": "Nuapada",
    "acNumber": 72,
    "acName": "Khariar",
    "partNumber": 223,
    "partName": "Bargaon-I",
    "lat": 20.1215066,
    "lon": 82.6794362
  },
  {
    "partId": 13680,
    "stateCode": "S18",
    "stateName": "Odisha",
    "districtCode": "S1815",
    "districtName": "Nuapada",
    "acNumber": 72,
    "acName": "Khariar",
    "partNumber": 224,
    "partName": "Bargaon-II",
    "lat": 20.1215066,
    "lon": 82.6794362
  },
  {
    "partId": 13681,
    "stateCode": "S18",
    "stateName": "Odisha",
    "districtCode": "S1815",
    "districtName": "Nuapada",
    "acNumber": 72,
    "acName": "Khariar",
    "partNumber": 225,
    "partName": "Jamgaon",
    "lat": 20.1321243,
    "lon": 82.6470566
  },
  {
    "partId": 13682,
    "stateCode": "S18",
    "stateName": "Odisha",
    "districtCode": "S1815",
    "districtName": "Nuapada",
    "acNumber": 72,
    "acName": "Khariar",
    "partNumber": 226,
    "partName": "Salekela",
    "lat": 20.1095685,
    "lon": 82.6514447
  },
  {
    "partId": 13683,
    "stateCode": "S18",
    "stateName": "Odisha",
    "districtCode": "S1815",
    "districtName": "Nuapada",
    "acNumber": 72,
    "acName": "Khariar",
    "partNumber": 227,
    "partName": "Kanetghatmal",
    "lat": 20.2700878,
    "lon": 82.74788762720786
  },
  {
    "partId": 13684,
    "stateCode": "S18",
    "stateName": "Odisha",
    "districtCode": "S1815",
    "districtName": "Nuapada",
    "acNumber": 72,
    "acName": "Khariar",
    "partNumber": 228,
    "partName": "Jogbhata",
    "lat": 20.1724728,
    "lon": 82.4906945
  },
  {
    "partId": 13685,
    "stateCode": "S18",
    "stateName": "Odisha",
    "districtCode": "S1815",
    "districtName": "Nuapada",
    "acNumber": 72,
    "acName": "Khariar",
    "partNumber": 229,
    "partName": "Talakote",
    "lat": 20.251525752640845,
    "lon": 82.6872931579397
  },
  {
    "partId": 13686,
    "stateCode": "S18",
    "stateName": "Odisha",
    "districtCode": "S1815",
    "districtName": "Nuapada",
    "acNumber": 72,
    "acName": "Khariar",
    "partNumber": 230,
    "partName": "Khairbhadi",
    "lat": 20.5689926,
    "lon": 82.6227987
  },
  {
    "partId": 13687,
    "stateCode": "S18",
    "stateName": "Odisha",
    "districtCode": "S1815",
    "districtName": "Nuapada",
    "acNumber": 72,
    "acName": "Khariar",
    "partNumber": 231,
    "partName": "Badadarlipada",
    "lat": 20.2700878,
    "lon": 82.74788762720786
  },
  {
    "partId": 13688,
    "stateCode": "S18",
    "stateName": "Odisha",
    "districtCode": "S1815",
    "districtName": "Nuapada",
    "acNumber": 72,
    "acName": "Khariar",
    "partNumber": 232,
    "partName": "Fulchi",
    "lat": 20.0907174,
    "lon": 82.5083917
  },
  {
    "partId": 13689,
    "stateCode": "S18",
    "stateName": "Odisha",
    "districtCode": "S1815",
    "districtName": "Nuapada",
    "acNumber": 72,
    "acName": "Khariar",
    "partNumber": 233,
    "partName": "Jampani",
    "lat": 20.8770975,
    "lon": 82.667377
  },
  {
    "partId": 13690,
    "stateCode": "S18",
    "stateName": "Odisha",
    "districtCode": "S1815",
    "districtName": "Nuapada",
    "acNumber": 72,
    "acName": "Khariar",
    "partNumber": 234,
    "partName": "Fursund",
    "lat": 20.2700878,
    "lon": 82.74788762720786
  },
  {
    "partId": 13691,
    "stateCode": "S18",
    "stateName": "Odisha",
    "districtCode": "S1815",
    "districtName": "Nuapada",
    "acNumber": 72,
    "acName": "Khariar",
    "partNumber": 235,
    "partName": "Ghuchaguda",
    "lat": 20.0866668,
    "lon": 82.5897646
  },
  {
    "partId": 13692,
    "stateCode": "S18",
    "stateName": "Odisha",
    "districtCode": "S1815",
    "districtName": "Nuapada",
    "acNumber": 72,
    "acName": "Khariar",
    "partNumber": 236,
    "partName": "Kaintpadar",
    "lat": 20.2700878,
    "lon": 82.74788762720786
  },
  {
    "partId": 13693,
    "stateCode": "S18",
    "stateName": "Odisha",
    "districtCode": "S1815",
    "districtName": "Nuapada",
    "acNumber": 72,
    "acName": "Khariar",
    "partNumber": 237,
    "partName": "Palasapada-I",
    "lat": 20.0911205,
    "lon": 82.6258832
  },
  {
    "partId": 13694,
    "stateCode": "S18",
    "stateName": "Odisha",
    "districtCode": "S1815",
    "districtName": "Nuapada",
    "acNumber": 72,
    "acName": "Khariar",
    "partNumber": 238,
    "partName": "Palasapada-II",
    "lat": 20.0911205,
    "lon": 82.6258832
  },
  {
    "partId": 13695,
    "stateCode": "S18",
    "stateName": "Odisha",
    "districtCode": "S1815",
    "districtName": "Nuapada",
    "acNumber": 72,
    "acName": "Khariar",
    "partNumber": 239,
    "partName": "Jugenpadar",
    "lat": 20.2700878,
    "lon": 82.74788762720786
  },
  {
    "partId": 13696,
    "stateCode": "S18",
    "stateName": "Odisha",
    "districtCode": "S1815",
    "districtName": "Nuapada",
    "acNumber": 72,
    "acName": "Khariar",
    "partNumber": 240,
    "partName": "Sinapali-I",
    "lat": 20.0983773,
    "lon": 82.64757
  },
  {
    "partId": 13697,
    "stateCode": "S18",
    "stateName": "Odisha",
    "districtCode": "S1815",
    "districtName": "Nuapada",
    "acNumber": 72,
    "acName": "Khariar",
    "partNumber": 241,
    "partName": "Sinapali-II",
    "lat": 20.0983773,
    "lon": 82.64757
  },
  {
    "partId": 13698,
    "stateCode": "S18",
    "stateName": "Odisha",
    "districtCode": "S1815",
    "districtName": "Nuapada",
    "acNumber": 72,
    "acName": "Khariar",
    "partNumber": 242,
    "partName": "Sinapali-V",
    "lat": 20.0983773,
    "lon": 82.64757
  },
  {
    "partId": 13699,
    "stateCode": "S18",
    "stateName": "Odisha",
    "districtCode": "S1815",
    "districtName": "Nuapada",
    "acNumber": 72,
    "acName": "Khariar",
    "partNumber": 243,
    "partName": "Sinapali-III",
    "lat": 20.2700878,
    "lon": 82.74788762720786
  },
  {
    "partId": 13700,
    "stateCode": "S18",
    "stateName": "Odisha",
    "districtCode": "S1815",
    "districtName": "Nuapada",
    "acNumber": 72,
    "acName": "Khariar",
    "partNumber": 244,
    "partName": "Sinapali-IV",
    "lat": 20.2700878,
    "lon": 82.74788762720786
  },
  {
    "partId": 13701,
    "stateCode": "S18",
    "stateName": "Odisha",
    "districtCode": "S1815",
    "districtName": "Nuapada",
    "acNumber": 72,
    "acName": "Khariar",
    "partNumber": 245,
    "partName": "Kapsi",
    "lat": 20.251525752640845,
    "lon": 82.6872931579397
  },
  {
    "partId": 13702,
    "stateCode": "S18",
    "stateName": "Odisha",
    "districtCode": "S1815",
    "districtName": "Nuapada",
    "acNumber": 72,
    "acName": "Khariar",
    "partNumber": 246,
    "partName": "Saradhapur",
    "lat": 20.2700878,
    "lon": 82.74788762720786
  },
  {
    "partId": 13703,
    "stateCode": "S18",
    "stateName": "Odisha",
    "districtCode": "S1815",
    "districtName": "Nuapada",
    "acNumber": 72,
    "acName": "Khariar",
    "partNumber": 247,
    "partName": "Ghantiguda",
    "lat": 20.2080083,
    "lon": 82.5806773
  },
  {
    "partId": 13704,
    "stateCode": "S18",
    "stateName": "Odisha",
    "districtCode": "S1815",
    "districtName": "Nuapada",
    "acNumber": 72,
    "acName": "Khariar",
    "partNumber": 248,
    "partName": "Nandigaon",
    "lat": 20.251525752640845,
    "lon": 82.6872931579397
  },
  {
    "partId": 13705,
    "stateCode": "S18",
    "stateName": "Odisha",
    "districtCode": "S1815",
    "districtName": "Nuapada",
    "acNumber": 72,
    "acName": "Khariar",
    "partNumber": 249,
    "partName": "Kopia-I",
    "lat": 20.1204893,
    "lon": 82.7257092
  },
  {
    "partId": 13706,
    "stateCode": "S18",
    "stateName": "Odisha",
    "districtCode": "S1815",
    "districtName": "Nuapada",
    "acNumber": 72,
    "acName": "Khariar",
    "partNumber": 250,
    "partName": "Kopia-II",
    "lat": 20.1204893,
    "lon": 82.7257092
  },
  {
    "partId": 13707,
    "stateCode": "S18",
    "stateName": "Odisha",
    "districtCode": "S1815",
    "districtName": "Nuapada",
    "acNumber": 72,
    "acName": "Khariar",
    "partNumber": 251,
    "partName": "Jogibahal",
    "lat": 20.1182123,
    "lon": 82.7224272
  },
  {
    "partId": 13708,
    "stateCode": "S18",
    "stateName": "Odisha",
    "districtCode": "S1815",
    "districtName": "Nuapada",
    "acNumber": 72,
    "acName": "Khariar",
    "partNumber": 252,
    "partName": "Sitilikhalia",
    "lat": 20.2700878,
    "lon": 82.74788762720786
  },
  {
    "partId": 13709,
    "stateCode": "S18",
    "stateName": "Odisha",
    "districtCode": "S1815",
    "districtName": "Nuapada",
    "acNumber": 72,
    "acName": "Khariar",
    "partNumber": 253,
    "partName": "Chaura",
    "lat": 20.4641485,
    "lon": 82.5083756
  },
  {
    "partId": 13710,
    "stateCode": "S18",
    "stateName": "Odisha",
    "districtCode": "S1815",
    "districtName": "Nuapada",
    "acNumber": 72,
    "acName": "Khariar",
    "partNumber": 254,
    "partName": "Makhapadar",
    "lat": 20.6743369,
    "lon": 82.6633322
  },
  {
    "partId": 13711,
    "stateCode": "S18",
    "stateName": "Odisha",
    "districtCode": "S1815",
    "districtName": "Nuapada",
    "acNumber": 72,
    "acName": "Khariar",
    "partNumber": 255,
    "partName": "Liad",
    "lat": 20.1113316,
    "lon": 82.7963161
  },
  {
    "partId": 13712,
    "stateCode": "S18",
    "stateName": "Odisha",
    "districtCode": "S1815",
    "districtName": "Nuapada",
    "acNumber": 72,
    "acName": "Khariar",
    "partNumber": 256,
    "partName": "Jhankaraguda",
    "lat": 20.2700878,
    "lon": 82.74788762720786
  },
  {
    "partId": 13713,
    "stateCode": "S18",
    "stateName": "Odisha",
    "districtCode": "S1815",
    "districtName": "Nuapada",
    "acNumber": 72,
    "acName": "Khariar",
    "partNumber": 257,
    "partName": "Hatibandha-I",
    "lat": 20.0981533,
    "lon": 82.7436054
  },
  {
    "partId": 13714,
    "stateCode": "S18",
    "stateName": "Odisha",
    "districtCode": "S1815",
    "districtName": "Nuapada",
    "acNumber": 72,
    "acName": "Khariar",
    "partNumber": 258,
    "partName": "Hatibandha-III",
    "lat": 20.2700878,
    "lon": 82.74788762720786
  },
  {
    "partId": 13715,
    "stateCode": "S18",
    "stateName": "Odisha",
    "districtCode": "S1815",
    "districtName": "Nuapada",
    "acNumber": 72,
    "acName": "Khariar",
    "partNumber": 259,
    "partName": "Hatibandha-II",
    "lat": 20.0981533,
    "lon": 82.7436054
  },
  {
    "partId": 13716,
    "stateCode": "S18",
    "stateName": "Odisha",
    "districtCode": "S1815",
    "districtName": "Nuapada",
    "acNumber": 72,
    "acName": "Khariar",
    "partNumber": 260,
    "partName": "Hatibandha-IV",
    "lat": 20.2700878,
    "lon": 82.74788762720786
  },
  {
    "partId": 13717,
    "stateCode": "S18",
    "stateName": "Odisha",
    "districtCode": "S1815",
    "districtName": "Nuapada",
    "acNumber": 72,
    "acName": "Khariar",
    "partNumber": 261,
    "partName": "Dhingiamunda",
    "lat": 20.0349672,
    "lon": 82.5536084
  },
  {
    "partId": 13718,
    "stateCode": "S18",
    "stateName": "Odisha",
    "districtCode": "S1815",
    "districtName": "Nuapada",
    "acNumber": 72,
    "acName": "Khariar",
    "partNumber": 262,
    "partName": "Charpali",
    "lat": 20.0907376,
    "lon": 82.7662325
  },
  {
    "partId": 13719,
    "stateCode": "S18",
    "stateName": "Odisha",
    "districtCode": "S1815",
    "districtName": "Nuapada",
    "acNumber": 72,
    "acName": "Khariar",
    "partNumber": 263,
    "partName": "Chalana",
    "lat": 20.0988989,
    "lon": 82.7150935
  },
  {
    "partId": 13720,
    "stateCode": "S18",
    "stateName": "Odisha",
    "districtCode": "S1815",
    "districtName": "Nuapada",
    "acNumber": 72,
    "acName": "Khariar",
    "partNumber": 264,
    "partName": "Chacharabhata",
    "lat": 20.0852763,
    "lon": 82.7159089
  },
  {
    "partId": 13721,
    "stateCode": "S18",
    "stateName": "Odisha",
    "districtCode": "S1815",
    "districtName": "Nuapada",
    "acNumber": 72,
    "acName": "Khariar",
    "partNumber": 265,
    "partName": "Kotamal",
    "lat": 20.2700878,
    "lon": 82.74788762720786
  },
  {
    "partId": 13722,
    "stateCode": "S18",
    "stateName": "Odisha",
    "districtCode": "S1815",
    "districtName": "Nuapada",
    "acNumber": 72,
    "acName": "Khariar",
    "partNumber": 266,
    "partName": "Mahagaon",
    "lat": 20.0759504,
    "lon": 82.6610738
  },
  {
    "partId": 13723,
    "stateCode": "S18",
    "stateName": "Odisha",
    "districtCode": "S1815",
    "districtName": "Nuapada",
    "acNumber": 72,
    "acName": "Khariar",
    "partNumber": 267,
    "partName": "Brahmanpada",
    "lat": 20.0460392,
    "lon": 82.6565194
  },
  {
    "partId": 13724,
    "stateCode": "S18",
    "stateName": "Odisha",
    "districtCode": "S1815",
    "districtName": "Nuapada",
    "acNumber": 72,
    "acName": "Khariar",
    "partNumber": 268,
    "partName": "Godal",
    "lat": 20.0807721,
    "lon": 82.6430386
  },
  {
    "partId": 13725,
    "stateCode": "S18",
    "stateName": "Odisha",
    "districtCode": "S1815",
    "districtName": "Nuapada",
    "acNumber": 72,
    "acName": "Khariar",
    "partNumber": 269,
    "partName": "Kodobeda",
    "lat": 20.0685034,
    "lon": 82.6185715
  },
  {
    "partId": 13726,
    "stateCode": "S18",
    "stateName": "Odisha",
    "districtCode": "S1815",
    "districtName": "Nuapada",
    "acNumber": 72,
    "acName": "Khariar",
    "partNumber": 270,
    "partName": "Pendaren",
    "lat": 20.2700878,
    "lon": 82.74788762720786
  },
  {
    "partId": 13727,
    "stateCode": "S18",
    "stateName": "Odisha",
    "districtCode": "S1815",
    "districtName": "Nuapada",
    "acNumber": 72,
    "acName": "Khariar",
    "partNumber": 271,
    "partName": "Singajhar-I",
    "lat": 20.2700878,
    "lon": 82.74788762720786
  },
  {
    "partId": 13728,
    "stateCode": "S18",
    "stateName": "Odisha",
    "districtCode": "S1815",
    "districtName": "Nuapada",
    "acNumber": 72,
    "acName": "Khariar",
    "partNumber": 272,
    "partName": "Singajhar-II",
    "lat": 20.2700878,
    "lon": 82.74788762720786
  },
  {
    "partId": 13729,
    "stateCode": "S18",
    "stateName": "Odisha",
    "districtCode": "S1815",
    "districtName": "Nuapada",
    "acNumber": 72,
    "acName": "Khariar",
    "partNumber": 273,
    "partName": "Singajhar-III",
    "lat": 20.2700878,
    "lon": 82.74788762720786
  },
  {
    "partId": 13730,
    "stateCode": "S18",
    "stateName": "Odisha",
    "districtCode": "S1815",
    "districtName": "Nuapada",
    "acNumber": 72,
    "acName": "Khariar",
    "partNumber": 274,
    "partName": "Karanbahali",
    "lat": 20.0664553,
    "lon": 82.5995564
  },
  {
    "partId": 13731,
    "stateCode": "S18",
    "stateName": "Odisha",
    "districtCode": "S1815",
    "districtName": "Nuapada",
    "acNumber": 72,
    "acName": "Khariar",
    "partNumber": 275,
    "partName": "Kuliadongri",
    "lat": 20.2700878,
    "lon": 82.74788762720786
  },
  {
    "partId": 13732,
    "stateCode": "S18",
    "stateName": "Odisha",
    "districtCode": "S1815",
    "districtName": "Nuapada",
    "acNumber": 72,
    "acName": "Khariar",
    "partNumber": 276,
    "partName": "Dongariguda",
    "lat": 20.2700878,
    "lon": 82.74788762720786
  },
  {
    "partId": 13733,
    "stateCode": "S18",
    "stateName": "Odisha",
    "districtCode": "S1815",
    "districtName": "Nuapada",
    "acNumber": 72,
    "acName": "Khariar",
    "partNumber": 277,
    "partName": "Badibahal",
    "lat": 20.0502168,
    "lon": 82.6024622
  },
  {
    "partId": 13734,
    "stateCode": "S18",
    "stateName": "Odisha",
    "districtCode": "S1815",
    "districtName": "Nuapada",
    "acNumber": 72,
    "acName": "Khariar",
    "partNumber": 278,
    "partName": "Kendumunda-I",
    "lat": 20.0701334,
    "lon": 82.5723571
  },
  {
    "partId": 13735,
    "stateCode": "S18",
    "stateName": "Odisha",
    "districtCode": "S1815",
    "districtName": "Nuapada",
    "acNumber": 72,
    "acName": "Khariar",
    "partNumber": 279,
    "partName": "Kandulakona",
    "lat": 20.251525752640845,
    "lon": 82.6872931579397
  },
  {
    "partId": 13736,
    "stateCode": "S18",
    "stateName": "Odisha",
    "districtCode": "S1815",
    "districtName": "Nuapada",
    "acNumber": 72,
    "acName": "Khariar",
    "partNumber": 280,
    "partName": "Kendumunda-II",
    "lat": 20.0701334,
    "lon": 82.5723571
  },
  {
    "partId": 13737,
    "stateCode": "S18",
    "stateName": "Odisha",
    "districtCode": "S1815",
    "districtName": "Nuapada",
    "acNumber": 72,
    "acName": "Khariar",
    "partNumber": 281,
    "partName": "Dhingiamunda",
    "lat": 20.0349672,
    "lon": 82.5536084
  },
  {
    "partId": 13738,
    "stateCode": "S18",
    "stateName": "Odisha",
    "districtCode": "S1815",
    "districtName": "Nuapada",
    "acNumber": 72,
    "acName": "Khariar",
    "partNumber": 282,
    "partName": "Kendumunda-III",
    "lat": 20.2700878,
    "lon": 82.74788762720786
  },
  {
    "partId": 13739,
    "stateCode": "S18",
    "stateName": "Odisha",
    "districtCode": "S1815",
    "districtName": "Nuapada",
    "acNumber": 72,
    "acName": "Khariar",
    "partNumber": 283,
    "partName": "Haladimunda",
    "lat": 20.2700878,
    "lon": 82.74788762720786
  },
  {
    "partId": 13740,
    "stateCode": "S18",
    "stateName": "Odisha",
    "districtCode": "S1815",
    "districtName": "Nuapada",
    "acNumber": 72,
    "acName": "Khariar",
    "partNumber": 284,
    "partName": "Nangalbod",
    "lat": 20.0812054,
    "lon": 82.4537283
  },
  {
    "partId": 13741,
    "stateCode": "S18",
    "stateName": "Odisha",
    "districtCode": "S1815",
    "districtName": "Nuapada",
    "acNumber": 72,
    "acName": "Khariar",
    "partNumber": 285,
    "partName": "Bhatapani",
    "lat": 20.0926772,
    "lon": 82.4437666
  },
  {
    "partId": 13742,
    "stateCode": "S18",
    "stateName": "Odisha",
    "districtCode": "S1815",
    "districtName": "Nuapada",
    "acNumber": 72,
    "acName": "Khariar",
    "partNumber": 286,
    "partName": "Nuamalpada",
    "lat": 20.020714,
    "lon": 82.5077534
  },
  {
    "partId": 13743,
    "stateCode": "S18",
    "stateName": "Odisha",
    "districtCode": "S1815",
    "districtName": "Nuapada",
    "acNumber": 72,
    "acName": "Khariar",
    "partNumber": 287,
    "partName": "Jharabandha",
    "lat": 20.2700878,
    "lon": 82.74788762720786
  },
  {
    "partId": 13744,
    "stateCode": "S18",
    "stateName": "Odisha",
    "districtCode": "S1815",
    "districtName": "Nuapada",
    "acNumber": 72,
    "acName": "Khariar",
    "partNumber": 288,
    "partName": "Tileimal",
    "lat": 20.251525752640845,
    "lon": 82.6872931579397
  },
  {
    "partId": 13745,
    "stateCode": "S18",
    "stateName": "Odisha",
    "districtCode": "S1815",
    "districtName": "Nuapada",
    "acNumber": 72,
    "acName": "Khariar",
    "partNumber": 289,
    "partName": "Malpada-I",
    "lat": 20.114505,
    "lon": 82.7548814
  },
  {
    "partId": 13746,
    "stateCode": "S18",
    "stateName": "Odisha",
    "districtCode": "S1815",
    "districtName": "Nuapada",
    "acNumber": 72,
    "acName": "Khariar",
    "partNumber": 290,
    "partName": "Nagajhar",
    "lat": 20.2700878,
    "lon": 82.74788762720786
  },
  {
    "partId": 13747,
    "stateCode": "S18",
    "stateName": "Odisha",
    "districtCode": "S1815",
    "districtName": "Nuapada",
    "acNumber": 72,
    "acName": "Khariar",
    "partNumber": 291,
    "partName": "Malpada-II",
    "lat": 20.114505,
    "lon": 82.7548814
  },
  {
    "partId": 13748,
    "stateCode": "S18",
    "stateName": "Odisha",
    "districtCode": "S1815",
    "districtName": "Nuapada",
    "acNumber": 72,
    "acName": "Khariar",
    "partNumber": 292,
    "partName": "Brahmaniguda",
    "lat": 20.0250939,
    "lon": 82.6333398
  },
  {
    "partId": 13749,
    "stateCode": "S18",
    "stateName": "Odisha",
    "districtCode": "S1815",
    "districtName": "Nuapada",
    "acNumber": 72,
    "acName": "Khariar",
    "partNumber": 293,
    "partName": "Kusumjore-I",
    "lat": 20.0228309,
    "lon": 82.6480007
  },
  {
    "partId": 13750,
    "stateCode": "S18",
    "stateName": "Odisha",
    "districtCode": "S1815",
    "districtName": "Nuapada",
    "acNumber": 72,
    "acName": "Khariar",
    "partNumber": 294,
    "partName": "Kaseipani",
    "lat": 20.012352,
    "lon": 82.6625007
  },
  {
    "partId": 13751,
    "stateCode": "S18",
    "stateName": "Odisha",
    "districtCode": "S1815",
    "districtName": "Nuapada",
    "acNumber": 72,
    "acName": "Khariar",
    "partNumber": 295,
    "partName": "Kusumjore-II",
    "lat": 20.0228309,
    "lon": 82.6480007
  },
  {
    "partId": 13752,
    "stateCode": "S18",
    "stateName": "Odisha",
    "districtCode": "S1815",
    "districtName": "Nuapada",
    "acNumber": 72,
    "acName": "Khariar",
    "partNumber": 296,
    "partName": "Bharuamunda",
    "lat": 20.7048792,
    "lon": 82.4195409
  },
  {
    "partId": 13753,
    "stateCode": "S18",
    "stateName": "Odisha",
    "districtCode": "S1815",
    "districtName": "Nuapada",
    "acNumber": 72,
    "acName": "Khariar",
    "partNumber": 297,
    "partName": "Jarelapadar",
    "lat": 20.2700878,
    "lon": 82.74788762720786
  },
  {
    "partId": 13754,
    "stateCode": "S18",
    "stateName": "Odisha",
    "districtCode": "S1815",
    "districtName": "Nuapada",
    "acNumber": 72,
    "acName": "Khariar",
    "partNumber": 298,
    "partName": "Gambhariguda",
    "lat": 20.1450679,
    "lon": 82.6805413
  },
  {
    "partId": 13755,
    "stateCode": "S18",
    "stateName": "Odisha",
    "districtCode": "S1815",
    "districtName": "Nuapada",
    "acNumber": 72,
    "acName": "Khariar",
    "partNumber": 299,
    "partName": "Nuapada",
    "lat": 20.769099750000002,
    "lon": 82.51862845874122
  },
  {
    "partId": 13756,
    "stateCode": "S18",
    "stateName": "Odisha",
    "districtCode": "S1815",
    "districtName": "Nuapada",
    "acNumber": 72,
    "acName": "Khariar",
    "partNumber": 300,
    "partName": "Litiguda-I",
    "lat": 20.0740912,
    "lon": 82.7257526
  },
  {
    "partId": 13757,
    "stateCode": "S18",
    "stateName": "Odisha",
    "districtCode": "S1815",
    "districtName": "Nuapada",
    "acNumber": 72,
    "acName": "Khariar",
    "partNumber": 301,
    "partName": "Litiguda-II",
    "lat": 20.0740912,
    "lon": 82.7257526
  },
  {
    "partId": 13758,
    "stateCode": "S18",
    "stateName": "Odisha",
    "districtCode": "S1815",
    "districtName": "Nuapada",
    "acNumber": 72,
    "acName": "Khariar",
    "partNumber": 302,
    "partName": "Kokapadar",
    "lat": 20.2700878,
    "lon": 82.74788762720786
  },
  {
    "partId": 48283,
    "stateCode": "S18",
    "stateName": "Odisha",
    "districtCode": "S1815",
    "districtName": "Nuapada",
    "acNumber": 71,
    "acName": "Nuapada",
    "partNumber": 1,
    "partName": "Amodi",
    "lat": 21.0747984,
    "lon": 82.6340098533096
  },
  {
    "partId": 48284,
    "stateCode": "S18",
    "stateName": "Odisha",
    "districtCode": "S1815",
    "districtName": "Nuapada",
    "acNumber": 71,
    "acName": "Nuapada",
    "partNumber": 2,
    "partName": "Amodi-2",
    "lat": 21.0747984,
    "lon": 82.6340098533096
  },
  {
    "partId": 48285,
    "stateCode": "S18",
    "stateName": "Odisha",
    "districtCode": "S1815",
    "districtName": "Nuapada",
    "acNumber": 71,
    "acName": "Nuapada",
    "partNumber": 3,
    "partName": "Tamkidadar",
    "lat": 21.06123555,
    "lon": 82.66334016149365
  },
  {
    "partId": 48286,
    "stateCode": "S18",
    "stateName": "Odisha",
    "districtCode": "S1815",
    "districtName": "Nuapada",
    "acNumber": 71,
    "acName": "Nuapada",
    "partNumber": 4,
    "partName": "Bhaleswar",
    "lat": 21.052723,
    "lon": 82.63422497806536
  },
  {
    "partId": 48287,
    "stateCode": "S18",
    "stateName": "Odisha",
    "districtCode": "S1815",
    "districtName": "Nuapada",
    "acNumber": 71,
    "acName": "Nuapada",
    "partNumber": 5,
    "partName": "Kururrmunda",
    "lat": 20.769099750000002,
    "lon": 82.51862845874122
  },
  {
    "partId": 48288,
    "stateCode": "S18",
    "stateName": "Odisha",
    "districtCode": "S1815",
    "districtName": "Nuapada",
    "acNumber": 71,
    "acName": "Nuapada",
    "partNumber": 6,
    "partName": "Bakharmal",
    "lat": 21.021768899999998,
    "lon": 82.62223523868168
  },
  {
    "partId": 48289,
    "stateCode": "S18",
    "stateName": "Odisha",
    "districtCode": "S1815",
    "districtName": "Nuapada",
    "acNumber": 71,
    "acName": "Nuapada",
    "partNumber": 7,
    "partName": "Beltukri-1",
    "lat": 21.0267981,
    "lon": 82.642769
  },
  {
    "partId": 48290,
    "stateCode": "S18",
    "stateName": "Odisha",
    "districtCode": "S1815",
    "districtName": "Nuapada",
    "acNumber": 71,
    "acName": "Nuapada",
    "partNumber": 8,
    "partName": "Beltukri-2",
    "lat": 21.0267981,
    "lon": 82.642769
  },
  {
    "partId": 48291,
    "stateCode": "S18",
    "stateName": "Odisha",
    "districtCode": "S1815",
    "districtName": "Nuapada",
    "acNumber": 71,
    "acName": "Nuapada",
    "partNumber": 9,
    "partName": "Saraipali-1",
    "lat": 21.0454872,
    "lon": 82.65592009455949
  },
  {
    "partId": 48292,
    "stateCode": "S18",
    "stateName": "Odisha",
    "districtCode": "S1815",
    "districtName": "Nuapada",
    "acNumber": 71,
    "acName": "Nuapada",
    "partNumber": 10,
    "partName": "Saraipali-2",
    "lat": 21.0454872,
    "lon": 82.65592009455949
  },
  {
    "partId": 48293,
    "stateCode": "S18",
    "stateName": "Odisha",
    "districtCode": "S1815",
    "districtName": "Nuapada",
    "acNumber": 71,
    "acName": "Nuapada",
    "partNumber": 11,
    "partName": "Gudapatara",
    "lat": 20.769099750000002,
    "lon": 82.51862845874122
  },
  {
    "partId": 48294,
    "stateCode": "S18",
    "stateName": "Odisha",
    "districtCode": "S1815",
    "districtName": "Nuapada",
    "acNumber": 71,
    "acName": "Nuapada",
    "partNumber": 12,
    "partName": "Pandripani",
    "lat": 21.0185077,
    "lon": 82.65805288169346
  },
  {
    "partId": 48295,
    "stateCode": "S18",
    "stateName": "Odisha",
    "districtCode": "S1815",
    "districtName": "Nuapada",
    "acNumber": 71,
    "acName": "Nuapada",
    "partNumber": 13,
    "partName": "Negipali",
    "lat": 21.0038132,
    "lon": 82.6187968
  },
  {
    "partId": 48296,
    "stateCode": "S18",
    "stateName": "Odisha",
    "districtCode": "S1815",
    "districtName": "Nuapada",
    "acNumber": 71,
    "acName": "Nuapada",
    "partNumber": 14,
    "partName": "Jhitiki",
    "lat": 20.769099750000002,
    "lon": 82.51862845874122
  },
  {
    "partId": 48297,
    "stateCode": "S18",
    "stateName": "Odisha",
    "districtCode": "S1815",
    "districtName": "Nuapada",
    "acNumber": 71,
    "acName": "Nuapada",
    "partNumber": 15,
    "partName": "Bisora",
    "lat": 20.9845813,
    "lon": 82.624864
  },
  {
    "partId": 48298,
    "stateCode": "S18",
    "stateName": "Odisha",
    "districtCode": "S1815",
    "districtName": "Nuapada",
    "acNumber": 71,
    "acName": "Nuapada",
    "partNumber": 16,
    "partName": "Sardhapur",
    "lat": 20.9709772,
    "lon": 82.620964
  },
  {
    "partId": 48299,
    "stateCode": "S18",
    "stateName": "Odisha",
    "districtCode": "S1815",
    "districtName": "Nuapada",
    "acNumber": 71,
    "acName": "Nuapada",
    "partNumber": 17,
    "partName": "Kadomeri",
    "lat": 20.9819718,
    "lon": 82.6471156
  },
  {
    "partId": 48300,
    "stateCode": "S18",
    "stateName": "Odisha",
    "districtCode": "S1815",
    "districtName": "Nuapada",
    "acNumber": 71,
    "acName": "Nuapada",
    "partNumber": 18,
    "partName": "Singhpur",
    "lat": 21.0014294,
    "lon": 82.6648664
  },
  {
    "partId": 48301,
    "stateCode": "S18",
    "stateName": "Odisha",
    "districtCode": "S1815",
    "districtName": "Nuapada",
    "acNumber": 71,
    "acName": "Nuapada",
    "partNumber": 19,
    "partName": "Masankunda-1",
    "lat": 20.9633833,
    "lon": 82.6523781
  },
  {
    "partId": 48302,
    "stateCode": "S18",
    "stateName": "Odisha",
    "districtCode": "S1815",
    "districtName": "Nuapada",
    "acNumber": 71,
    "acName": "Nuapada",
    "partNumber": 20,
    "partName": "Masankunda-2",
    "lat": 20.9633833,
    "lon": 82.6523781
  },
  {
    "partId": 48303,
    "stateCode": "S18",
    "stateName": "Odisha",
    "districtCode": "S1815",
    "districtName": "Nuapada",
    "acNumber": 71,
    "acName": "Nuapada",
    "partNumber": 21,
    "partName": "Dhanora",
    "lat": 20.9605429,
    "lon": 82.6288873
  },
  {
    "partId": 48304,
    "stateCode": "S18",
    "stateName": "Odisha",
    "districtCode": "S1815",
    "districtName": "Nuapada",
    "acNumber": 71,
    "acName": "Nuapada",
    "partNumber": 22,
    "partName": "Babankera",
    "lat": 20.9654371,
    "lon": 82.5986695
  },
  {
    "partId": 48305,
    "stateCode": "S18",
    "stateName": "Odisha",
    "districtCode": "S1815",
    "districtName": "Nuapada",
    "acNumber": 71,
    "acName": "Nuapada",
    "partNumber": 23,
    "partName": "Lukupali",
    "lat": 20.9909121,
    "lon": 82.5991523
  },
  {
    "partId": 48306,
    "stateCode": "S18",
    "stateName": "Odisha",
    "districtCode": "S1815",
    "districtName": "Nuapada",
    "acNumber": 71,
    "acName": "Nuapada",
    "partNumber": 24,
    "partName": "Chingarasarar",
    "lat": 20.733658707317073,
    "lon": 82.5717203947215
  },
  {
    "partId": 48307,
    "stateCode": "S18",
    "stateName": "Odisha",
    "districtCode": "S1815",
    "districtName": "Nuapada",
    "acNumber": 71,
    "acName": "Nuapada",
    "partNumber": 25,
    "partName": "Semeria",
    "lat": 20.9487252,
    "lon": 82.5860766
  },
  {
    "partId": 48308,
    "stateCode": "S18",
    "stateName": "Odisha",
    "districtCode": "S1815",
    "districtName": "Nuapada",
    "acNumber": 71,
    "acName": "Nuapada",
    "partNumber": 26,
    "partName": "Bhusudi",
    "lat": 20.9498975,
    "lon": 82.5687361
  },
  {
    "partId": 48309,
    "stateCode": "S18",
    "stateName": "Odisha",
    "districtCode": "S1815",
    "districtName": "Nuapada",
    "acNumber": 71,
    "acName": "Nuapada",
    "partNumber": 27,
    "partName": "Parkod",
    "lat": 20.9312298,
    "lon": 82.5680709
  },
  {
    "partId": 48310,
    "stateCode": "S18",
    "stateName": "Odisha",
    "districtCode": "S1815",
    "districtName": "Nuapada",
    "acNumber": 71,
    "acName": "Nuapada",
    "partNumber": 28,
    "partName": "Baloda",
    "lat": 20.9152758,
    "lon": 82.5625455
  },
  {
    "partId": 48311,
    "stateCode": "S18",
    "stateName": "Odisha",
    "districtCode": "S1815",
    "districtName": "Nuapada",
    "acNumber": 71,
    "acName": "Nuapada",
    "partNumber": 29,
    "partName": "Gaharendihi",
    "lat": 20.769099750000002,
    "lon": 82.51862845874122
  },
  {
    "partId": 48312,
    "stateCode": "S18",
    "stateName": "Odisha",
    "districtCode": "S1815",
    "districtName": "Nuapada",
    "acNumber": 71,
    "acName": "Nuapada",
    "partNumber": 30,
    "partName": "Senbhata",
    "lat": 20.9538853,
    "lon": 82.6028108
  },
  {
    "partId": 48313,
    "stateCode": "S18",
    "stateName": "Odisha",
    "districtCode": "S1815",
    "districtName": "Nuapada",
    "acNumber": 71,
    "acName": "Nuapada",
    "partNumber": 31,
    "partName": "Bhotha",
    "lat": 20.9244456,
    "lon": 82.6086473
  },
  {
    "partId": 48314,
    "stateCode": "S18",
    "stateName": "Odisha",
    "districtCode": "S1815",
    "districtName": "Nuapada",
    "acNumber": 71,
    "acName": "Nuapada",
    "partNumber": 32,
    "partName": "Kuliabandha",
    "lat": 20.9420219,
    "lon": 82.6253736
  },
  {
    "partId": 48315,
    "stateCode": "S18",
    "stateName": "Odisha",
    "districtCode": "S1815",
    "districtName": "Nuapada",
    "acNumber": 71,
    "acName": "Nuapada",
    "partNumber": 33,
    "partName": "Bhanpur-I",
    "lat": 20.9283538,
    "lon": 82.6621628
  },
  {
    "partId": 48316,
    "stateCode": "S18",
    "stateName": "Odisha",
    "districtCode": "S1815",
    "districtName": "Nuapada",
    "acNumber": 71,
    "acName": "Nuapada",
    "partNumber": 34,
    "partName": "Bhanpur-II",
    "lat": 20.9283538,
    "lon": 82.6621628
  },
  {
    "partId": 48317,
    "stateCode": "S18",
    "stateName": "Odisha",
    "districtCode": "S1815",
    "districtName": "Nuapada",
    "acNumber": 71,
    "acName": "Nuapada",
    "partNumber": 35,
    "partName": "Ranidarha",
    "lat": 20.9450844,
    "lon": 82.6882148
  },
  {
    "partId": 48318,
    "stateCode": "S18",
    "stateName": "Odisha",
    "districtCode": "S1815",
    "districtName": "Nuapada",
    "acNumber": 71,
    "acName": "Nuapada",
    "partNumber": 36,
    "partName": "Chhindapani",
    "lat": 20.769099750000002,
    "lon": 82.51862845874122
  },
  {
    "partId": 48319,
    "stateCode": "S18",
    "stateName": "Odisha",
    "districtCode": "S1815",
    "districtName": "Nuapada",
    "acNumber": 71,
    "acName": "Nuapada",
    "partNumber": 37,
    "partName": "Chichiripani",
    "lat": 20.9145643,
    "lon": 82.6471746
  },
  {
    "partId": 48320,
    "stateCode": "S18",
    "stateName": "Odisha",
    "districtCode": "S1815",
    "districtName": "Nuapada",
    "acNumber": 71,
    "acName": "Nuapada",
    "partNumber": 38,
    "partName": "Biromal-1",
    "lat": 20.9146945,
    "lon": 82.597264
  },
  {
    "partId": 48321,
    "stateCode": "S18",
    "stateName": "Odisha",
    "districtCode": "S1815",
    "districtName": "Nuapada",
    "acNumber": 71,
    "acName": "Nuapada",
    "partNumber": 39,
    "partName": "Biromal-2",
    "lat": 20.9146945,
    "lon": 82.597264
  },
  {
    "partId": 48322,
    "stateCode": "S18",
    "stateName": "Odisha",
    "districtCode": "S1815",
    "districtName": "Nuapada",
    "acNumber": 71,
    "acName": "Nuapada",
    "partNumber": 40,
    "partName": "Darlinuapada",
    "lat": 20.769099750000002,
    "lon": 82.51862845874122
  },
  {
    "partId": 48323,
    "stateCode": "S18",
    "stateName": "Odisha",
    "districtCode": "S1815",
    "districtName": "Nuapada",
    "acNumber": 71,
    "acName": "Nuapada",
    "partNumber": 41,
    "partName": "Jamuli",
    "lat": 20.9159573,
    "lon": 82.581836
  },
  {
    "partId": 48324,
    "stateCode": "S18",
    "stateName": "Odisha",
    "districtCode": "S1815",
    "districtName": "Nuapada",
    "acNumber": 71,
    "acName": "Nuapada",
    "partNumber": 42,
    "partName": "Bhainsatal",
    "lat": 20.8962631,
    "lon": 82.5595844
  },
  {
    "partId": 48325,
    "stateCode": "S18",
    "stateName": "Odisha",
    "districtCode": "S1815",
    "districtName": "Nuapada",
    "acNumber": 71,
    "acName": "Nuapada",
    "partNumber": 43,
    "partName": "Mahatamtora",
    "lat": 20.769099750000002,
    "lon": 82.51862845874122
  },
  {
    "partId": 48326,
    "stateCode": "S18",
    "stateName": "Odisha",
    "districtCode": "S1815",
    "districtName": "Nuapada",
    "acNumber": 71,
    "acName": "Nuapada",
    "partNumber": 44,
    "partName": "Budhipali",
    "lat": 20.9096835,
    "lon": 82.5456798
  },
  {
    "partId": 48327,
    "stateCode": "S18",
    "stateName": "Odisha",
    "districtCode": "S1815",
    "districtName": "Nuapada",
    "acNumber": 71,
    "acName": "Nuapada",
    "partNumber": 45,
    "partName": "Amalidadar",
    "lat": 20.733658707317073,
    "lon": 82.5717203947215
  },
  {
    "partId": 48328,
    "stateCode": "S18",
    "stateName": "Odisha",
    "districtCode": "S1815",
    "districtName": "Nuapada",
    "acNumber": 71,
    "acName": "Nuapada",
    "partNumber": 46,
    "partName": "Jenjera",
    "lat": 20.9136923,
    "lon": 82.5329769
  },
  {
    "partId": 48329,
    "stateCode": "S18",
    "stateName": "Odisha",
    "districtCode": "S1815",
    "districtName": "Nuapada",
    "acNumber": 71,
    "acName": "Nuapada",
    "partNumber": 47,
    "partName": "Beheradihi",
    "lat": 20.9175408,
    "lon": 82.5335562
  },
  {
    "partId": 48330,
    "stateCode": "S18",
    "stateName": "Odisha",
    "districtCode": "S1815",
    "districtName": "Nuapada",
    "acNumber": 71,
    "acName": "Nuapada",
    "partNumber": 48,
    "partName": "Palsabhadar",
    "lat": 20.769099750000002,
    "lon": 82.51862845874122
  },